{
  "osm3s": {
    "timestamp_osm_date": "2022-08-14T23:59:59Z",
    "timestamp_osm_base": "2022-08-15T04:40:24Z",
    "copyright": "The data included in this document is from www.openstreetmap.org. The data is made available under ODbL."
  },
  "elements": [
    {
      "type": "node",
      "id": 150932821,
      "lat": 48.527745,
      "lon": -113.9931745,
      "timestamp": "2020-03-18T00:03:10Z",
      "version": 4,
      "changeset": 82321483,
      "user": "mapman44",
      "uid": 2888253,
      "tags": {
        "ele": "966",
        "gnis:County": "Flathead",
        "gnis:County_num": "029",
        "gnis:ST_alpha": "MT",
        "gnis:ST_num": "30",
        "gnis:id": "779098",
        "import_uuid": "bb7269ee-502a-5391-8056-e3ce0e66489c",
        "name": "Apgar",
        "place": "hamlet",
        "wikidata": "Q4779453"
      }
    },
    {
      "type": "node",
      "id": 150954396,
      "lat": 48.9038611,
      "lon": -114.390421,
      "timestamp": "2020-03-18T00:03:10Z",
      "version": 3,
      "changeset": 82321483,
      "user": "mapman44",
      "uid": 2888253,
      "tags": {
        "ele": "1168",
        "gnis:County": "Flathead",
        "gnis:County_num": "029",
        "gnis:ST_alpha": "MT",
        "gnis:ST_num": "30",
        "gnis:id": "793562",
        "import_uuid": "bb7269ee-502a-5391-8056-e3ce0e66489c",
        "name": "Wurtz Hill",
        "place": "hamlet"
      }
    },
    {
      "type": "node",
      "id": 150959943,
      "lat": 48.919139,
      "lon": -114.4073665,
      "timestamp": "2020-03-18T00:03:10Z",
      "version": 3,
      "changeset": 82321483,
      "user": "mapman44",
      "uid": 2888253,
      "tags": {
        "ele": "1193",
        "gnis:County": "Flathead",
        "gnis:County_num": "029",
        "gnis:ST_alpha": "MT",
        "gnis:ST_num": "30",
        "gnis:id": "792327",
        "import_uuid": "bb7269ee-502a-5391-8056-e3ce0e66489c",
        "name": "Trailcreek",
        "place": "hamlet"
      }
    },
    {
      "type": "node",
      "id": 150963115,
      "lat": 48.8755274,
      "lon": -114.3781979,
      "timestamp": "2020-03-18T00:03:10Z",
      "version": 3,
      "changeset": 82321483,
      "user": "mapman44",
      "uid": 2888253,
      "tags": {
        "ele": "1138",
        "gnis:County": "Flathead",
        "gnis:County_num": "029",
        "gnis:ST_alpha": "MT",
        "gnis:ST_num": "30",
        "gnis:id": "800801",
        "import_uuid": "bb7269ee-502a-5391-8056-e3ce0e66489c",
        "name": "Ford",
        "place": "hamlet"
      }
    },
    {
      "type": "node",
      "id": 150971200,
      "lat": 48.7652483,
      "lon": -114.285137,
      "timestamp": "2020-03-18T00:03:10Z",
      "version": 4,
      "changeset": 82321483,
      "user": "mapman44",
      "uid": 2888253,
      "tags": {
        "ele": "1074",
        "gnis:County": "Flathead",
        "gnis:County_num": "029",
        "gnis:ST_alpha": "MT",
        "gnis:ST_num": "30",
        "gnis:id": "789068",
        "import_uuid": "bb7269ee-502a-5391-8056-e3ce0e66489c",
        "name": "Polebridge",
        "place": "hamlet",
        "wikidata": "Q7209265"
      }
    },
    {
      "type": "node",
      "id": 150981970,
      "lat": 48.4835761,
      "lon": -114.5112505,
      "timestamp": "2019-12-14T06:04:32Z",
      "version": 3,
      "changeset": 78399977,
      "user": "mapman44",
      "uid": 2888253,
      "tags": {
        "ele": "948",
        "gnis:County": "Flathead",
        "gnis:County_num": "029",
        "gnis:ST_alpha": "MT",
        "gnis:ST_num": "30",
        "gnis:id": "786718",
        "import_uuid": "bb7269ee-502a-5391-8056-e3ce0e66489c",
        "name": "Lupfer",
        "place": "hamlet"
      }
    },
    {
      "type": "node",
      "id": 357923505,
      "lat": 48.7683067,
      "lon": -113.9734581,
      "timestamp": "2018-03-18T11:36:33Z",
      "version": 2,
      "changeset": 57288309,
      "user": "Edward",
      "uid": 364,
      "tags": {
        "ele": "2489",
        "gnis:county_id": "029",
        "gnis:created": "04/04/1980",
        "gnis:feature_id": "768235",
        "gnis:state_id": "30",
        "name": "Anaconda Peak",
        "natural": "peak",
        "wikidata": "Q4750695"
      }
    },
    {
      "type": "node",
      "id": 357924616,
      "lat": 48.8921972,
      "lon": -114.0776299,
      "timestamp": "2018-03-18T11:36:58Z",
      "version": 3,
      "changeset": 57288309,
      "user": "Edward",
      "uid": 364,
      "tags": {
        "ele": "3000",
        "gnis:county_id": "029",
        "gnis:created": "04/04/1980",
        "gnis:feature_id": "769631",
        "gnis:state_id": "30",
        "name": "Mount Carter",
        "natural": "peak",
        "wikidata": "Q6920066"
      }
    },
    {
      "type": "node",
      "id": 357926616,
      "lat": 48.7966408,
      "lon": -113.9701248,
      "timestamp": "2018-03-18T11:36:59Z",
      "version": 3,
      "changeset": 57288309,
      "user": "Edward",
      "uid": 364,
      "tags": {
        "ele": "2552",
        "gnis:county_id": "029",
        "gnis:created": "04/04/1980",
        "gnis:feature_id": "771734",
        "gnis:state_id": "30",
        "name": "Mount Geduhn",
        "natural": "peak",
        "wikidata": "Q6920874"
      }
    },
    {
      "type": "node",
      "id": 357928098,
      "lat": 48.8058068,
      "lon": -114.0470723,
      "timestamp": "2018-03-18T11:36:54Z",
      "version": 2,
      "changeset": 57288309,
      "user": "Edward",
      "uid": 364,
      "tags": {
        "ele": "2603",
        "gnis:county_id": "029",
        "gnis:created": "04/04/1980",
        "gnis:feature_id": "773557",
        "gnis:state_id": "30",
        "name": "Logging Mountain",
        "natural": "peak",
        "wikidata": "Q6667382"
      }
    },
    {
      "type": "node",
      "id": 357928167,
      "lat": 48.745529,
      "lon": -113.9392901,
      "timestamp": "2018-03-18T11:36:55Z",
      "version": 3,
      "changeset": 57288309,
      "user": "Edward",
      "uid": 364,
      "tags": {
        "ele": "2714",
        "gnis:county_id": "029",
        "gnis:created": "04/04/1980",
        "gnis:feature_id": "773661",
        "gnis:state_id": "30",
        "name": "Longfellow Peak",
        "natural": "peak",
        "wikidata": "Q6673793"
      }
    },
    {
      "type": "node",
      "id": 357929037,
      "lat": 48.9033077,
      "lon": -114.1612446,
      "timestamp": "2018-03-18T11:37:02Z",
      "version": 2,
      "changeset": 57288309,
      "user": "Edward",
      "uid": 364,
      "tags": {
        "ele": "2718",
        "gnis:county_id": "029",
        "gnis:created": "04/04/1980",
        "gnis:feature_id": "774881",
        "gnis:state_id": "30",
        "name": "Numa Peak",
        "natural": "peak",
        "wikidata": "Q7069032"
      }
    },
    {
      "type": "node",
      "id": 357929235,
      "lat": 48.7410844,
      "lon": -113.9367899,
      "timestamp": "2018-03-18T11:37:02Z",
      "version": 2,
      "changeset": 57288309,
      "user": "Edward",
      "uid": 364,
      "tags": {
        "ele": "2570",
        "gnis:county_id": "029",
        "gnis:created": "04/04/1980",
        "gnis:feature_id": "775115",
        "gnis:state_id": "30",
        "name": "Paul Bunyans Cabin",
        "natural": "peak",
        "wikidata": "Q7149598"
      }
    },
    {
      "type": "node",
      "id": 357929598,
      "lat": 48.8791413,
      "lon": -114.097075,
      "timestamp": "2018-03-18T11:37:05Z",
      "version": 2,
      "changeset": 57288309,
      "user": "Edward",
      "uid": 364,
      "tags": {
        "ele": "2988",
        "gnis:county_id": "029",
        "gnis:created": "04/04/1980",
        "gnis:feature_id": "775538",
        "gnis:state_id": "30",
        "name": "Rainbow Peak",
        "natural": "peak",
        "wikidata": "Q7284682"
      }
    },
    {
      "type": "node",
      "id": 357929912,
      "lat": 48.9116408,
      "lon": -114.2018019,
      "timestamp": "2018-03-18T11:37:05Z",
      "version": 2,
      "changeset": 57288309,
      "user": "Edward",
      "uid": 364,
      "tags": {
        "ele": "2667",
        "gnis:county_id": "029",
        "gnis:created": "04/04/1980",
        "gnis:feature_id": "775727",
        "gnis:state_id": "30",
        "name": "Reuter Peak",
        "natural": "peak",
        "wikidata": "Q7317627"
      }
    },
    {
      "type": "node",
      "id": 357930843,
      "lat": 48.8666409,
      "lon": -114.1045752,
      "timestamp": "2018-03-18T11:37:12Z",
      "version": 2,
      "changeset": 57288309,
      "user": "Edward",
      "uid": 364,
      "tags": {
        "ele": "2623",
        "gnis:county_id": "029",
        "gnis:created": "04/04/1980",
        "gnis:feature_id": "777115",
        "gnis:state_id": "30",
        "name": "Square Peak",
        "natural": "peak",
        "wikidata": "Q7582038"
      }
    },
    {
      "type": "node",
      "id": 357931973,
      "lat": 48.8371966,
      "lon": -114.0240161,
      "timestamp": "2018-03-18T11:37:14Z",
      "version": 3,
      "changeset": 57288309,
      "user": "Edward",
      "uid": 364,
      "tags": {
        "ele": "2937",
        "gnis:county_id": "029",
        "gnis:created": "04/04/1980",
        "gnis:feature_id": "778046",
        "gnis:state_id": "30",
        "name": "Vulture Peak",
        "natural": "peak",
        "wikidata": "Q7943595"
      }
    },
    {
      "type": "node",
      "id": 970800274,
      "lat": 48.5950125,
      "lon": -113.9269168,
      "timestamp": "2010-10-30T17:52:30Z",
      "version": 1,
      "changeset": 6230292,
      "user": "Gone",
      "uid": 120468,
      "tags": {
        "backcountry": "yes",
        "caravans": "no",
        "name": "McDonald Lake Campground",
        "tents": "yes",
        "tourism": "camp_site"
      }
    },
    {
      "type": "node",
      "id": 971395717,
      "lat": 48.74221,
      "lon": -114.12847,
      "timestamp": "2010-10-31T02:14:41Z",
      "version": 1,
      "changeset": 6230292,
      "user": "Gone",
      "uid": 120468,
      "tags": {
        "backcountry": "yes",
        "caravans": "no",
        "name": "Foot Logging Lake",
        "source": "NPS",
        "tents": "yes",
        "tourism": "camp_site"
      }
    },
    {
      "type": "node",
      "id": 971395727,
      "lat": 48.76755,
      "lon": -114.0516,
      "timestamp": "2010-10-31T02:14:41Z",
      "version": 1,
      "changeset": 6230292,
      "user": "Gone",
      "uid": 120468,
      "tags": {
        "backcountry": "yes",
        "caravans": "no",
        "name": "Adir",
        "source": "NPS",
        "tents": "yes",
        "tourism": "camp_site"
      }
    },
    {
      "type": "node",
      "id": 971395747,
      "lat": 48.78721,
      "lon": -114.00279,
      "timestamp": "2010-10-31T02:14:41Z",
      "version": 1,
      "changeset": 6230292,
      "user": "Gone",
      "uid": 120468,
      "tags": {
        "backcountry": "yes",
        "caravans": "no",
        "name": "Grace Lake",
        "source": "NPS",
        "tents": "yes",
        "tourism": "camp_site"
      }
    },
    {
      "type": "node",
      "id": 971415676,
      "lat": 48.79814,
      "lon": -114.17297,
      "timestamp": "2010-10-31T02:30:32Z",
      "version": 1,
      "changeset": 6230292,
      "user": "Gone",
      "uid": 120468,
      "tags": {
        "backcountry": "yes",
        "caravans": "no",
        "name": "Lower Quartz Lake",
        "source": "NPS",
        "tents": "yes",
        "tourism": "camp_site"
      }
    },
    {
      "type": "node",
      "id": 971415701,
      "lat": 48.85773,
      "lon": -114.36639,
      "timestamp": "2010-10-31T02:30:33Z",
      "version": 1,
      "changeset": 6230292,
      "user": "Gone",
      "uid": 120468,
      "tags": {
        "backcountry": "yes",
        "caravans": "no",
        "name": "Round Prairie",
        "source": "NPS",
        "tents": "yes",
        "tourism": "camp_site"
      }
    },
    {
      "type": "node",
      "id": 971415715,
      "lat": 48.90432,
      "lon": -114.12067,
      "timestamp": "2010-10-31T02:30:34Z",
      "version": 1,
      "changeset": 6230292,
      "user": "Gone",
      "uid": 120468,
      "tags": {
        "backcountry": "yes",
        "caravans": "no",
        "name": "Head Bowman Lake",
        "source": "NPS",
        "tents": "yes",
        "tourism": "camp_site"
      }
    },
    {
      "type": "node",
      "id": 971415733,
      "lat": 48.87511,
      "lon": -114.20055,
      "timestamp": "2010-10-31T02:30:36Z",
      "version": 1,
      "changeset": 6230292,
      "user": "Gone",
      "uid": 120468,
      "tags": {
        "backcountry": "yes",
        "caravans": "no",
        "name": "Akokala Lake",
        "source": "NPS",
        "tents": "yes",
        "tourism": "camp_site"
      }
    },
    {
      "type": "node",
      "id": 971415795,
      "lat": 48.82372,
      "lon": -114.13665,
      "timestamp": "2010-10-31T02:30:39Z",
      "version": 1,
      "changeset": 6230292,
      "user": "Gone",
      "uid": 120468,
      "tags": {
        "backcountry": "yes",
        "caravans": "no",
        "name": "Quartz Lake",
        "source": "NPS",
        "tents": "yes",
        "tourism": "camp_site"
      }
    },
    {
      "type": "node",
      "id": 971432003,
      "lat": 48.698453,
      "lon": -114.191732,
      "timestamp": "2010-10-31T02:46:31Z",
      "version": 1,
      "changeset": 6230292,
      "user": "Gone",
      "uid": 120468,
      "tags": {
        "name": "Logging Creek",
        "primitive": "yes",
        "source": "NPS map",
        "tourism": "camp_site"
      }
    },
    {
      "type": "node",
      "id": 971432017,
      "lat": 48.8291567,
      "lon": -114.2032819,
      "timestamp": "2010-10-31T02:46:32Z",
      "version": 1,
      "changeset": 6230292,
      "user": "Gone",
      "uid": 120468,
      "tags": {
        "name": "Bowman Lake",
        "primitive": "yes",
        "source": "NPS map",
        "tourism": "camp_site"
      }
    },
    {
      "type": "node",
      "id": 971432021,
      "lat": 48.7226144,
      "lon": -114.2242118,
      "timestamp": "2010-10-31T02:46:32Z",
      "version": 1,
      "changeset": 6230292,
      "user": "Gone",
      "uid": 120468,
      "tags": {
        "name": "Quartz Creek",
        "primitive": "yes",
        "source": "NPS map",
        "tourism": "camp_site"
      }
    },
    {
      "type": "node",
      "id": 4694000719,
      "lat": 48.4963369,
      "lon": -113.982443,
      "timestamp": "2021-11-13T21:44:23Z",
      "version": 2,
      "changeset": 113746188,
      "user": "person423089772843091",
      "uid": 14345428,
      "tags": {
        "name": "West Glacier",
        "place": "town",
        "population": "150",
        "wikidata": "Q2841651",
        "wikipedia": "en:West Glacier, Montana"
      }
    },
    {
      "type": "node",
      "id": 4962931147,
      "lat": 48.5230166,
      "lon": -113.9883367,
      "timestamp": "2017-07-11T01:22:21Z",
      "version": 1,
      "changeset": 50190011,
      "user": "HubMiner",
      "uid": 238419,
      "tags": {
        "amenity": "drinking_water"
      }
    },
    {
      "type": "node",
      "id": 5391442932,
      "lat": 48.5903425,
      "lon": -114.6034386,
      "timestamp": "2018-02-06T02:30:39Z",
      "version": 1,
      "changeset": 56103049,
      "user": "Loren S",
      "uid": 1819522,
      "tags": {
        "name": "Dog Creek Campgrounds",
        "source": "http://www.hikercentral.com/campgrounds/107145.html",
        "tourism": "camp_site"
      }
    },
    {
      "type": "node",
      "id": 7799196969,
      "lat": 48.6896333,
      "lon": -114.1945364,
      "timestamp": "2020-08-09T19:53:38Z",
      "version": 1,
      "changeset": 89163500,
      "user": "PonyoDC",
      "uid": 10545124,
      "tags": {
        "tourism": "camp_site"
      }
    },
    {
      "type": "node",
      "id": 8406886933,
      "lat": 48.6686966,
      "lon": -114.5874299,
      "timestamp": "2021-02-09T03:23:53Z",
      "version": 1,
      "changeset": 98940143,
      "user": "cbeddow",
      "uid": 2611295,
      "tags": {
        "fee": "yes",
        "name": "Winter Wonderland Yurt",
        "tourism": "alpine_hut"
      }
    },
    {
      "type": "node",
      "id": 8406893790,
      "lat": 48.6847616,
      "lon": -114.5749011,
      "timestamp": "2021-02-09T03:23:53Z",
      "version": 1,
      "changeset": 98940143,
      "user": "cbeddow",
      "uid": 2611295,
      "tags": {
        "name": "Upper Whitefish Lake Campground",
        "tourism": "camp_site"
      }
    },
    {
      "type": "node",
      "id": 8537930447,
      "lat": 48.5485799,
      "lon": -114.5781789,
      "timestamp": "2021-03-19T16:39:47Z",
      "version": 1,
      "changeset": 101341824,
      "user": "Mark Clayton",
      "uid": 12191449,
      "tags": {
        "ele": "966",
        "name": "Olney",
        "place": "hamlet"
      }
    },
    {
      "type": "node",
      "id": 8537930472,
      "lat": 48.5481852,
      "lon": -114.57743,
      "timestamp": "2021-03-19T16:39:47Z",
      "version": 1,
      "changeset": 101341824,
      "user": "Mark Clayton",
      "uid": 12191449,
      "tags": {
        "name": "Olney Store",
        "shop": "convenience"
      }
    },
    {
      "type": "way",
      "id": 181282797,
      "timestamp": "2021-06-02T17:36:38Z",
      "version": 2,
      "changeset": 105733018,
      "user": "DLance",
      "uid": 12842151,
      "center": {
        "lat": 48.5255665,
        "lon": -113.9806933
      },
      "nodes": [],
      "tags": {
        "name": "Apgar Campground",
        "operator": "NPS",
        "tourism": "camp_site"
      }
    },
    {
      "type": "way",
      "id": 355419411,
      "timestamp": "2022-03-03T15:13:11Z",
      "version": 2,
      "changeset": 118059586,
      "user": "leefrance",
      "uid": 4003599,
      "center": {
        "lat": 48.6007365,
        "lon": -114.1630896
      },
      "nodes": [],
      "tags": {
        "name": "Big Creek Campground",
        "tourism": "camp_site"
      }
    },
    {
      "type": "way",
      "id": 432724197,
      "timestamp": "2019-02-17T12:41:42Z",
      "version": 2,
      "changeset": 67278415,
      "user": "b-jazz",
      "uid": 5800005,
      "center": {
        "lat": 48.4636321,
        "lon": -113.9807237
      },
      "nodes": [],
      "tags": {
        "internet_access": "wlan",
        "name": "West Glacier KOA",
        "tourism": "camp_site",
        "website": "https://koa.com/campgrounds/west-glacier/"
      }
    },
    {
      "type": "way",
      "id": 614121340,
      "timestamp": "2018-08-04T21:04:35Z",
      "version": 1,
      "changeset": 61362116,
      "user": "cowdog",
      "uid": 3125856,
      "center": {
        "lat": 48.5493122,
        "lon": -113.9832241
      },
      "nodes": [],
      "tags": {
        "caravans": "yes",
        "drinking_water": "yes",
        "name": "Fish Creek",
        "sanitary_dump_station": "yes",
        "tents": "yes",
        "tourism": "camp_site"
      }
    }
  ]
}