{
  "osm3s": {
    "timestamp_osm_date": "2022-07-09T23:59:59Z",
    "timestamp_osm_base": "2022-07-10T05:42:24Z",
    "copyright": "The data included in this document is from www.openstreetmap.org. The data is made available under ODbL."
  },
  "elements": [
    {
      "type": "node",
      "id": 21103257,
      "lat": 42.1118935,
      "lon": 9.1121487,
      "timestamp": "2021-02-16T10:39:59Z",
      "version": 20,
      "changeset": 99372348,
      "user": "Hervé TUC",
      "uid": 922338,
      "tags": {
        "ele": "1183",
        "mountain_pass": "yes",
        "name": "Col de Vizzavona",
        "natural": "saddle",
        "wikidata": "Q2982142",
        "wikipedia": "fr:Col de Vizzavona"
      }
    },
    {
      "type": "node",
      "id": 26860182,
      "lat": 42.0794509,
      "lon": 8.747465,
      "timestamp": "2021-03-20T16:58:34Z",
      "version": 5,
      "changeset": 101397619,
      "user": "Jorisbo",
      "uid": 1983103,
      "tags": {
        "fixme": "doublon",
        "name": "Les Couchants",
        "tourism": "camp_site",
        "website": "https://camping-les-couchants.business.site"
      }
    },
    {
      "type": "node",
      "id": 26863917,
      "lat": 42.4667689,
      "lon": 8.9889165,
      "timestamp": "2020-05-30T18:44:17Z",
      "version": 3,
      "changeset": 85989965,
      "user": "Vulpachjinu",
      "uid": 10007009,
      "tags": {
        "ele": "2390",
        "name": "Monte Padro",
        "name:co": "Monte Patru",
        "natural": "peak",
        "wikidata": "Q31635146"
      }
    },
    {
      "type": "node",
      "id": 26863955,
      "lat": 42.216131,
      "lon": 9.0579488,
      "timestamp": "2021-08-29T21:17:01Z",
      "version": 8,
      "changeset": 110427636,
      "user": "Julien39",
      "uid": 195017,
      "tags": {
        "ele": "2622",
        "name": "Monte Rotondo",
        "name:co": "Monte Ritondu",
        "natural": "peak",
        "prominence": "1170",
        "wikidata": "Q641239",
        "wikipedia": "fr:Monte Rotondo"
      }
    },
    {
      "type": "node",
      "id": 26864371,
      "lat": 42.2646813,
      "lon": 8.9704423,
      "timestamp": "2021-05-30T11:47:51Z",
      "version": 6,
      "changeset": 105564582,
      "user": "pizzaiolo",
      "uid": 1772368,
      "tags": {
        "ele": "2327",
        "name": "Punta Artica",
        "natural": "peak",
        "wikidata": "Q3410862"
      }
    },
    {
      "type": "node",
      "id": 60613608,
      "lat": 42.0665463,
      "lon": 8.7386496,
      "timestamp": "2019-05-18T04:58:50Z",
      "version": 4,
      "changeset": 70378623,
      "user": "Lucae",
      "uid": 51122,
      "tags": {
        "name": "Tiuccia",
        "place": "village"
      }
    },
    {
      "type": "node",
      "id": 256038775,
      "lat": 42.1661203,
      "lon": 8.7957937,
      "timestamp": "2020-01-16T15:45:26Z",
      "version": 11,
      "changeset": 79656957,
      "user": "daop5510",
      "uid": 300696,
      "tags": {
        "name": "Vico",
        "place": "village",
        "wikipedia": "fr:Vico, Corse-du-Sud"
      }
    },
    {
      "type": "node",
      "id": 258379589,
      "lat": 42.0679672,
      "lon": 9.0166241,
      "timestamp": "2020-01-16T15:45:26Z",
      "version": 13,
      "changeset": 79656957,
      "user": "daop5510",
      "uid": 300696,
      "tags": {
        "addr:postcode": "20163",
        "name": "Tavera",
        "place": "village",
        "ref:FR:SIREN": "212003248"
      }
    },
    {
      "type": "node",
      "id": 292072676,
      "lat": 42.2115949,
      "lon": 9.0059046,
      "timestamp": "2020-09-06T14:04:00Z",
      "version": 8,
      "changeset": 90481599,
      "user": "mueschel",
      "uid": 616774,
      "tags": {
        "ele": "2225",
        "mountain_pass": "yes",
        "name": "Bocca alle Porte",
        "name:co": "Bocca à e Porte",
        "natural": "saddle"
      }
    },
    {
      "type": "node",
      "id": 292076149,
      "lat": 42.3431061,
      "lon": 8.8786753,
      "timestamp": "2021-05-30T11:47:36Z",
      "version": 3,
      "changeset": 105564582,
      "user": "pizzaiolo",
      "uid": 1772368,
      "tags": {
        "ele": "2525",
        "name": "Paglia Orba",
        "natural": "peak",
        "wikidata": "Q1935119"
      }
    },
    {
      "type": "node",
      "id": 297540684,
      "lat": 42.2032657,
      "lon": 9.0220109,
      "timestamp": "2018-10-26T22:05:42Z",
      "version": 3,
      "changeset": 63915902,
      "user": "Bathyscapher",
      "uid": 8889564,
      "tags": {
        "ele": "2052",
        "name": "Bocca a Soglia",
        "natural": "saddle"
      }
    },
    {
      "type": "node",
      "id": 299119843,
      "lat": 42.2676535,
      "lon": 8.6941493,
      "timestamp": "2013-12-12T01:27:07Z",
      "version": 4,
      "changeset": 19405183,
      "user": "RedFox",
      "uid": 10610,
      "tags": {
        "name": "Porto",
        "place": "village"
      }
    },
    {
      "type": "node",
      "id": 299830745,
      "lat": 42.4758988,
      "lon": 8.7567281,
      "timestamp": "2015-01-17T11:52:25Z",
      "version": 4,
      "changeset": 28205930,
      "user": "geow",
      "uid": 223093,
      "tags": {
        "ele": "443",
        "mountain_pass": "yes",
        "name": "Col de Marsolino",
        "natural": "saddle"
      }
    },
    {
      "type": "node",
      "id": 301175682,
      "lat": 42.4032858,
      "lon": 8.9235583,
      "timestamp": "2011-06-24T22:12:54Z",
      "version": 5,
      "changeset": 8537769,
      "user": "Peter Lerner",
      "uid": 46964,
      "tags": {
        "name": "Haut-Asco",
        "place": "hamlet"
      }
    },
    {
      "type": "node",
      "id": 301178502,
      "lat": 42.378206,
      "lon": 8.9095464,
      "timestamp": "2018-10-06T09:46:14Z",
      "version": 5,
      "changeset": 63252021,
      "user": "Bathyscapher",
      "uid": 8889564,
      "tags": {
        "ele": "2183",
        "mountain_pass": "yes",
        "name": "Bocca Tumasginesca",
        "name:fr": "Col Perdu",
        "natural": "saddle"
      }
    },
    {
      "type": "node",
      "id": 301200618,
      "lat": 42.3369329,
      "lon": 9.0153921,
      "timestamp": "2022-02-01T13:28:20Z",
      "version": 9,
      "changeset": 116868957,
      "user": "A-d-r-i",
      "uid": 3524412,
      "tags": {
        "addr:postcode": "20224",
        "name": "Calacuccia",
        "place": "village"
      }
    },
    {
      "type": "node",
      "id": 301895514,
      "lat": 42.1679035,
      "lon": 8.8265789,
      "timestamp": "2020-01-16T15:45:26Z",
      "version": 8,
      "changeset": 79656957,
      "user": "daop5510",
      "uid": 300696,
      "tags": {
        "addr:postcode": "20160",
        "name": "Murzo",
        "place": "village"
      }
    },
    {
      "type": "node",
      "id": 309322507,
      "lat": 42.4816452,
      "lon": 8.875826,
      "timestamp": "2015-01-17T11:52:25Z",
      "version": 4,
      "changeset": 28205930,
      "user": "geow",
      "uid": 223093,
      "tags": {
        "mountain_pass": "yes",
        "name": "Bocca à U Saltu",
        "natural": "saddle"
      }
    },
    {
      "type": "node",
      "id": 309322619,
      "lat": 42.4458488,
      "lon": 8.9061803,
      "timestamp": "2015-01-17T11:52:24Z",
      "version": 4,
      "changeset": 28205930,
      "user": "geow",
      "uid": 223093,
      "tags": {
        "mountain_pass": "yes",
        "name": "Bocca di Pisciaghja",
        "natural": "saddle"
      }
    },
    {
      "type": "node",
      "id": 309322690,
      "lat": 42.4328873,
      "lon": 8.9127202,
      "timestamp": "2015-01-17T11:52:23Z",
      "version": 5,
      "changeset": 28205930,
      "user": "geow",
      "uid": 223093,
      "tags": {
        "mountain_pass": "yes",
        "name": "Bocca di L'Innominata",
        "natural": "saddle"
      }
    },
    {
      "type": "node",
      "id": 309322825,
      "lat": 42.4106024,
      "lon": 8.9075766,
      "timestamp": "2021-07-12T15:05:11Z",
      "version": 4,
      "changeset": 107847929,
      "user": "PhilLL",
      "uid": 1710208,
      "tags": {
        "ele": "1987",
        "mountain_pass": "yes",
        "name": "Bocca di a Muvrella",
        "natural": "saddle"
      }
    },
    {
      "type": "node",
      "id": 309322838,
      "lat": 42.4076249,
      "lon": 8.9104819,
      "timestamp": "2019-05-24T10:35:06Z",
      "version": 7,
      "changeset": 70581142,
      "user": "jabali",
      "uid": 358508,
      "tags": {
        "ele": "1980",
        "mountain_pass": "yes",
        "name": "Bocca di Stagnu",
        "natural": "saddle",
        "source": "GPS"
      }
    },
    {
      "type": "node",
      "id": 309323664,
      "lat": 42.332585,
      "lon": 8.876541,
      "timestamp": "2019-08-19T07:40:09Z",
      "version": 5,
      "changeset": 73483096,
      "user": "PhilLL",
      "uid": 1710208,
      "tags": {
        "ele": "1963",
        "mountain_pass": "yes",
        "name": "Bocca di Foggialle",
        "natural": "saddle"
      }
    },
    {
      "type": "node",
      "id": 309323828,
      "lat": 42.3723682,
      "lon": 8.9085733,
      "timestamp": "2017-07-25T21:12:47Z",
      "version": 3,
      "changeset": 50570476,
      "user": "phlustik",
      "uid": 842813,
      "tags": {
        "ele": "2218",
        "mountain_pass": "yes",
        "name": "Bocca Minuta",
        "natural": "saddle"
      }
    },
    {
      "type": "node",
      "id": 335643757,
      "lat": 42.4285999,
      "lon": 8.8149006,
      "timestamp": "2019-04-26T21:28:41Z",
      "version": 6,
      "changeset": 69616424,
      "user": "jabali",
      "uid": 358508,
      "tags": {
        "ele": "1153",
        "mountain_pass": "yes",
        "name": "Bocca di Bonassa",
        "natural": "saddle"
      }
    },
    {
      "type": "node",
      "id": 339614258,
      "lat": 42.2235011,
      "lon": 8.8298922,
      "timestamp": "2018-08-31T12:11:26Z",
      "version": 4,
      "changeset": 62170282,
      "user": "jabali",
      "uid": 358508,
      "tags": {
        "ele": "1103",
        "mountain_pass": "yes",
        "name": "Col de Sevi",
        "natural": "saddle"
      }
    },
    {
      "type": "node",
      "id": 340370753,
      "lat": 42.5430298,
      "lon": 8.9352746,
      "timestamp": "2013-12-12T01:23:32Z",
      "version": 5,
      "changeset": 19405183,
      "user": "RedFox",
      "uid": 10610,
      "tags": {
        "name": "Feliceto",
        "place": "village"
      }
    },
    {
      "type": "node",
      "id": 340395021,
      "lat": 42.5457744,
      "lon": 8.9357694,
      "timestamp": "2016-12-28T15:47:29Z",
      "version": 5,
      "changeset": 44734174,
      "user": "gsimon",
      "uid": 1668080,
      "tags": {
        "name": "Stambolaccie",
        "place": "hamlet",
        "source": "cadastre-dgi-fr source : Direction Générale des Impôts - Cadastre. Mise à jour : 2009"
      }
    },
    {
      "type": "node",
      "id": 340417779,
      "lat": 42.5501809,
      "lon": 8.9483085,
      "timestamp": "2019-11-25T17:00:33Z",
      "version": 8,
      "changeset": 77535736,
      "user": "StephaneP",
      "uid": 439947,
      "tags": {
        "name": "Nessa",
        "place": "village",
        "source": "cadastre-dgi-fr source : Direction Générale des Impôts - Cadastre. Mise à jour : 2009"
      }
    },
    {
      "type": "node",
      "id": 340552036,
      "lat": 42.530596,
      "lon": 9.019023,
      "timestamp": "2017-05-06T22:21:23Z",
      "version": 5,
      "changeset": 48462981,
      "user": "Pymouss",
      "uid": 66675,
      "tags": {
        "name": "Lecciole",
        "place": "hamlet"
      }
    },
    {
      "type": "node",
      "id": 340875813,
      "lat": 42.5252308,
      "lon": 9.0188628,
      "timestamp": "2017-05-06T22:21:23Z",
      "version": 4,
      "changeset": 48462981,
      "user": "Pymouss",
      "uid": 66675,
      "tags": {
        "name": "Capella",
        "place": "hamlet"
      }
    },
    {
      "type": "node",
      "id": 340875930,
      "lat": 42.5286011,
      "lon": 9.0157244,
      "timestamp": "2017-05-06T22:21:23Z",
      "version": 9,
      "changeset": 48462981,
      "user": "Pymouss",
      "uid": 66675,
      "tags": {
        "name": "Olmi",
        "place": "hamlet"
      }
    },
    {
      "type": "node",
      "id": 340875964,
      "lat": 42.5304802,
      "lon": 9.0168516,
      "timestamp": "2017-05-06T22:21:23Z",
      "version": 4,
      "changeset": 48462981,
      "user": "Pymouss",
      "uid": 66675,
      "tags": {
        "name": "Acquilacce",
        "place": "hamlet"
      }
    },
    {
      "type": "node",
      "id": 340923289,
      "lat": 42.5199012,
      "lon": 9.0078483,
      "timestamp": "2022-02-01T13:28:20Z",
      "version": 7,
      "changeset": 116868957,
      "user": "A-d-r-i",
      "uid": 3524412,
      "tags": {
        "name": "Mausoléo",
        "place": "village",
        "wikidata": "Q1108450",
        "wikipedia": "fr:Mausoléo"
      }
    },
    {
      "type": "node",
      "id": 341063465,
      "lat": 42.5369444,
      "lon": 8.9978216,
      "timestamp": "2022-02-01T13:28:20Z",
      "version": 8,
      "changeset": 116868957,
      "user": "A-d-r-i",
      "uid": 3524412,
      "tags": {
        "name": "Pioggiola",
        "place": "village",
        "wikidata": "Q1109715",
        "wikipedia": "fr:Pioggiola"
      }
    },
    {
      "type": "node",
      "id": 341079529,
      "lat": 42.5208119,
      "lon": 9.0518567,
      "timestamp": "2022-02-01T13:28:20Z",
      "version": 7,
      "changeset": 116868957,
      "user": "A-d-r-i",
      "uid": 3524412,
      "tags": {
        "name": "Vallica",
        "place": "village",
        "website": "http://www.vallica.info/",
        "wikidata": "Q658693",
        "wikipedia": "fr:Vallica"
      }
    },
    {
      "type": "node",
      "id": 344021555,
      "lat": 42.0411625,
      "lon": 8.7538588,
      "timestamp": "2013-04-07T09:14:35Z",
      "version": 3,
      "changeset": 15637339,
      "user": "Peter Maiwald",
      "uid": 90528,
      "tags": {
        "tourism": "camp_site"
      }
    },
    {
      "type": "node",
      "id": 393989366,
      "lat": 42.0678625,
      "lon": 8.7884091,
      "timestamp": "2013-12-12T01:22:45Z",
      "version": 4,
      "changeset": 19405183,
      "user": "RedFox",
      "uid": 10610,
      "tags": {
        "name": "Casaglione",
        "place": "village"
      }
    },
    {
      "type": "node",
      "id": 394937072,
      "lat": 42.03609,
      "lon": 8.89833,
      "timestamp": "2013-12-12T01:28:39Z",
      "version": 5,
      "changeset": 19405183,
      "user": "RedFox",
      "uid": 10610,
      "tags": {
        "name": "Tavaco",
        "place": "village"
      }
    },
    {
      "type": "node",
      "id": 397657339,
      "lat": 42.0631393,
      "lon": 8.9326078,
      "timestamp": "2013-12-12T01:29:03Z",
      "version": 5,
      "changeset": 19405183,
      "user": "RedFox",
      "uid": 10610,
      "tags": {
        "name": "Vero",
        "place": "village"
      }
    },
    {
      "type": "node",
      "id": 401098997,
      "lat": 42.1009911,
      "lon": 8.8435972,
      "timestamp": "2009-05-15T14:17:31Z",
      "version": 1,
      "changeset": 1199463,
      "user": "aikon",
      "uid": 44329,
      "tags": {
        "name": "Canva",
        "place": "hamlet"
      }
    },
    {
      "type": "node",
      "id": 401099008,
      "lat": 42.0986457,
      "lon": 8.8474241,
      "timestamp": "2013-12-12T01:21:43Z",
      "version": 4,
      "changeset": 19405183,
      "user": "RedFox",
      "uid": 10610,
      "tags": {
        "name": "Ajola",
        "place": "hamlet"
      }
    },
    {
      "type": "node",
      "id": 401099398,
      "lat": 42.1028543,
      "lon": 8.8423072,
      "timestamp": "2013-12-12T01:25:48Z",
      "version": 4,
      "changeset": 19405183,
      "user": "RedFox",
      "uid": 10610,
      "tags": {
        "name": "Lopigna",
        "place": "village"
      }
    },
    {
      "type": "node",
      "id": 401252284,
      "lat": 42.0405395,
      "lon": 8.9743663,
      "timestamp": "2013-12-12T01:23:16Z",
      "version": 3,
      "changeset": 19405183,
      "user": "RedFox",
      "uid": 10610,
      "tags": {
        "name": "Crucoli",
        "place": "village"
      }
    },
    {
      "type": "node",
      "id": 406126460,
      "lat": 42.0789039,
      "lon": 9.0605646,
      "timestamp": "2009-05-19T16:47:50Z",
      "version": 1,
      "changeset": 1250945,
      "user": "aikon",
      "uid": 44329,
      "tags": {
        "name": "Quarcioli",
        "place": "hamlet"
      }
    },
    {
      "type": "node",
      "id": 406127312,
      "lat": 42.0864396,
      "lon": 9.062765,
      "timestamp": "2009-05-19T16:48:02Z",
      "version": 1,
      "changeset": 1250945,
      "user": "aikon",
      "uid": 44329,
      "tags": {
        "name": "Puggiarellu",
        "place": "hamlet"
      }
    },
    {
      "type": "node",
      "id": 406127326,
      "lat": 42.0815133,
      "lon": 9.0563337,
      "timestamp": "2021-02-15T16:20:35Z",
      "version": 4,
      "changeset": 99321972,
      "user": "Hervé TUC",
      "uid": 922338,
      "tags": {
        "name": "Corsacci",
        "place": "hamlet"
      }
    },
    {
      "type": "node",
      "id": 406127329,
      "lat": 42.0820955,
      "lon": 9.0604401,
      "timestamp": "2021-02-15T16:20:35Z",
      "version": 4,
      "changeset": 99321972,
      "user": "Hervé TUC",
      "uid": 922338,
      "tags": {
        "name": "Moraschi",
        "place": "hamlet"
      }
    },
    {
      "type": "node",
      "id": 406127334,
      "lat": 42.0843187,
      "lon": 9.0668367,
      "timestamp": "2013-12-12T01:22:18Z",
      "version": 5,
      "changeset": 19405183,
      "user": "RedFox",
      "uid": 10610,
      "tags": {
        "name": "Bocognano",
        "place": "village"
      }
    },
    {
      "type": "node",
      "id": 406127337,
      "lat": 42.0793661,
      "lon": 9.0649559,
      "timestamp": "2021-02-15T16:20:35Z",
      "version": 4,
      "changeset": 99321972,
      "user": "Hervé TUC",
      "uid": 922338,
      "tags": {
        "name": "Poggiola",
        "place": "hamlet"
      }
    },
    {
      "type": "node",
      "id": 411224318,
      "lat": 42.31809,
      "lon": 9.0025398,
      "timestamp": "2022-02-01T13:28:20Z",
      "version": 6,
      "changeset": 116868957,
      "user": "A-d-r-i",
      "uid": 3524412,
      "tags": {
        "addr:postcode": "20224",
        "name": "Casamaccioli",
        "place": "village"
      }
    },
    {
      "type": "node",
      "id": 411280397,
      "lat": 42.324024,
      "lon": 9.0825937,
      "timestamp": "2021-02-27T03:51:40Z",
      "version": 2,
      "changeset": 100081825,
      "user": "Hervé TUC",
      "uid": 922338,
      "tags": {
        "amenity": "shelter",
        "name": "Bergerie de Conia",
        "place": "farm"
      }
    },
    {
      "type": "node",
      "id": 417655121,
      "lat": 42.1929402,
      "lon": 9.0490191,
      "timestamp": "2020-11-13T16:31:52Z",
      "version": 4,
      "changeset": 94074006,
      "user": "Fabe56",
      "uid": 368310,
      "tags": {
        "ele": "1800",
        "mountain_pass": "yes",
        "name": "Col du Bocca Manganello",
        "natural": "saddle"
      }
    },
    {
      "type": "node",
      "id": 418830608,
      "lat": 42.2331996,
      "lon": 8.8007771,
      "timestamp": "2020-01-16T15:45:26Z",
      "version": 12,
      "changeset": 79656957,
      "user": "daop5510",
      "uid": 300696,
      "tags": {
        "addr:postcode": "20141",
        "name": "Marignana",
        "place": "village"
      }
    },
    {
      "type": "node",
      "id": 420154638,
      "lat": 42.1398198,
      "lon": 8.98425,
      "timestamp": "2020-01-16T15:45:26Z",
      "version": 7,
      "changeset": 79656957,
      "user": "daop5510",
      "uid": 300696,
      "tags": {
        "addr:postcode": "20121",
        "name": "Pastricciola",
        "place": "village"
      }
    },
    {
      "type": "node",
      "id": 420164599,
      "lat": 42.1680501,
      "lon": 8.949486,
      "timestamp": "2013-12-12T01:23:54Z",
      "version": 5,
      "changeset": 19405183,
      "user": "RedFox",
      "uid": 10610,
      "tags": {
        "name": "Guagno",
        "place": "village"
      }
    },
    {
      "type": "node",
      "id": 420164888,
      "lat": 42.1742184,
      "lon": 8.890646,
      "timestamp": "2014-08-26T09:59:38Z",
      "version": 6,
      "changeset": 25023299,
      "user": "MichaelCollinson",
      "uid": 308,
      "tags": {
        "description": "Thermal spa with sulphur-rich water",
        "name": "Guagno-les-Bains",
        "place": "village"
      }
    },
    {
      "type": "node",
      "id": 420230939,
      "lat": 42.1877159,
      "lon": 8.6668858,
      "timestamp": "2018-08-31T12:11:29Z",
      "version": 4,
      "changeset": 62170282,
      "user": "jabali",
      "uid": 358508,
      "tags": {
        "drinking_water": "no",
        "name": "Refuge E Case",
        "tourism": "alpine_hut"
      }
    },
    {
      "type": "node",
      "id": 420767446,
      "lat": 42.0342482,
      "lon": 8.7368858,
      "timestamp": "2009-06-15T18:08:29Z",
      "version": 1,
      "changeset": 1526909,
      "user": "aikon",
      "uid": 44329,
      "tags": {
        "name": "Casa Poli",
        "place": "hamlet"
      }
    },
    {
      "type": "node",
      "id": 420770971,
      "lat": 42.0404815,
      "lon": 8.726404,
      "timestamp": "2009-06-15T18:15:07Z",
      "version": 1,
      "changeset": 1526981,
      "user": "aikon",
      "uid": 44329,
      "tags": {
        "name": "Ancone",
        "place": "hamlet"
      }
    },
    {
      "type": "node",
      "id": 420770975,
      "lat": 42.0394631,
      "lon": 8.7390695,
      "timestamp": "2019-02-28T17:44:20Z",
      "version": 2,
      "changeset": 67659018,
      "user": "Torziz",
      "uid": 8874230,
      "tags": {
        "name": "Orcino",
        "place": "hamlet"
      }
    },
    {
      "type": "node",
      "id": 420772934,
      "lat": 42.387345,
      "lon": 8.7475044,
      "timestamp": "2018-08-30T08:53:08Z",
      "version": 3,
      "changeset": 62131710,
      "user": "jabali",
      "uid": 358508,
      "tags": {
        "name": "Tuarelli",
        "place": "hamlet"
      }
    },
    {
      "type": "node",
      "id": 420779581,
      "lat": 42.4084817,
      "lon": 8.647919,
      "timestamp": "2022-02-01T13:28:20Z",
      "version": 9,
      "changeset": 116868957,
      "user": "A-d-r-i",
      "uid": 3524412,
      "tags": {
        "addr:postcode": "20245",
        "name": "Galéria",
        "place": "village"
      }
    },
    {
      "type": "node",
      "id": 439653460,
      "lat": 42.4265464,
      "lon": 8.8257779,
      "timestamp": "2018-03-31T11:16:29Z",
      "version": 4,
      "changeset": 57685556,
      "user": "P_ev",
      "uid": 1855495,
      "tags": {
        "ele": "1245",
        "name": "Bocca di l'Erbaghiolu",
        "natural": "saddle",
        "source": "french topo map"
      }
    },
    {
      "type": "node",
      "id": 439653768,
      "lat": 42.2082087,
      "lon": 9.011729,
      "timestamp": "2018-01-26T08:07:41Z",
      "version": 6,
      "changeset": 55763630,
      "user": "PhilLL",
      "uid": 1710208,
      "tags": {
        "ele": "2073",
        "mountain_pass": "yes",
        "name": "Brèche de Capitello",
        "natural": "saddle"
      }
    },
    {
      "type": "node",
      "id": 439773399,
      "lat": 42.2081895,
      "lon": 9.0309166,
      "timestamp": "2017-07-23T19:54:34Z",
      "version": 4,
      "changeset": 50510019,
      "user": "phlustik",
      "uid": 842813,
      "tags": {
        "ele": "2170",
        "mountain_pass": "yes",
        "name": "Col de Rinoso",
        "natural": "saddle"
      }
    },
    {
      "type": "node",
      "id": 439773953,
      "lat": 42.4731999,
      "lon": 8.8882587,
      "timestamp": "2019-02-15T19:04:15Z",
      "version": 4,
      "changeset": 67236234,
      "user": "Dmitry Zmijov",
      "uid": 6073153,
      "tags": {
        "ele": "1486",
        "mountain_pass": "yes",
        "name": "Bocca à U Bassiguellu",
        "natural": "saddle"
      }
    },
    {
      "type": "node",
      "id": 440366428,
      "lat": 42.2780457,
      "lon": 8.8310514,
      "timestamp": "2019-04-28T21:22:47Z",
      "version": 3,
      "changeset": 69675396,
      "user": "jabali",
      "uid": 358508,
      "tags": {
        "ele": "1391",
        "mountain_pass": "yes",
        "name": "Bocca a Saltu",
        "natural": "saddle"
      }
    },
    {
      "type": "node",
      "id": 440366584,
      "lat": 42.2707783,
      "lon": 8.8425558,
      "timestamp": "2011-07-17T13:53:10Z",
      "version": 4,
      "changeset": 8748179,
      "user": "Peter Lerner",
      "uid": 46964,
      "tags": {
        "name": "Paisolu d'Aïtone",
        "place": "hamlet"
      }
    },
    {
      "type": "node",
      "id": 440374604,
      "lat": 42.3496364,
      "lon": 8.9233895,
      "timestamp": "2019-06-02T17:26:06Z",
      "version": 2,
      "changeset": 70861133,
      "user": "Klodd",
      "uid": 1941381,
      "tags": {
        "name": "Source",
        "name:de": "Quelle",
        "name:en": "spring",
        "natural": "spring"
      }
    },
    {
      "type": "node",
      "id": 440374694,
      "lat": 42.3498761,
      "lon": 8.923814,
      "timestamp": "2009-07-11T21:11:11Z",
      "version": 1,
      "changeset": 1801207,
      "user": "kanualien",
      "uid": 23307,
      "tags": {
        "ele": "1623",
        "name": "Bergerie de Tilarba",
        "tourism": "alpine_hut"
      }
    },
    {
      "type": "node",
      "id": 440388604,
      "lat": 42.4004161,
      "lon": 9.0497445,
      "timestamp": "2021-05-30T11:48:28Z",
      "version": 3,
      "changeset": 105564582,
      "user": "pizzaiolo",
      "uid": 1772368,
      "tags": {
        "ele": "1928",
        "name": "Capo di Lino",
        "natural": "peak",
        "wikidata": "Q31638971"
      }
    },
    {
      "type": "node",
      "id": 440402664,
      "lat": 42.4675981,
      "lon": 8.9167295,
      "timestamp": "2015-01-17T11:52:24Z",
      "version": 2,
      "changeset": 28205930,
      "user": "geow",
      "uid": 223093,
      "tags": {
        "ele": "1852",
        "mountain_pass": "yes",
        "name": "Bocca di Tartagine",
        "natural": "saddle"
      }
    },
    {
      "type": "node",
      "id": 440402902,
      "lat": 42.4563185,
      "lon": 8.9466499,
      "timestamp": "2015-01-17T11:52:23Z",
      "version": 2,
      "changeset": 28205930,
      "user": "geow",
      "uid": 223093,
      "tags": {
        "ele": "1845",
        "mountain_pass": "yes",
        "name": "Bocca d l´Ondella",
        "natural": "saddle"
      }
    },
    {
      "type": "node",
      "id": 440426988,
      "lat": 42.2534942,
      "lon": 8.8030188,
      "timestamp": "2020-01-16T15:45:26Z",
      "version": 11,
      "changeset": 79656957,
      "user": "daop5510",
      "uid": 300696,
      "tags": {
        "addr:postcode": "20126",
        "name": "Évisa",
        "place": "village"
      }
    },
    {
      "type": "node",
      "id": 440460465,
      "lat": 42.3119519,
      "lon": 8.8614602,
      "timestamp": "2021-07-13T13:40:57Z",
      "version": 4,
      "changeset": 107914262,
      "user": "PhilLL",
      "uid": 1710208,
      "tags": {
        "ele": "1833",
        "mountain_pass": "yes",
        "name": "Bocca di Guagnarola",
        "natural": "saddle"
      }
    },
    {
      "type": "node",
      "id": 440473307,
      "lat": 42.2707419,
      "lon": 8.750015,
      "timestamp": "2019-04-29T20:57:09Z",
      "version": 3,
      "changeset": 69711991,
      "user": "jabali",
      "uid": 358508,
      "tags": {
        "ele": "1104",
        "mountain_pass": "yes",
        "name": "Bocca di Larata",
        "natural": "saddle"
      }
    },
    {
      "type": "node",
      "id": 440473532,
      "lat": 42.2578277,
      "lon": 8.7450622,
      "timestamp": "2013-12-12T01:26:41Z",
      "version": 3,
      "changeset": 19405183,
      "user": "RedFox",
      "uid": 10610,
      "tags": {
        "name": "Ota",
        "place": "village"
      }
    },
    {
      "type": "node",
      "id": 444783095,
      "lat": 42.2419965,
      "lon": 8.70224,
      "timestamp": "2022-03-12T07:56:17Z",
      "version": 5,
      "changeset": 118388903,
      "user": "PhilLL",
      "uid": 1710208,
      "tags": {
        "ele": "1294",
        "name": "Capu d'Orto",
        "name:co": "Capu d'Ortu",
        "natural": "peak",
        "wikidata": "Q1035178"
      }
    },
    {
      "type": "node",
      "id": 446232517,
      "lat": 42.2388671,
      "lon": 8.6370569,
      "timestamp": "2013-12-12T01:26:52Z",
      "version": 5,
      "changeset": 19405183,
      "user": "RedFox",
      "uid": 10610,
      "tags": {
        "name": "Piana",
        "place": "village",
        "source": "cadastre-dgi-fr source : Direction Générale des Impôts - Cadastre. Mise à jour : 2009"
      }
    },
    {
      "type": "node",
      "id": 446260102,
      "lat": 42.2414751,
      "lon": 8.6297622,
      "timestamp": "2013-12-12T01:29:14Z",
      "version": 4,
      "changeset": 19405183,
      "user": "RedFox",
      "uid": 10610,
      "tags": {
        "name": "Vistale",
        "place": "village",
        "source": "cadastre-dgi-fr source : Direction Générale des Impôts - Cadastre. Mise à jour : 2009"
      }
    },
    {
      "type": "node",
      "id": 486144984,
      "lat": 42.5082063,
      "lon": 8.8523867,
      "timestamp": "2020-10-04T19:10:54Z",
      "version": 6,
      "changeset": 91943755,
      "user": "emersion",
      "uid": 687595,
      "tags": {
        "brand": "Spar",
        "brand:wikidata": "Q610492",
        "name": "Spar",
        "opening_hours": "Mo-Sa 08:30-12:30, 15:00-19:30; Su 08:30-12:30",
        "operator": "Spar",
        "shop": "supermarket"
      }
    },
    {
      "type": "node",
      "id": 486274170,
      "lat": 42.5006962,
      "lon": 8.809273,
      "timestamp": "2013-12-12T01:28:38Z",
      "version": 3,
      "changeset": 19405183,
      "user": "RedFox",
      "uid": 10610,
      "tags": {
        "name": "Tarazone",
        "place": "village"
      }
    },
    {
      "type": "node",
      "id": 486289531,
      "lat": 42.489243,
      "lon": 8.7955167,
      "timestamp": "2013-12-12T01:28:34Z",
      "version": 3,
      "changeset": 19405183,
      "user": "RedFox",
      "uid": 10610,
      "tags": {
        "name": "Suare",
        "place": "village"
      }
    },
    {
      "type": "node",
      "id": 486635716,
      "lat": 42.3112867,
      "lon": 8.6827466,
      "timestamp": "2020-09-01T15:17:20Z",
      "version": 13,
      "changeset": 90253149,
      "user": "Yod4z",
      "uid": 318821,
      "tags": {
        "addr:postcode": "20147",
        "name": "Partinello",
        "name:co": "Partinellu",
        "place": "village"
      }
    },
    {
      "type": "node",
      "id": 486746617,
      "lat": 42.2970313,
      "lon": 8.7700371,
      "timestamp": "2019-04-29T20:57:12Z",
      "version": 4,
      "changeset": 69711991,
      "user": "jabali",
      "uid": 358508,
      "tags": {
        "ele": "915",
        "mountain_pass": "yes",
        "name": "Bocca di Vergiolu",
        "natural": "saddle"
      }
    },
    {
      "type": "node",
      "id": 486753540,
      "lat": 42.3017042,
      "lon": 8.7090665,
      "timestamp": "2020-01-16T15:45:26Z",
      "version": 12,
      "changeset": 79656957,
      "user": "daop5510",
      "uid": 300696,
      "tags": {
        "addr:postcode": "20147",
        "name": "Serriera",
        "place": "village"
      }
    },
    {
      "type": "node",
      "id": 502273993,
      "lat": 42.4542774,
      "lon": 9.0341777,
      "timestamp": "2022-02-01T13:28:20Z",
      "version": 8,
      "changeset": 116868957,
      "user": "A-d-r-i",
      "uid": 3524412,
      "tags": {
        "addr:postcode": "20276",
        "name": "Asco",
        "place": "village"
      }
    },
    {
      "type": "node",
      "id": 511020381,
      "lat": 42.2359137,
      "lon": 8.6979987,
      "timestamp": "2016-01-10T17:13:52Z",
      "version": 3,
      "changeset": 36487062,
      "user": "P_ev",
      "uid": 1855495,
      "tags": {
        "ele": "998",
        "mountain_pass": "yes",
        "name": "Foce d'Ortu",
        "natural": "saddle"
      }
    },
    {
      "type": "node",
      "id": 511020631,
      "lat": 42.2442053,
      "lon": 8.5809993,
      "timestamp": "2009-09-27T20:08:34Z",
      "version": 1,
      "changeset": 2657265,
      "user": "Christian Gawron",
      "uid": 17074,
      "tags": {
        "natural": "cave_entrance"
      }
    },
    {
      "type": "node",
      "id": 512710291,
      "lat": 42.2402018,
      "lon": 8.6844482,
      "timestamp": "2018-03-20T16:06:15Z",
      "version": 4,
      "changeset": 57357784,
      "user": "P_ev",
      "uid": 1855495,
      "tags": {
        "ele": "910",
        "mountain_pass": "yes",
        "name": "Bocca di Piazza Moninca",
        "natural": "saddle"
      }
    },
    {
      "type": "node",
      "id": 512710532,
      "lat": 42.2399811,
      "lon": 8.5497975,
      "timestamp": "2009-09-28T21:50:59Z",
      "version": 1,
      "changeset": 2670657,
      "user": "Christian Gawron",
      "uid": 17074,
      "tags": {
        "natural": "cave_entrance"
      }
    },
    {
      "type": "node",
      "id": 670063160,
      "lat": 42.4028409,
      "lon": 8.9886492,
      "timestamp": "2021-05-30T11:48:07Z",
      "version": 5,
      "changeset": 105564582,
      "user": "pizzaiolo",
      "uid": 1772368,
      "tags": {
        "description": "Rocher : Repère en bronze GM scellé - Point vu en place en 1960",
        "ele": "2562.04",
        "man_made": "survey_point",
        "name": "Capu Biancu",
        "natural": "peak",
        "note": "Ne pas déplacer ce point, cf. - Do not move this node, see - http://wiki.openstreetmap.org/wiki/WikiProject_France/Repères_Géodésiques#Permanence_des_rep.C3.A8res",
        "ref": "2B09502 -",
        "source": "©IGN 2010 dans le cadre de la cartographie réglementaire",
        "url": "http://geodesie.ign.fr/fiches/index.php?module=e&action=fichepdf&source=carte&sit_no=2B09502",
        "wikidata": "Q16861938"
      }
    },
    {
      "type": "node",
      "id": 705578005,
      "lat": 42.3487973,
      "lon": 8.6654951,
      "timestamp": "2021-03-29T08:32:28Z",
      "version": 2,
      "changeset": 101906081,
      "user": "Hervé TUC",
      "uid": 922338,
      "tags": {
        "amenity": "drinking_water",
        "ele": "240",
        "name": "Fontaine de Chiaravalle",
        "website": "https://www.refuges.info/point/4532/point-d-eau/Corse/Fontaine-de-Chiaravalle/"
      }
    },
    {
      "type": "node",
      "id": 705581460,
      "lat": 42.2535605,
      "lon": 8.8022844,
      "timestamp": "2019-04-28T21:40:50Z",
      "version": 2,
      "changeset": 69675632,
      "user": "jabali",
      "uid": 358508,
      "tags": {
        "amenity": "drinking_water"
      }
    },
    {
      "type": "node",
      "id": 705581881,
      "lat": 42.2534604,
      "lon": 8.8202359,
      "timestamp": "2021-02-25T12:05:58Z",
      "version": 4,
      "changeset": 99975362,
      "user": "Hervé TUC",
      "uid": 922338,
      "tags": {
        "amenity": "drinking_water",
        "ele": "930",
        "intermittent": "yes",
        "man_made": "water_tap",
        "name": "Fontaine d'Alzu Ritondellu",
        "website": "https://www.refuges.info/point/6260/point-d-eau/Corse/Fontaine-d-Alzu-Ritondellu/"
      }
    },
    {
      "type": "node",
      "id": 705582420,
      "lat": 42.2676247,
      "lon": 8.843872,
      "timestamp": "2021-03-03T03:19:08Z",
      "version": 4,
      "changeset": 100312768,
      "user": "Hervé TUC",
      "uid": 922338,
      "tags": {
        "ele": "1140",
        "intermittent": "yes",
        "name": "Funtana di u topu",
        "name:fr": "Fontaine du Rat",
        "natural": "spring",
        "website": "https://www.refuges.info/point/7077/point-d-eau/Corse/Funtana-di-u-Topu/"
      }
    },
    {
      "type": "node",
      "id": 705583203,
      "lat": 42.2786818,
      "lon": 8.8791372,
      "timestamp": "2021-03-03T02:39:50Z",
      "version": 3,
      "changeset": 100311624,
      "user": "Hervé TUC",
      "uid": 922338,
      "tags": {
        "ele": "1390",
        "name": "Fontaine de Manivella",
        "natural": "spring",
        "website": "https://www.refuges.info/point/4550/point-d-eau/Corse/Fontaine-de-Manivella/"
      }
    },
    {
      "type": "node",
      "id": 705583895,
      "lat": 42.3742634,
      "lon": 9.0802974,
      "timestamp": "2019-09-15T17:02:30Z",
      "version": 2,
      "changeset": 74501321,
      "user": "PhilLL",
      "uid": 1710208,
      "tags": {
        "amenity": "drinking_water",
        "name": "Funtana Vignente"
      }
    },
    {
      "type": "node",
      "id": 736942242,
      "lat": 42.5495539,
      "lon": 9.005001,
      "timestamp": "2018-03-28T13:30:16Z",
      "version": 5,
      "changeset": 57601029,
      "user": "P_ev",
      "uid": 1855495,
      "tags": {
        "ele": "1101",
        "mountain_pass": "yes",
        "name": "Bocca di Battaglia",
        "natural": "saddle"
      }
    },
    {
      "type": "node",
      "id": 736942295,
      "lat": 42.5459272,
      "lon": 8.9916967,
      "timestamp": "2021-08-28T09:15:27Z",
      "version": 3,
      "changeset": 110372161,
      "user": "*abq*",
      "uid": 3696195,
      "tags": {
        "ele": "1087",
        "mountain_pass": "yes",
        "name": "Bocca Di A Croce d'Olu",
        "natural": "saddle"
      }
    },
    {
      "type": "node",
      "id": 763323197,
      "lat": 42.0597203,
      "lon": 9.1338008,
      "timestamp": "2021-11-29T18:58:18Z",
      "version": 4,
      "changeset": 114373434,
      "user": "PhilLL",
      "uid": 1710208,
      "tags": {
        "ele": "2352",
        "name": "Monte Renoso",
        "natural": "peak",
        "prominence": "1189",
        "summit:cross": "yes",
        "wikidata": "Q3322570",
        "wikipedia": "fr:Monte Renoso"
      }
    },
    {
      "type": "node",
      "id": 811263515,
      "lat": 42.5517092,
      "lon": 9.0260984,
      "timestamp": "2021-03-31T07:38:26Z",
      "version": 2,
      "changeset": 102034504,
      "user": "Hervé TUC",
      "uid": 922338,
      "tags": {
        "ele": "1093",
        "mountain_pass": "yes",
        "name": "Bocca A La Leggia",
        "natural": "saddle"
      }
    },
    {
      "type": "node",
      "id": 826534395,
      "lat": 42.144158,
      "lon": 8.8505291,
      "timestamp": "2013-12-12T01:26:27Z",
      "version": 4,
      "changeset": 19405183,
      "user": "RedFox",
      "uid": 10610,
      "tags": {
        "name": "Muna",
        "place": "village"
      }
    },
    {
      "type": "node",
      "id": 826534397,
      "lat": 42.1276154,
      "lon": 8.8736846,
      "timestamp": "2020-01-16T15:45:26Z",
      "version": 9,
      "changeset": 79656957,
      "user": "daop5510",
      "uid": 300696,
      "tags": {
        "addr:postcode": "20121",
        "name": "Rosazia",
        "place": "village"
      }
    },
    {
      "type": "node",
      "id": 826534399,
      "lat": 42.1413214,
      "lon": 8.8976811,
      "timestamp": "2021-05-30T11:48:31Z",
      "version": 2,
      "changeset": 105564582,
      "user": "pizzaiolo",
      "uid": 1772368,
      "tags": {
        "ele": "1624",
        "name": "Monte Cervello",
        "natural": "peak",
        "wikidata": "Q31648797"
      }
    },
    {
      "type": "node",
      "id": 826534601,
      "lat": 42.1436958,
      "lon": 8.8894598,
      "timestamp": "2010-07-20T18:32:55Z",
      "version": 1,
      "changeset": 5273040,
      "user": "math",
      "uid": 39620,
      "tags": {
        "natural": "spring"
      }
    },
    {
      "type": "node",
      "id": 832429220,
      "lat": 42.1615219,
      "lon": 9.1383793,
      "timestamp": "2010-07-25T09:10:29Z",
      "version": 1,
      "changeset": 5309955,
      "user": "jewald",
      "uid": 202512,
      "tags": {
        "name": "Canaglia",
        "place": "hamlet"
      }
    },
    {
      "type": "node",
      "id": 838498964,
      "lat": 42.2581782,
      "lon": 8.7428953,
      "timestamp": "2021-02-25T10:39:43Z",
      "version": 4,
      "changeset": 99968934,
      "user": "Hervé TUC",
      "uid": 922338,
      "tags": {
        "amenity": "drinking_water",
        "ele": "339",
        "name": "Fontaine publique d'Ota",
        "website": "https://www.refuges.info/point/4765/point-d-eau/Corse/fontaine-publique-d-Ota/"
      }
    },
    {
      "type": "node",
      "id": 914912487,
      "lat": 42.3164104,
      "lon": 8.6107719,
      "timestamp": "2021-05-30T11:48:14Z",
      "version": 7,
      "changeset": 105564582,
      "user": "pizzaiolo",
      "uid": 1772368,
      "tags": {
        "ele": "618",
        "name": "Monte Senino",
        "natural": "peak",
        "tourism": "viewpoint",
        "wikidata": "Q31630153"
      }
    },
    {
      "type": "node",
      "id": 915448556,
      "lat": 42.1161318,
      "lon": 8.6964943,
      "timestamp": "2020-09-07T15:27:31Z",
      "version": 4,
      "changeset": 90539060,
      "user": "Yod4z",
      "uid": 318821,
      "tags": {
        "name": "Sagone",
        "name:co": "Savone",
        "place": "village"
      }
    },
    {
      "type": "node",
      "id": 990364736,
      "lat": 42.5451581,
      "lon": 8.8971637,
      "timestamp": "2010-11-15T20:44:08Z",
      "version": 1,
      "changeset": 6380515,
      "user": "Bonsai62",
      "uid": 200326,
      "tags": {
        "natural": "spring"
      }
    },
    {
      "type": "node",
      "id": 990377131,
      "lat": 42.5400927,
      "lon": 8.8758081,
      "timestamp": "2010-11-15T21:01:32Z",
      "version": 1,
      "changeset": 6380659,
      "user": "Bonsai62",
      "uid": 200326,
      "tags": {
        "natural": "spring"
      }
    },
    {
      "type": "node",
      "id": 990377347,
      "lat": 42.5383322,
      "lon": 8.8771264,
      "timestamp": "2010-11-15T21:02:04Z",
      "version": 1,
      "changeset": 6380659,
      "user": "Bonsai62",
      "uid": 200326,
      "tags": {
        "natural": "spring"
      }
    },
    {
      "type": "node",
      "id": 1019396555,
      "lat": 42.4486529,
      "lon": 8.9036451,
      "timestamp": "2010-12-04T01:25:08Z",
      "version": 1,
      "changeset": 6533782,
      "user": "ChrisB",
      "uid": 34792,
      "tags": {
        "natural": "spring"
      }
    },
    {
      "type": "node",
      "id": 1019410971,
      "lat": 42.3809987,
      "lon": 8.9071234,
      "timestamp": "2010-12-04T01:47:48Z",
      "version": 1,
      "changeset": 6533870,
      "user": "ChrisB",
      "uid": 34792,
      "tags": {
        "amenity": "drinking_water"
      }
    },
    {
      "type": "node",
      "id": 1019419900,
      "lat": 42.2544118,
      "lon": 8.938038,
      "timestamp": "2022-06-05T16:34:26Z",
      "version": 6,
      "changeset": 121985479,
      "user": "C4R2T3N",
      "uid": 7749139,
      "tags": {
        "drinking_water": "yes",
        "ele": "1777",
        "name": "Fontaine du Nino",
        "natural": "spring",
        "website": "https://www.refuges.info/point/4288/point-d-eau/Corse/Fontaine-du-Nino/"
      }
    },
    {
      "type": "node",
      "id": 1019422106,
      "lat": 42.2202154,
      "lon": 8.980103,
      "timestamp": "2013-06-24T07:55:25Z",
      "version": 3,
      "changeset": 16680103,
      "user": "anthonynon",
      "uid": 331348,
      "tags": {
        "amenity": "drinking_water",
        "natural": "spring"
      }
    },
    {
      "type": "node",
      "id": 1019425684,
      "lat": 42.1614644,
      "lon": 9.0893147,
      "timestamp": "2021-02-16T10:56:19Z",
      "version": 2,
      "changeset": 99373799,
      "user": "Hervé TUC",
      "uid": 922338,
      "tags": {
        "name": "Source zone humide Grotaccia",
        "natural": "spring",
        "website": "https://www.refuges.info/point/7053/point-d-eau/Corse/Source-zone-humide-Grotaccia/"
      }
    },
    {
      "type": "node",
      "id": 1038141368,
      "lat": 42.1251439,
      "lon": 8.7322439,
      "timestamp": "2019-07-05T09:47:51Z",
      "version": 3,
      "changeset": 71925001,
      "user": "jabali",
      "uid": 358508,
      "tags": {
        "mountain_pass": "yes",
        "name": "Bocca Sant'Alparte",
        "natural": "saddle"
      }
    },
    {
      "type": "node",
      "id": 1102925427,
      "lat": 42.3797066,
      "lon": 8.94569,
      "timestamp": "2018-10-23T01:07:28Z",
      "version": 3,
      "changeset": 63776516,
      "user": "ManelG",
      "uid": 2491053,
      "tags": {
        "ele": "2706",
        "name": "Monte Cinto",
        "natural": "peak",
        "prominence": "2706",
        "wikidata": "Q1415428",
        "wikipedia": "en:Monte Cinto"
      }
    },
    {
      "type": "node",
      "id": 1216750764,
      "lat": 42.3326929,
      "lon": 8.9517376,
      "timestamp": "2022-04-12T09:39:18Z",
      "version": 3,
      "changeset": 119612970,
      "user": "Lulucmy",
      "uid": 2936082,
      "tags": {
        "name": "Calasima",
        "place": "hamlet",
        "wikipedia": "fr:Calasima"
      }
    },
    {
      "type": "node",
      "id": 1239907033,
      "lat": 42.3451251,
      "lon": 9.0037684,
      "timestamp": "2022-02-01T13:28:20Z",
      "version": 11,
      "changeset": 116868957,
      "user": "A-d-r-i",
      "uid": 3524412,
      "tags": {
        "addr:postcode": "20224",
        "name": "Lozzi",
        "name:ru": "Лоцци",
        "name:uk": "Лоцці",
        "place": "village",
        "wikidata": "Q737580",
        "wikipedia": "fr:Lozzi"
      }
    },
    {
      "type": "node",
      "id": 1239907073,
      "lat": 42.3278205,
      "lon": 8.9841915,
      "timestamp": "2022-02-01T13:28:20Z",
      "version": 8,
      "changeset": 116868957,
      "user": "A-d-r-i",
      "uid": 3524412,
      "tags": {
        "addr:postcode": "20224",
        "name": "Albertacce",
        "place": "village",
        "wikidata": "Q1059498",
        "wikipedia": "fr:Albertacce"
      }
    },
    {
      "type": "node",
      "id": 1239907145,
      "lat": 42.3375871,
      "lon": 8.991368,
      "timestamp": "2011-04-10T14:37:57Z",
      "version": 1,
      "changeset": 7823456,
      "user": "Peter Lerner",
      "uid": 46964,
      "tags": {
        "name": "Poggio",
        "place": "hamlet"
      }
    },
    {
      "type": "node",
      "id": 1239908142,
      "lat": 42.3316609,
      "lon": 8.9800648,
      "timestamp": "2019-09-15T17:34:49Z",
      "version": 2,
      "changeset": 74502067,
      "user": "PhilLL",
      "uid": 1710208,
      "tags": {
        "name": "Pietra-Zitamboli",
        "place": "hamlet"
      }
    },
    {
      "type": "node",
      "id": 1239908948,
      "lat": 42.3278369,
      "lon": 9.0049587,
      "timestamp": "2019-02-09T13:32:01Z",
      "version": 2,
      "changeset": 67049299,
      "user": "Bathyscapher",
      "uid": 8889564,
      "tags": {
        "name": "Sidossi",
        "place": "hamlet"
      }
    },
    {
      "type": "node",
      "id": 1240365092,
      "lat": 42.3553585,
      "lon": 9.0440062,
      "timestamp": "2022-02-01T13:28:20Z",
      "version": 5,
      "changeset": 116868957,
      "user": "A-d-r-i",
      "uid": 3524412,
      "tags": {
        "addr:postcode": "20224",
        "name": "Corscia",
        "place": "village"
      }
    },
    {
      "type": "node",
      "id": 1241366624,
      "lat": 42.13987,
      "lon": 8.9968393,
      "timestamp": "2013-12-12T01:22:58Z",
      "version": 2,
      "changeset": 19405183,
      "user": "RedFox",
      "uid": 10610,
      "tags": {
        "name": "Chiusa",
        "place": "village"
      }
    },
    {
      "type": "node",
      "id": 1241367860,
      "lat": 42.1211912,
      "lon": 8.9022297,
      "timestamp": "2020-01-16T15:45:26Z",
      "version": 8,
      "changeset": 79656957,
      "user": "daop5510",
      "uid": 300696,
      "tags": {
        "addr:postcode": "20121",
        "name": "Salice",
        "place": "village"
      }
    },
    {
      "type": "node",
      "id": 1241368882,
      "lat": 42.1301337,
      "lon": 8.9880239,
      "timestamp": "2011-04-11T22:09:52Z",
      "version": 1,
      "changeset": 7838097,
      "user": "Peter Lerner",
      "uid": 46964,
      "tags": {
        "name": "Frasseto",
        "place": "hamlet"
      }
    },
    {
      "type": "node",
      "id": 1241369075,
      "lat": 42.1247196,
      "lon": 8.9470353,
      "timestamp": "2020-01-16T15:45:26Z",
      "version": 7,
      "changeset": 79656957,
      "user": "daop5510",
      "uid": 300696,
      "tags": {
        "addr:postcode": "20121",
        "name": "Rezza",
        "place": "village"
      }
    },
    {
      "type": "node",
      "id": 1241369454,
      "lat": 42.117248,
      "lon": 8.9219122,
      "timestamp": "2022-02-01T13:28:20Z",
      "version": 8,
      "changeset": 116868957,
      "user": "A-d-r-i",
      "uid": 3524412,
      "tags": {
        "addr:postcode": "20121",
        "name": "Azzana",
        "place": "village"
      }
    },
    {
      "type": "node",
      "id": 1241370040,
      "lat": 42.1313276,
      "lon": 8.9771295,
      "timestamp": "2011-04-11T22:10:37Z",
      "version": 1,
      "changeset": 7838097,
      "user": "Peter Lerner",
      "uid": 46964,
      "tags": {
        "name": "Spelonca",
        "place": "hamlet"
      }
    },
    {
      "type": "node",
      "id": 1242571079,
      "lat": 42.2045225,
      "lon": 8.8287001,
      "timestamp": "2011-04-13T21:20:39Z",
      "version": 2,
      "changeset": 7856104,
      "user": "Peter Lerner",
      "uid": 46964,
      "tags": {
        "name": "Macinaggio de Renno",
        "place": "village"
      }
    },
    {
      "type": "node",
      "id": 1242571739,
      "lat": 42.1415128,
      "lon": 8.7967608,
      "timestamp": "2021-03-02T09:56:47Z",
      "version": 10,
      "changeset": 100267838,
      "user": "tk5ep",
      "uid": 486816,
      "tags": {
        "addr:postcode": "20160",
        "alt_name": "Arbori",
        "name": "Arbori",
        "place": "village"
      }
    },
    {
      "type": "node",
      "id": 1243804350,
      "lat": 42.0932272,
      "lon": 8.7236815,
      "timestamp": "2011-04-13T21:18:35Z",
      "version": 1,
      "changeset": 7856104,
      "user": "Peter Lerner",
      "uid": 46964,
      "tags": {
        "name": "Sant Erasmu",
        "place": "village"
      }
    },
    {
      "type": "node",
      "id": 1243804633,
      "lat": 42.1396883,
      "lon": 8.7867702,
      "timestamp": "2022-05-12T13:36:34Z",
      "version": 3,
      "changeset": 120890191,
      "user": "PhilLL",
      "uid": 1710208,
      "tags": {
        "name": "Parapoghiu",
        "place": "hamlet"
      }
    },
    {
      "type": "node",
      "id": 1243804978,
      "lat": 42.1279296,
      "lon": 8.7519381,
      "timestamp": "2019-07-05T09:47:51Z",
      "version": 2,
      "changeset": 71925001,
      "user": "jabali",
      "uid": 358508,
      "tags": {
        "name": "Cerasa",
        "place": "hamlet"
      }
    },
    {
      "type": "node",
      "id": 1243805109,
      "lat": 42.2103954,
      "lon": 8.8266144,
      "timestamp": "2011-04-13T21:19:03Z",
      "version": 1,
      "changeset": 7856104,
      "user": "Peter Lerner",
      "uid": 46964,
      "tags": {
        "name": "Poggio de Renno",
        "place": "hamlet"
      }
    },
    {
      "type": "node",
      "id": 1243805233,
      "lat": 42.1243648,
      "lon": 8.7570936,
      "timestamp": "2011-04-13T21:19:08Z",
      "version": 1,
      "changeset": 7856104,
      "user": "Peter Lerner",
      "uid": 46964,
      "tags": {
        "name": "Casanova",
        "place": "hamlet"
      }
    },
    {
      "type": "node",
      "id": 1243805394,
      "lat": 42.1208229,
      "lon": 8.7582832,
      "timestamp": "2011-04-13T21:19:15Z",
      "version": 1,
      "changeset": 7856104,
      "user": "Peter Lerner",
      "uid": 46964,
      "tags": {
        "name": "Coggia Maio",
        "place": "hamlet"
      }
    },
    {
      "type": "node",
      "id": 1243805417,
      "lat": 42.1919529,
      "lon": 8.8461394,
      "timestamp": "2018-05-25T22:46:25Z",
      "version": 5,
      "changeset": 59283762,
      "user": "GFS",
      "uid": 362065,
      "tags": {
        "name": "Letia Saint Roch",
        "place": "village"
      }
    },
    {
      "type": "node",
      "id": 1243805933,
      "lat": 42.2361665,
      "lon": 8.7884107,
      "timestamp": "2014-10-12T15:47:05Z",
      "version": 2,
      "changeset": 26028347,
      "user": "Fabien bat",
      "uid": 2393493,
      "tags": {
        "name": "Chidazzo",
        "place": "hamlet"
      }
    },
    {
      "type": "node",
      "id": 1243805958,
      "lat": 42.1237723,
      "lon": 8.7507014,
      "timestamp": "2020-01-16T15:45:26Z",
      "version": 8,
      "changeset": 79656957,
      "user": "daop5510",
      "uid": 300696,
      "tags": {
        "addr:postcode": "20160",
        "alt_name": "Coggia",
        "name": "Cruciate",
        "place": "village"
      }
    },
    {
      "type": "node",
      "id": 1243806052,
      "lat": 42.1897807,
      "lon": 8.8506344,
      "timestamp": "2018-05-25T22:46:25Z",
      "version": 5,
      "changeset": 59283762,
      "user": "GFS",
      "uid": 362065,
      "tags": {
        "name": "Letia Saint Martin",
        "place": "village"
      }
    },
    {
      "type": "node",
      "id": 1243806194,
      "lat": 42.1497343,
      "lon": 8.7715298,
      "timestamp": "2011-04-13T21:19:51Z",
      "version": 1,
      "changeset": 7856104,
      "user": "Peter Lerner",
      "uid": 46964,
      "tags": {
        "name": "Appriciani",
        "place": "village"
      }
    },
    {
      "type": "node",
      "id": 1243806306,
      "lat": 42.1164373,
      "lon": 8.7468957,
      "timestamp": "2011-04-13T21:19:57Z",
      "version": 1,
      "changeset": 7856104,
      "user": "Peter Lerner",
      "uid": 46964,
      "tags": {
        "name": "Vedolaccia",
        "place": "hamlet"
      }
    },
    {
      "type": "node",
      "id": 1243806383,
      "lat": 42.2135118,
      "lon": 8.8290526,
      "timestamp": "2011-04-13T21:20:01Z",
      "version": 1,
      "changeset": 7856104,
      "user": "Peter Lerner",
      "uid": 46964,
      "tags": {
        "name": "Podingo de Renno",
        "place": "hamlet"
      }
    },
    {
      "type": "node",
      "id": 1244919581,
      "lat": 42.208651,
      "lon": 8.8309836,
      "timestamp": "2020-01-16T15:45:26Z",
      "version": 7,
      "changeset": 79656957,
      "user": "daop5510",
      "uid": 300696,
      "tags": {
        "addr:postcode": "20160",
        "name": "Renno",
        "place": "village"
      }
    },
    {
      "type": "node",
      "id": 1244920258,
      "lat": 42.1905264,
      "lon": 8.8467517,
      "timestamp": "2020-01-16T15:45:26Z",
      "version": 7,
      "changeset": 79656957,
      "user": "daop5510",
      "uid": 300696,
      "tags": {
        "addr:postcode": "20160",
        "name": "Letia",
        "place": "village"
      }
    },
    {
      "type": "node",
      "id": 1244921593,
      "lat": 42.1867101,
      "lon": 8.9323293,
      "timestamp": "2020-01-16T15:45:26Z",
      "version": 6,
      "changeset": 79656957,
      "user": "daop5510",
      "uid": 300696,
      "tags": {
        "addr:postcode": "20125",
        "name": "Orto",
        "place": "village"
      }
    },
    {
      "type": "node",
      "id": 1244922549,
      "lat": 42.1896312,
      "lon": 8.91128,
      "timestamp": "2022-02-01T13:28:20Z",
      "version": 5,
      "changeset": 116868957,
      "user": "A-d-r-i",
      "uid": 3524412,
      "tags": {
        "addr:postcode": "20125",
        "name": "Soccia",
        "place": "village"
      }
    },
    {
      "type": "node",
      "id": 1247756111,
      "lat": 42.0838436,
      "lon": 8.7928069,
      "timestamp": "2022-05-18T17:08:10Z",
      "version": 9,
      "changeset": 121157171,
      "user": "PhilLL",
      "uid": 1710208,
      "tags": {
        "addr:postcode": "20151",
        "name": "Ambiegna",
        "place": "village"
      }
    },
    {
      "type": "node",
      "id": 1247756577,
      "lat": 42.0932401,
      "lon": 8.8143792,
      "timestamp": "2022-05-18T17:08:10Z",
      "version": 8,
      "changeset": 121157171,
      "user": "PhilLL",
      "uid": 1710208,
      "tags": {
        "addr:postcode": "20151",
        "name": "Arro",
        "place": "village"
      }
    },
    {
      "type": "node",
      "id": 1247756810,
      "lat": 42.059499,
      "lon": 8.8280068,
      "timestamp": "2020-01-16T15:45:26Z",
      "version": 7,
      "changeset": 79656957,
      "user": "daop5510",
      "uid": 300696,
      "tags": {
        "addr:postcode": "20151",
        "name": "Sari-d'Orcino",
        "place": "village"
      }
    },
    {
      "type": "node",
      "id": 1247756832,
      "lat": 42.1005781,
      "lon": 8.9130666,
      "timestamp": "2011-04-16T22:14:42Z",
      "version": 1,
      "changeset": 7882752,
      "user": "Peter Lerner",
      "uid": 46964,
      "tags": {
        "name": "Pruniccia",
        "place": "hamlet"
      }
    },
    {
      "type": "node",
      "id": 1247756892,
      "lat": 42.1104523,
      "lon": 8.9332343,
      "timestamp": "2011-04-16T22:14:45Z",
      "version": 1,
      "changeset": 7882752,
      "user": "Peter Lerner",
      "uid": 46964,
      "tags": {
        "name": "Giradaja",
        "place": "hamlet"
      }
    },
    {
      "type": "node",
      "id": 1247757779,
      "lat": 42.0978998,
      "lon": 8.9142549,
      "timestamp": "2011-04-16T22:15:23Z",
      "version": 1,
      "changeset": 7882752,
      "user": "Peter Lerner",
      "uid": 46964,
      "tags": {
        "name": "Ucepo",
        "place": "hamlet"
      }
    },
    {
      "type": "node",
      "id": 1248356248,
      "lat": 42.0462105,
      "lon": 8.8092517,
      "timestamp": "2020-01-16T15:45:26Z",
      "version": 7,
      "changeset": 79656957,
      "user": "daop5510",
      "uid": 300696,
      "tags": {
        "addr:postcode": "20151",
        "name": "Sant'Andréa-d'Orcino",
        "place": "village"
      }
    },
    {
      "type": "node",
      "id": 1265784579,
      "lat": 42.0623288,
      "lon": 8.7415836,
      "timestamp": "2020-03-27T05:20:34Z",
      "version": 5,
      "changeset": 82693630,
      "user": "Olyon",
      "uid": 1443767,
      "tags": {
        "brand": "Casino Shop",
        "brand:wikidata": "Q2670967",
        "name": "Casino Shop",
        "operator": "Spar",
        "shop": "convenience"
      }
    },
    {
      "type": "node",
      "id": 1350150011,
      "lat": 42.3226712,
      "lon": 8.8261159,
      "timestamp": "2021-03-06T11:18:39Z",
      "version": 2,
      "changeset": 100531039,
      "user": "Hervé TUC",
      "uid": 922338,
      "tags": {
        "description": "2019-02 : Bien aménagée, abondante et fraîche, elle coule toute l’année.",
        "ele": "961",
        "name": "Source de Capronale",
        "natural": "spring",
        "website": "https://www.refuges.info/point/4467/point-d-eau/Corse/Source-de-Capronale/"
      }
    },
    {
      "type": "node",
      "id": 1350150138,
      "lat": 42.3285318,
      "lon": 8.8258984,
      "timestamp": "2021-03-06T11:18:39Z",
      "version": 2,
      "changeset": 100531039,
      "user": "Hervé TUC",
      "uid": 922338,
      "tags": {
        "description": "2019-10 : Belle fontaine avec margelle en pierres maçonnées, coulait fortement en 02/2019 et 10/2019, eau glacée et pure.",
        "ele": "739",
        "name": "Fontaine de Capronale III",
        "natural": "spring",
        "website": "https://www.refuges.info/point/6573/point-d-eau/Corse/Fontaine-de-Capronale-III/"
      }
    },
    {
      "type": "node",
      "id": 1359933184,
      "lat": 42.2298611,
      "lon": 9.0114828,
      "timestamp": "2021-05-30T11:48:31Z",
      "version": 3,
      "changeset": 105564582,
      "user": "pizzaiolo",
      "uid": 1772368,
      "tags": {
        "ele": "2295",
        "name": "Capo al Chiostro",
        "name:co": "Capu à u Chjostru",
        "natural": "peak",
        "wikidata": "Q31647686"
      }
    },
    {
      "type": "node",
      "id": 1359933186,
      "lat": 42.2190164,
      "lon": 9.012984,
      "timestamp": "2021-05-30T11:48:10Z",
      "version": 4,
      "changeset": 105564582,
      "user": "pizzaiolo",
      "uid": 1772368,
      "tags": {
        "ele": "2268",
        "name": "Lombarduccio",
        "natural": "peak",
        "wikidata": "Q21427563"
      }
    },
    {
      "type": "node",
      "id": 1364774186,
      "lat": 42.239042,
      "lon": 8.8408788,
      "timestamp": "2020-01-16T15:45:26Z",
      "version": 8,
      "changeset": 79656957,
      "user": "daop5510",
      "uid": 300696,
      "tags": {
        "addr:postcode": "20126",
        "name": "Cristinacce",
        "place": "village"
      }
    },
    {
      "type": "node",
      "id": 1366096346,
      "lat": 42.3752169,
      "lon": 8.9139243,
      "timestamp": "2021-05-30T11:47:31Z",
      "version": 2,
      "changeset": 105564582,
      "user": "pizzaiolo",
      "uid": 1772368,
      "tags": {
        "ele": "2556",
        "name": "Punta Minuta",
        "natural": "peak",
        "wikidata": "Q955366"
      }
    },
    {
      "type": "node",
      "id": 1390057641,
      "lat": 42.4177283,
      "lon": 9.1281254,
      "timestamp": "2022-02-01T13:28:20Z",
      "version": 7,
      "changeset": 116868957,
      "user": "A-d-r-i",
      "uid": 3524412,
      "tags": {
        "addr:postcode": "20218",
        "name": "Castiglione",
        "name:co": "Castiglioni",
        "place": "village"
      }
    },
    {
      "type": "node",
      "id": 1426468678,
      "lat": 42.2595943,
      "lon": 8.6797001,
      "timestamp": "2011-09-07T20:07:13Z",
      "version": 1,
      "changeset": 9240332,
      "user": "Niccolò",
      "uid": 517331,
      "tags": {
        "amenity": "drinking_water"
      }
    },
    {
      "type": "node",
      "id": 1426468679,
      "lat": 42.2758204,
      "lon": 8.9032936,
      "timestamp": "2011-09-19T18:53:29Z",
      "version": 3,
      "changeset": 9345551,
      "user": "eumiro",
      "uid": 29717,
      "tags": {
        "amenity": "drinking_water",
        "name": "Fontana di Carulina"
      }
    },
    {
      "type": "node",
      "id": 1426498376,
      "lat": 42.5303139,
      "lon": 8.9020522,
      "timestamp": "2011-09-07T20:43:26Z",
      "version": 1,
      "changeset": 9240671,
      "user": "Niccolò",
      "uid": 517331,
      "tags": {
        "amenity": "drinking_water"
      }
    },
    {
      "type": "node",
      "id": 1431647949,
      "lat": 42.3496868,
      "lon": 8.6124546,
      "timestamp": "2022-06-14T09:41:34Z",
      "version": 3,
      "changeset": 122364090,
      "user": "trebornilis",
      "uid": 3263300,
      "tags": {
        "name": "Girolata",
        "place": "village",
        "wikidata": "Q1527084"
      }
    },
    {
      "type": "node",
      "id": 1432574324,
      "lat": 42.0508269,
      "lon": 8.7492562,
      "timestamp": "2021-10-13T16:32:44Z",
      "version": 5,
      "changeset": 112469898,
      "user": "zorglubu",
      "uid": 6466263,
      "tags": {
        "brand": "Spar",
        "brand:wikidata": "Q610492",
        "name": "Spar",
        "operator": "Spar",
        "shop": "supermarket"
      }
    },
    {
      "type": "node",
      "id": 1433865206,
      "lat": 42.3460176,
      "lon": 8.6238408,
      "timestamp": "2022-01-14T17:10:45Z",
      "version": 2,
      "changeset": 116156018,
      "user": "PhilLL",
      "uid": 1710208,
      "tags": {
        "name": "Bocca di Ghjianibarellu",
        "natural": "saddle"
      }
    },
    {
      "type": "node",
      "id": 1436781571,
      "lat": 42.2116075,
      "lon": 8.5843165,
      "timestamp": "2019-06-04T18:20:46Z",
      "version": 2,
      "changeset": 70933272,
      "user": "staehler",
      "uid": 118856,
      "tags": {
        "amenity": "drinking_water"
      }
    },
    {
      "type": "node",
      "id": 1437699247,
      "lat": 42.3591805,
      "lon": 8.971727,
      "timestamp": "2018-10-29T23:27:00Z",
      "version": 3,
      "changeset": 63994472,
      "user": "Bathyscapher",
      "uid": 8889564,
      "tags": {
        "amenity": "shelter",
        "disused": "yes",
        "name": "Refuge de Petra Pinzuta",
        "shelter_type": "basic_hut"
      }
    },
    {
      "type": "node",
      "id": 1437699310,
      "lat": 42.3488481,
      "lon": 9.008863,
      "timestamp": "2011-09-19T19:07:12Z",
      "version": 1,
      "changeset": 9345551,
      "user": "eumiro",
      "uid": 29717,
      "tags": {
        "amenity": "drinking_water"
      }
    },
    {
      "type": "node",
      "id": 1437738235,
      "lat": 42.1291244,
      "lon": 9.133315,
      "timestamp": "2019-05-28T08:29:42Z",
      "version": 2,
      "changeset": 70687157,
      "user": "jabali",
      "uid": 358508,
      "tags": {
        "natural": "spring"
      }
    },
    {
      "type": "node",
      "id": 1493306361,
      "lat": 42.3425204,
      "lon": 8.7251175,
      "timestamp": "2022-01-14T09:39:39Z",
      "version": 3,
      "changeset": 116140442,
      "user": "PhilLL",
      "uid": 1710208,
      "tags": {
        "ele": "773",
        "mountain_pass": "yes",
        "name": "Bocca di Melza",
        "natural": "saddle"
      }
    },
    {
      "type": "node",
      "id": 1493306484,
      "lat": 42.3581609,
      "lon": 8.7586353,
      "timestamp": "2022-01-14T09:39:39Z",
      "version": 3,
      "changeset": 116140442,
      "user": "PhilLL",
      "uid": 1710208,
      "tags": {
        "ele": "896",
        "name": "Bocca d'Eltru",
        "natural": "saddle"
      }
    },
    {
      "type": "node",
      "id": 1505608176,
      "lat": 42.3638789,
      "lon": 8.6483254,
      "timestamp": "2022-01-14T19:02:35Z",
      "version": 3,
      "changeset": 116160023,
      "user": "PhilLL",
      "uid": 1710208,
      "tags": {
        "ele": "408",
        "mountain_pass": "yes",
        "name": "Bocca di Palmarella",
        "natural": "saddle"
      }
    },
    {
      "type": "node",
      "id": 1706302930,
      "lat": 42.1781775,
      "lon": 8.7794336,
      "timestamp": "2020-01-16T15:45:26Z",
      "version": 7,
      "changeset": 79656957,
      "user": "daop5510",
      "uid": 300696,
      "tags": {
        "addr:postcode": "20160",
        "name": "Balogna",
        "place": "village"
      }
    },
    {
      "type": "node",
      "id": 1706302931,
      "lat": 42.0492339,
      "lon": 8.8204298,
      "timestamp": "2020-01-16T15:45:26Z",
      "version": 5,
      "changeset": 79656957,
      "user": "daop5510",
      "uid": 300696,
      "tags": {
        "name": "Cannelle",
        "place": "village"
      }
    },
    {
      "type": "node",
      "id": 1708081431,
      "lat": 42.5040586,
      "lon": 9.1123633,
      "timestamp": "2019-11-25T17:02:18Z",
      "version": 3,
      "changeset": 77535779,
      "user": "StephaneP",
      "uid": 439947,
      "tags": {
        "name": "Castifao",
        "place": "village"
      }
    },
    {
      "type": "node",
      "id": 1708081503,
      "lat": 42.4889291,
      "lon": 9.1162087,
      "timestamp": "2022-02-01T13:28:20Z",
      "version": 5,
      "changeset": 116868957,
      "user": "A-d-r-i",
      "uid": 3524412,
      "tags": {
        "name": "Moltifao",
        "name:co": "Moltifau",
        "place": "village"
      }
    },
    {
      "type": "node",
      "id": 1708081599,
      "lat": 42.4330728,
      "lon": 9.1333042,
      "timestamp": "2022-02-01T13:28:20Z",
      "version": 6,
      "changeset": 116868957,
      "user": "A-d-r-i",
      "uid": 3524412,
      "tags": {
        "name": "Popolasca",
        "name:co": "Upulesca",
        "place": "village"
      }
    },
    {
      "type": "node",
      "id": 1736295311,
      "lat": 42.176149,
      "lon": 8.9094189,
      "timestamp": "2020-01-16T15:45:26Z",
      "version": 5,
      "changeset": 79656957,
      "user": "daop5510",
      "uid": 300696,
      "tags": {
        "addr:postcode": "20125",
        "name": "Poggiolo",
        "place": "village"
      }
    },
    {
      "type": "node",
      "id": 1749745529,
      "lat": 42.3237579,
      "lon": 8.6320161,
      "timestamp": "2019-11-25T17:02:40Z",
      "version": 7,
      "changeset": 77535826,
      "user": "StephaneP",
      "uid": 439947,
      "tags": {
        "addr:postcode": "20147",
        "name": "Osani",
        "place": "village"
      }
    },
    {
      "type": "node",
      "id": 1750870570,
      "lat": 42.3659662,
      "lon": 8.7929248,
      "timestamp": "2022-02-01T13:28:20Z",
      "version": 7,
      "changeset": 116868957,
      "user": "A-d-r-i",
      "uid": 3524412,
      "tags": {
        "addr:postcode": "20245",
        "alt_name": "Manso",
        "name": "Barghiana",
        "place": "village"
      }
    },
    {
      "type": "node",
      "id": 1870197282,
      "lat": 42.13436,
      "lon": 8.59422,
      "timestamp": "2020-09-01T20:54:14Z",
      "version": 5,
      "changeset": 90264665,
      "user": "Yod4z",
      "uid": 318821,
      "tags": {
        "name": "Cargèse",
        "name:co": "Carghjse",
        "place": "village"
      }
    },
    {
      "type": "node",
      "id": 1870197819,
      "lat": 42.04003,
      "lon": 8.95263,
      "timestamp": "2020-01-16T15:45:26Z",
      "version": 3,
      "changeset": 79656957,
      "user": "daop5510",
      "uid": 300696,
      "tags": {
        "name": "Carbuccia",
        "place": "village"
      }
    },
    {
      "type": "node",
      "id": 1876021642,
      "lat": 42.2963498,
      "lon": 8.8498342,
      "timestamp": "2021-05-30T11:48:12Z",
      "version": 5,
      "changeset": 105564582,
      "user": "pizzaiolo",
      "uid": 1772368,
      "tags": {
        "ele": "2049",
        "name": "Capu a Cuccula",
        "natural": "peak",
        "wikidata": "Q25675368"
      }
    },
    {
      "type": "node",
      "id": 1876042654,
      "lat": 42.2778732,
      "lon": 8.8310801,
      "timestamp": "2021-03-03T03:28:06Z",
      "version": 3,
      "changeset": 100313056,
      "user": "Hervé TUC",
      "uid": 922338,
      "tags": {
        "description": "2013-10 : - Ouvert toute l'année - Table et bancs - Pas de vaisselle ou autre - début octobre 2013, une seule pièce du bas (+ vaste pièce à l'étage) reste en accès libre",
        "ele": "1391",
        "fireplace": "yes",
        "name": "Abri forestier de la Bocca à u Saltu",
        "stove": "no",
        "tourism": "wilderness_hut",
        "website": "https://www.refuges.info/point/4174/cabane-non-gardee/Corse/Abri-forestier-de-la-Bocca-a-u-Saltu/"
      }
    },
    {
      "type": "node",
      "id": 1877117533,
      "lat": 42.0448868,
      "lon": 8.9784478,
      "timestamp": "2020-01-16T15:45:26Z",
      "version": 4,
      "changeset": 79656957,
      "user": "daop5510",
      "uid": 300696,
      "tags": {
        "addr:postcode": "20133",
        "name": "Ucciani",
        "place": "village"
      }
    },
    {
      "type": "node",
      "id": 1935629269,
      "lat": 42.3036056,
      "lon": 8.8756641,
      "timestamp": "2019-02-25T15:37:53Z",
      "version": 5,
      "changeset": 67552710,
      "user": "giggls",
      "uid": 7009,
      "tags": {
        "backcountry": "yes",
        "caravans": "no",
        "name": "Bergeries de Radule",
        "place": "locality",
        "tents": "yes",
        "tourism": "camp_site"
      }
    },
    {
      "type": "node",
      "id": 1935633319,
      "lat": 42.3499127,
      "lon": 8.6132981,
      "timestamp": "2022-04-15T17:20:05Z",
      "version": 5,
      "changeset": 119759464,
      "user": "Eichelspitz",
      "uid": 14354713,
      "tags": {
        "caravans": "no",
        "fee": "yes",
        "name": "Restaurant-refuge La Cabane du berger",
        "tents": "yes",
        "tourism": "camp_site"
      }
    },
    {
      "type": "node",
      "id": 2151642433,
      "lat": 42.391742,
      "lon": 8.978922,
      "timestamp": "2020-05-30T17:42:14Z",
      "version": 5,
      "changeset": 85988605,
      "user": "Vulpachjinu",
      "uid": 10007009,
      "tags": {
        "ele": "2583",
        "name": "Capo al Berdato",
        "name:co": "Capu à u Pardatu",
        "natural": "peak",
        "wikidata": "Q16861935"
      }
    },
    {
      "type": "node",
      "id": 2298354430,
      "lat": 42.4093498,
      "lon": 8.650406,
      "timestamp": "2021-03-29T12:13:40Z",
      "version": 3,
      "changeset": 101916878,
      "user": "Hervé TUC",
      "uid": 922338,
      "tags": {
        "amenity": "drinking_water",
        "description": "2013-09 : Eau potable, permanente",
        "ele": "40",
        "name": "Fontaine publique de Galeria",
        "website": "https://www.refuges.info/point/4177/point-d-eau/Corse/Fontaine-publique-de-Galeria/"
      }
    },
    {
      "type": "node",
      "id": 2331244144,
      "lat": 42.2479707,
      "lon": 8.6621259,
      "timestamp": "2018-06-17T21:49:04Z",
      "version": 3,
      "changeset": 59924447,
      "user": "JochenB",
      "uid": 71555,
      "tags": {
        "amenity": "drinking_water"
      }
    },
    {
      "type": "node",
      "id": 2332210565,
      "lat": 42.5396867,
      "lon": 8.8923492,
      "timestamp": "2013-06-04T19:50:27Z",
      "version": 1,
      "changeset": 16424190,
      "user": "FAnheuser",
      "uid": 517097,
      "tags": {
        "amenity": "drinking_water"
      }
    },
    {
      "type": "node",
      "id": 2382595144,
      "lat": 42.5519688,
      "lon": 8.734111,
      "timestamp": "2022-06-06T16:28:52Z",
      "version": 2,
      "changeset": 122034157,
      "user": "Walter Schlögl",
      "uid": 78656,
      "tags": {
        "amenity": "drinking_water",
        "natural": "spring"
      }
    },
    {
      "type": "node",
      "id": 2457152748,
      "lat": 42.4034424,
      "lon": 8.9227727,
      "timestamp": "2018-12-12T20:29:45Z",
      "version": 2,
      "changeset": 65421751,
      "user": "Bathyscapher",
      "uid": 8889564,
      "tags": {
        "natural": "spring"
      }
    },
    {
      "type": "node",
      "id": 2457152988,
      "lat": 42.4637945,
      "lon": 8.9070055,
      "timestamp": "2016-08-18T12:44:46Z",
      "version": 2,
      "changeset": 41533259,
      "user": "Jay Jon",
      "uid": 3500632,
      "tags": {
        "drinking_water": "yes",
        "natural": "spring"
      }
    },
    {
      "type": "node",
      "id": 2483371197,
      "lat": 42.261667,
      "lon": 8.7092139,
      "timestamp": "2021-02-23T09:39:37Z",
      "version": 4,
      "changeset": 99811620,
      "user": "Hervé TUC",
      "uid": 922338,
      "tags": {
        "amenity": "drinking_water",
        "bottle": "yes",
        "fee": "no",
        "name": "Fontaine du Pont de Porto",
        "natural": "spring",
        "website": "https://www.refuges.info/point/6330/point-d-eau/Corse/Fontaine-du-Pont-de-Porto/",
        "wheelchair": "yes"
      }
    },
    {
      "type": "node",
      "id": 2483371198,
      "lat": 42.2274496,
      "lon": 8.8406996,
      "timestamp": "2021-02-21T11:43:08Z",
      "version": 4,
      "changeset": 99676361,
      "user": "Hervé TUC",
      "uid": 922338,
      "tags": {
        "amenity": "drinking_water",
        "ele": "1020",
        "name": "Funtana à i Preti",
        "name:fr": "Fontaine du Prete",
        "natural": "spring",
        "start_date": "1940"
      }
    },
    {
      "type": "node",
      "id": 2483371201,
      "lat": 42.0618871,
      "lon": 8.8249183,
      "timestamp": "2013-10-05T10:08:50Z",
      "version": 1,
      "changeset": 18192469,
      "user": "Thomas Rast",
      "uid": 989564,
      "tags": {
        "amenity": "drinking_water"
      }
    },
    {
      "type": "node",
      "id": 2485081809,
      "lat": 42.2543277,
      "lon": 8.9264446,
      "timestamp": "2015-01-17T11:52:22Z",
      "version": 2,
      "changeset": 28205930,
      "user": "geow",
      "uid": 223093,
      "tags": {
        "ele": "1883",
        "mountain_pass": "yes",
        "name": "Bocca a Reta",
        "natural": "saddle"
      }
    },
    {
      "type": "node",
      "id": 2515417283,
      "lat": 42.1448248,
      "lon": 8.5979597,
      "timestamp": "2013-10-31T18:54:08Z",
      "version": 1,
      "changeset": 18640211,
      "user": "Olyon",
      "uid": 1443767,
      "tags": {
        "name": "Frimicaghiola",
        "place": "hamlet",
        "source": "cadastre-dgi-fr source : Direction Générale des Impôts - Cadastre. Mise à jour : 2013"
      }
    },
    {
      "type": "node",
      "id": 2515417285,
      "lat": 42.1589988,
      "lon": 8.6171361,
      "timestamp": "2013-10-31T18:54:08Z",
      "version": 1,
      "changeset": 18640211,
      "user": "Olyon",
      "uid": 1443767,
      "tags": {
        "name": "Lozzi",
        "place": "hamlet"
      }
    },
    {
      "type": "node",
      "id": 2515417289,
      "lat": 42.1497681,
      "lon": 8.5935439,
      "timestamp": "2013-10-31T18:54:08Z",
      "version": 1,
      "changeset": 18640211,
      "user": "Olyon",
      "uid": 1443767,
      "tags": {
        "name": "Marchese",
        "place": "hamlet",
        "source": "cadastre-dgi-fr source : Direction Générale des Impôts - Cadastre. Mise à jour : 2013"
      }
    },
    {
      "type": "node",
      "id": 2515417293,
      "lat": 42.1358435,
      "lon": 8.6182439,
      "timestamp": "2013-10-31T18:54:08Z",
      "version": 1,
      "changeset": 18640211,
      "user": "Olyon",
      "uid": 1443767,
      "tags": {
        "name": "Menasina",
        "place": "hamlet"
      }
    },
    {
      "type": "node",
      "id": 2896317431,
      "lat": 42.3249139,
      "lon": 9.0920841,
      "timestamp": "2021-02-27T03:42:28Z",
      "version": 3,
      "changeset": 100081746,
      "user": "Hervé TUC",
      "uid": 922338,
      "tags": {
        "ele": "1818",
        "mountain_pass": "yes",
        "name": "Bocca a Canaghia",
        "natural": "saddle"
      }
    },
    {
      "type": "node",
      "id": 2939334918,
      "lat": 42.3947661,
      "lon": 9.0205547,
      "timestamp": "2019-03-01T20:05:03Z",
      "version": 2,
      "changeset": 67698065,
      "user": "Bathyscapher",
      "uid": 8889564,
      "tags": {
        "natural": "spring"
      }
    },
    {
      "type": "node",
      "id": 2990023600,
      "lat": 42.3626531,
      "lon": 8.807627,
      "timestamp": "2017-09-22T12:45:37Z",
      "version": 2,
      "changeset": 52275291,
      "user": "Mar Mar",
      "uid": 2963768,
      "tags": {
        "amenity": "drinking_water"
      }
    },
    {
      "type": "node",
      "id": 2991066275,
      "lat": 42.3256594,
      "lon": 9.1030913,
      "timestamp": "2021-02-28T09:00:07Z",
      "version": 4,
      "changeset": 100127352,
      "user": "Hervé TUC",
      "uid": 922338,
      "tags": {
        "description": "Débit de 1 litre/minutes le 06/09/2019",
        "drinking_water": "yes",
        "ele": "1596",
        "name": "Source Surgente de Padule",
        "natural": "spring",
        "website": "https://www.refuges.info/point/4534/point-d-eau/Corse/Source-Surgente-de-Padule/"
      }
    },
    {
      "type": "node",
      "id": 3008119563,
      "lat": 42.1366119,
      "lon": 9.077261,
      "timestamp": "2021-05-30T11:48:22Z",
      "version": 3,
      "changeset": 105564582,
      "user": "pizzaiolo",
      "uid": 1772368,
      "tags": {
        "ele": "2138",
        "name": "Pointe Muratello",
        "natural": "peak",
        "wikidata": "Q31636354"
      }
    },
    {
      "type": "node",
      "id": 3013751303,
      "lat": 42.1531999,
      "lon": 9.0746877,
      "timestamp": "2018-12-27T21:16:47Z",
      "version": 2,
      "changeset": 65825195,
      "user": "Bathyscapher",
      "uid": 8889564,
      "tags": {
        "natural": "spring"
      }
    },
    {
      "type": "node",
      "id": 3024550685,
      "lat": 42.3111296,
      "lon": 8.6133668,
      "timestamp": "2014-08-18T13:28:13Z",
      "version": 1,
      "changeset": 24832882,
      "user": "P_ev",
      "uid": 1855495,
      "tags": {
        "amenity": "shelter",
        "shelter_type": "rock_shelter"
      }
    },
    {
      "type": "node",
      "id": 3083536278,
      "lat": 42.4999083,
      "lon": 8.8765863,
      "timestamp": "2014-09-17T22:22:01Z",
      "version": 1,
      "changeset": 25510653,
      "user": "Screentoosmall",
      "uid": 323521,
      "tags": {
        "drinking_water": "yes",
        "name": "Funtana di Partine",
        "natural": "spring",
        "source": "GPS"
      }
    },
    {
      "type": "node",
      "id": 3169432061,
      "lat": 42.1601153,
      "lon": 8.7952519,
      "timestamp": "2014-11-05T22:17:31Z",
      "version": 1,
      "changeset": 26581846,
      "user": "FrViPofm",
      "uid": 107257,
      "tags": {
        "name": "Nesa",
        "place": "hamlet"
      }
    },
    {
      "type": "node",
      "id": 3254998573,
      "lat": 42.1023821,
      "lon": 8.7102762,
      "timestamp": "2014-12-27T11:54:12Z",
      "version": 1,
      "changeset": 27728272,
      "user": "Aroche",
      "uid": 50179,
      "tags": {
        "name": "Esigna",
        "place": "hamlet"
      }
    },
    {
      "type": "node",
      "id": 3254998574,
      "lat": 42.1066155,
      "lon": 8.7032803,
      "timestamp": "2014-12-27T11:54:12Z",
      "version": 1,
      "changeset": 27728272,
      "user": "Aroche",
      "uid": 50179,
      "tags": {
        "name": "Temuli",
        "place": "hamlet"
      }
    },
    {
      "type": "node",
      "id": 3336897396,
      "lat": 42.4962678,
      "lon": 8.8476027,
      "timestamp": "2019-04-26T19:17:42Z",
      "version": 4,
      "changeset": 69612682,
      "user": "jabali",
      "uid": 358508,
      "tags": {
        "ele": "586",
        "mountain_pass": "yes",
        "name": "Bocca u Corsu",
        "natural": "saddle"
      }
    },
    {
      "type": "node",
      "id": 3497962577,
      "lat": 42.3216208,
      "lon": 8.6709047,
      "timestamp": "2015-05-04T21:23:51Z",
      "version": 1,
      "changeset": 30792156,
      "user": "ameyer3000",
      "uid": 536199,
      "tags": {
        "name": "Curzu",
        "place": "hamlet"
      }
    },
    {
      "type": "node",
      "id": 3499935895,
      "lat": 42.1872794,
      "lon": 8.6577392,
      "timestamp": "2015-05-05T20:37:47Z",
      "version": 1,
      "changeset": 30822676,
      "user": "ameyer3000",
      "uid": 536199,
      "tags": {
        "name": "Revinda",
        "place": "hamlet"
      }
    },
    {
      "type": "node",
      "id": 3564262874,
      "lat": 42.2903223,
      "lon": 8.8783989,
      "timestamp": "2018-07-19T12:16:22Z",
      "version": 5,
      "changeset": 60869887,
      "user": "PhilLL",
      "uid": 1710208,
      "tags": {
        "ele": "1467",
        "mountain_pass": "yes",
        "name": "Col de Vergio",
        "name:co": "Bocca di Verghju",
        "natural": "saddle",
        "wikidata": "Q1107407",
        "wikipedia": "fr:Col de Vergio"
      }
    },
    {
      "type": "node",
      "id": 3580831593,
      "lat": 42.0595494,
      "lon": 8.7508192,
      "timestamp": "2015-06-08T14:56:02Z",
      "version": 1,
      "changeset": 31817350,
      "user": "Tristan_dufret",
      "uid": 767808,
      "tags": {
        "name": "Lombarda",
        "place": "hamlet"
      }
    },
    {
      "type": "node",
      "id": 3676055832,
      "lat": 42.4441437,
      "lon": 9.0124844,
      "timestamp": "2015-08-01T08:28:00Z",
      "version": 1,
      "changeset": 33026013,
      "user": "bkmap",
      "uid": 44771,
      "tags": {
        "drinking_water": "yes",
        "natural": "spring"
      }
    },
    {
      "type": "node",
      "id": 3736498610,
      "lat": 42.5083711,
      "lon": 8.8552855,
      "timestamp": "2015-09-09T18:44:26Z",
      "version": 1,
      "changeset": 33916659,
      "user": "FrViPofm",
      "uid": 107257,
      "tags": {
        "name": "Calenzana",
        "place": "village"
      }
    },
    {
      "type": "node",
      "id": 3743175792,
      "lat": 42.2637921,
      "lon": 8.7082011,
      "timestamp": "2015-10-29T23:47:17Z",
      "version": 2,
      "changeset": 34962365,
      "user": "ChrissW-R1",
      "uid": 251543,
      "tags": {
        "amenity": "shelter",
        "shelter_type": "public_transport"
      }
    },
    {
      "type": "node",
      "id": 3747906557,
      "lat": 42.4074375,
      "lon": 8.7770146,
      "timestamp": "2019-09-16T12:42:02Z",
      "version": 3,
      "changeset": 74530342,
      "user": "PhilLL",
      "uid": 1710208,
      "tags": {
        "ele": "589",
        "name": "Bocca di Lucca",
        "natural": "saddle"
      }
    },
    {
      "type": "node",
      "id": 3994364533,
      "lat": 42.188117,
      "lon": 8.8497897,
      "timestamp": "2018-09-01T14:49:57Z",
      "version": 2,
      "changeset": 62199523,
      "user": "jabali",
      "uid": 358508,
      "tags": {
        "name": "Fontaine d'Ajaldacce",
        "natural": "spring"
      }
    },
    {
      "type": "node",
      "id": 4229043965,
      "lat": 42.4290668,
      "lon": 8.8162273,
      "timestamp": "2016-06-06T21:24:48Z",
      "version": 1,
      "changeset": 39849515,
      "user": "Joachim Weiß",
      "uid": 2809304,
      "tags": {
        "natural": "spring"
      }
    },
    {
      "type": "node",
      "id": 4291419432,
      "lat": 42.2671556,
      "lon": 8.6939927,
      "timestamp": "2017-10-10T00:00:28Z",
      "version": 2,
      "changeset": 52775393,
      "user": "Olyon",
      "uid": 1443767,
      "tags": {
        "name": "Superette du Port",
        "opening_hours": "Mo-Su 08:00-20:00",
        "phone": "+33495261191",
        "shop": "convenience"
      }
    },
    {
      "type": "node",
      "id": 4307625274,
      "lat": 42.5095874,
      "lon": 8.8366558,
      "timestamp": "2022-02-01T13:28:20Z",
      "version": 4,
      "changeset": 116868957,
      "user": "A-d-r-i",
      "uid": 3524412,
      "tags": {
        "addr:postcode": "20214",
        "name": "Moncale",
        "name:co": "U Mucale",
        "place": "village"
      }
    },
    {
      "type": "node",
      "id": 4347103005,
      "lat": 42.551809,
      "lon": 8.719657,
      "timestamp": "2016-08-12T10:24:55Z",
      "version": 1,
      "changeset": 41407672,
      "user": "Couannetine",
      "uid": 2173660,
      "tags": {
        "name": "Grotte Mughia",
        "natural": "cave_entrance"
      }
    },
    {
      "type": "node",
      "id": 4348329403,
      "lat": 42.371388,
      "lon": 8.9295276,
      "timestamp": "2020-08-03T07:15:50Z",
      "version": 5,
      "changeset": 88862287,
      "user": "PhilLL",
      "uid": 1710208,
      "tags": {
        "ele": "2452",
        "mountain_pass": "yes",
        "name": "Bocca Crucetta",
        "natural": "saddle"
      }
    },
    {
      "type": "node",
      "id": 4355343147,
      "lat": 42.1980372,
      "lon": 9.05202,
      "timestamp": "2020-08-14T15:49:11Z",
      "version": 3,
      "changeset": 89419961,
      "user": "PhilLL",
      "uid": 1710208,
      "tags": {
        "access": "yes",
        "amenity": "drinking_water",
        "bottle": "yes",
        "man_made": "drinking_fountain"
      }
    },
    {
      "type": "node",
      "id": 4355356959,
      "lat": 42.2364694,
      "lon": 8.9730406,
      "timestamp": "2021-02-17T10:30:37Z",
      "version": 2,
      "changeset": 99443415,
      "user": "Hervé TUC",
      "uid": 922338,
      "tags": {
        "name": "Source de Vaccaghia",
        "natural": "spring",
        "website": "https://www.refuges.info/point/4496/point-d-eau/Corse/Source-de-Vaccaghia/"
      }
    },
    {
      "type": "node",
      "id": 4355532254,
      "lat": 42.3349632,
      "lon": 8.8683591,
      "timestamp": "2021-03-06T11:10:18Z",
      "version": 7,
      "changeset": 100530795,
      "user": "Hervé TUC",
      "uid": 922338,
      "tags": {
        "amenity": "drinking_water",
        "description": "2018-07 : Issue de captages effectués vers l'amont, dans des aulnes (source du fleuve Golo). Débit faible mais écoulement constant jusqu'en automne. Consommée par les gens du refuge, randonneurs etc.",
        "drinking_water": "yes",
        "ele": "1996",
        "name": "Fontaine de Ciuttulu",
        "website": "https://www.refuges.info/point/4558/point-d-eau/Corse/Fontaine-de-Ciuttulu/"
      }
    },
    {
      "type": "node",
      "id": 4355600233,
      "lat": 42.3622275,
      "lon": 8.9088004,
      "timestamp": "2020-08-03T07:15:50Z",
      "version": 2,
      "changeset": 88862287,
      "user": "PhilLL",
      "uid": 1710208,
      "tags": {
        "amenity": "drinking_water"
      }
    },
    {
      "type": "node",
      "id": 4355600250,
      "lat": 42.4035075,
      "lon": 8.9223843,
      "timestamp": "2016-08-18T12:32:06Z",
      "version": 1,
      "changeset": 41533042,
      "user": "Jay Jon",
      "uid": 3500632,
      "tags": {
        "natural": "spring"
      }
    },
    {
      "type": "node",
      "id": 4355620101,
      "lat": 42.4260826,
      "lon": 8.9009202,
      "timestamp": "2016-08-18T12:39:37Z",
      "version": 1,
      "changeset": 41533168,
      "user": "Jay Jon",
      "uid": 3500632,
      "tags": {
        "natural": "spring"
      }
    },
    {
      "type": "node",
      "id": 4374059626,
      "lat": 42.5506794,
      "lon": 8.7952688,
      "timestamp": "2020-04-11T19:09:53Z",
      "version": 4,
      "changeset": 83408926,
      "user": "nlehuby",
      "uid": 1424448,
      "tags": {
        "brand": "Spar",
        "brand:wikidata": "Q610492",
        "name": "Spar",
        "shop": "supermarket"
      }
    },
    {
      "type": "node",
      "id": 4438790068,
      "lat": 42.2080422,
      "lon": 9.0317271,
      "timestamp": "2016-10-09T09:00:45Z",
      "version": 1,
      "changeset": 42749422,
      "user": "FrischLuftWege",
      "uid": 2046386,
      "tags": {
        "natural": "spring"
      }
    },
    {
      "type": "node",
      "id": 4438809185,
      "lat": 42.2066474,
      "lon": 9.0379599,
      "timestamp": "2017-08-01T10:17:48Z",
      "version": 3,
      "changeset": 50747320,
      "user": "phlustik",
      "uid": 842813,
      "tags": {
        "ele": "2206",
        "mountain_pass": "yes",
        "name": "Bocca Muzzella",
        "natural": "saddle"
      }
    },
    {
      "type": "node",
      "id": 4460382850,
      "lat": 42.4260774,
      "lon": 8.8992121,
      "timestamp": "2016-10-23T13:04:55Z",
      "version": 1,
      "changeset": 43099870,
      "user": "DerGuteMercator",
      "uid": 245030,
      "tags": {
        "amenity": "shelter"
      }
    },
    {
      "type": "node",
      "id": 4462405100,
      "lat": 42.2106202,
      "lon": 9.0461576,
      "timestamp": "2021-05-30T11:48:07Z",
      "version": 2,
      "changeset": 105564582,
      "user": "pizzaiolo",
      "uid": 1772368,
      "tags": {
        "ele": "2496",
        "name": "A Maniccia",
        "natural": "peak",
        "source": "GPS",
        "wikidata": "Q15992393"
      }
    },
    {
      "type": "node",
      "id": 4498881995,
      "lat": 42.0621658,
      "lon": 8.8264659,
      "timestamp": "2016-11-13T18:15:45Z",
      "version": 1,
      "changeset": 43612138,
      "user": "gsimon",
      "uid": 1668080,
      "tags": {
        "name": "Bartolaccia",
        "place": "hamlet"
      }
    },
    {
      "type": "node",
      "id": 4498881996,
      "lat": 42.0613475,
      "lon": 8.8221531,
      "timestamp": "2017-02-24T09:40:43Z",
      "version": 2,
      "changeset": 46362305,
      "user": "Trinita",
      "uid": 5366271,
      "tags": {
        "name": "Place de la Cardolaccia",
        "place": "hamlet"
      }
    },
    {
      "type": "node",
      "id": 4498881997,
      "lat": 42.0621161,
      "lon": 8.8242424,
      "timestamp": "2016-11-13T18:15:45Z",
      "version": 1,
      "changeset": 43612138,
      "user": "gsimon",
      "uid": 1668080,
      "tags": {
        "name": "Acque in Giu",
        "place": "hamlet"
      }
    },
    {
      "type": "node",
      "id": 4577704881,
      "lat": 42.3755961,
      "lon": 8.7794941,
      "timestamp": "2017-09-10T06:55:06Z",
      "version": 2,
      "changeset": 51898783,
      "user": "nyuriks",
      "uid": 339581,
      "tags": {
        "name": "Manso",
        "name:uk": "Мансо",
        "place": "hamlet",
        "wikidata": "Q265969",
        "wikipedia": "fr:Manso"
      }
    },
    {
      "type": "node",
      "id": 4577945699,
      "lat": 42.5496744,
      "lon": 8.9190082,
      "timestamp": "2021-08-31T22:12:33Z",
      "version": 2,
      "changeset": 110534231,
      "user": "Kioska Journo",
      "uid": 402585,
      "tags": {
        "name": "Poggiali",
        "name:co": "Pughjali",
        "place": "hamlet"
      }
    },
    {
      "type": "node",
      "id": 4577945701,
      "lat": 42.5514076,
      "lon": 8.9145498,
      "timestamp": "2016-12-28T18:22:35Z",
      "version": 1,
      "changeset": 44737985,
      "user": "gsimon",
      "uid": 1668080,
      "tags": {
        "name": "Murato",
        "place": "hamlet"
      }
    },
    {
      "type": "node",
      "id": 4577945703,
      "lat": 42.5459792,
      "lon": 8.9147021,
      "timestamp": "2016-12-28T18:22:35Z",
      "version": 1,
      "changeset": 44737985,
      "user": "gsimon",
      "uid": 1668080,
      "tags": {
        "name": "Muro",
        "place": "village"
      }
    },
    {
      "type": "node",
      "id": 4579696692,
      "lat": 42.3125102,
      "lon": 8.8651037,
      "timestamp": "2021-03-06T10:36:32Z",
      "version": 3,
      "changeset": 100529653,
      "user": "Hervé TUC",
      "uid": 922338,
      "tags": {
        "description": "2020-03 : Coulait bien fin 06/2018, 04/2019, 02/2020 : eau glacée. Débit plus faible (~1L/min) en 10/2019.",
        "drinking_water": "yes",
        "ele": "1710",
        "name": "Source de Guagnarola",
        "natural": "spring",
        "website": "https://www.refuges.info/point/6324/point-d-eau/Corse/Source-de-Guagnarola/"
      }
    },
    {
      "type": "node",
      "id": 4579892834,
      "lat": 42.5303819,
      "lon": 8.9008724,
      "timestamp": "2020-01-19T15:19:00Z",
      "version": 2,
      "changeset": 79757448,
      "user": "J budissin",
      "uid": 15720,
      "tags": {
        "name": "Zilia",
        "place": "village"
      }
    },
    {
      "type": "node",
      "id": 4579892835,
      "lat": 42.5371928,
      "lon": 8.8888749,
      "timestamp": "2021-09-03T23:21:35Z",
      "version": 2,
      "changeset": 110698550,
      "user": "Kioska Journo",
      "uid": 402585,
      "tags": {
        "name": "Cassano",
        "name:co": "Cassani",
        "place": "village"
      }
    },
    {
      "type": "node",
      "id": 4579892836,
      "lat": 42.5414201,
      "lon": 8.8869651,
      "timestamp": "2021-09-03T23:21:35Z",
      "version": 2,
      "changeset": 110698550,
      "user": "Kioska Journo",
      "uid": 402585,
      "tags": {
        "name": "Lunghignano",
        "name:co": "Lunghignani",
        "place": "village"
      }
    },
    {
      "type": "node",
      "id": 4579892837,
      "lat": 42.5361039,
      "lon": 8.8733985,
      "timestamp": "2020-01-19T15:19:00Z",
      "version": 2,
      "changeset": 79757448,
      "user": "J budissin",
      "uid": 15720,
      "tags": {
        "name": "Montemaggiore",
        "name:co": "Montemaiò",
        "place": "village"
      }
    },
    {
      "type": "node",
      "id": 4579892841,
      "lat": 42.3621649,
      "lon": 8.8075268,
      "timestamp": "2016-12-29T17:36:11Z",
      "version": 1,
      "changeset": 44763746,
      "user": "gsimon",
      "uid": 1668080,
      "tags": {
        "name": "Monte-Estreino",
        "place": "hamlet"
      }
    },
    {
      "type": "node",
      "id": 4579892842,
      "lat": 42.5157553,
      "lon": 9.1183177,
      "timestamp": "2017-05-06T18:06:10Z",
      "version": 2,
      "changeset": 48458318,
      "user": "Pymouss",
      "uid": 66675,
      "tags": {
        "name": "Piana",
        "place": "hamlet"
      }
    },
    {
      "type": "node",
      "id": 4838890482,
      "lat": 42.5059437,
      "lon": 9.1111348,
      "timestamp": "2017-05-06T18:04:48Z",
      "version": 1,
      "changeset": 48458318,
      "user": "Pymouss",
      "uid": 66675,
      "tags": {
        "name": "Pietrera",
        "place": "hamlet"
      }
    },
    {
      "type": "node",
      "id": 4838890483,
      "lat": 42.5048092,
      "lon": 9.1133812,
      "timestamp": "2017-05-06T18:04:48Z",
      "version": 1,
      "changeset": 48458318,
      "user": "Pymouss",
      "uid": 66675,
      "tags": {
        "name": "Piazze",
        "place": "hamlet"
      }
    },
    {
      "type": "node",
      "id": 4839206051,
      "lat": 42.5287906,
      "lon": 9.0193558,
      "timestamp": "2019-11-25T17:02:52Z",
      "version": 3,
      "changeset": 77535826,
      "user": "StephaneP",
      "uid": 439947,
      "tags": {
        "addr:postcode": "20259",
        "name": "Olmi-Cappella",
        "place": "village",
        "reg_name": "Olmi è Cappella",
        "source": "cadastre-dgi-fr source : Direction Générale des Impôts - Cadastre. Mise à jour : 2013",
        "wikidata": "Q593770",
        "wikipedia": "fr:Olmi-Cappella"
      }
    },
    {
      "type": "node",
      "id": 4902460443,
      "lat": 42.2534202,
      "lon": 8.7983142,
      "timestamp": "2021-02-25T12:05:59Z",
      "version": 3,
      "changeset": 99975362,
      "user": "Hervé TUC",
      "uid": 922338,
      "tags": {
        "amenity": "drinking_water",
        "ele": "829",
        "man_made": "water_tap",
        "name": "Fontaine A Impicciata d'Evisa",
        "website": "https://www.refuges.info/point/4764/point-d-eau/Corse/fontaine-A-Impicciata-d-Evisa/"
      }
    },