{
  "osm3s": {
    "timestamp_osm_date": "2022-01-29T23:59:59Z",
    "timestamp_osm_base": "2022-01-30T05:13:55Z",
    "copyright": "The data included in this document is from www.openstreetmap.org. The data is made available under ODbL."
  },
  "elements": [
    {
      "type": "node",
      "id": 2312976413,
      "lat": 69.0168818,
      "lon": 21.7297542,
      "timestamp": "2018-06-26T06:31:32Z",
      "version": 3,
      "changeset": 60169663,
      "user": "JyriK",
      "uid": 22190,
      "tags": {
        "addr:city": "Enontekiö",
        "addr:country": "FI",
        "ele": "545",
        "name": "Raittijärvi",
        "place": "hamlet",
        "population": "<50",
        "source": "MML",
        "wikidata": "Q12266432",
        "wikipedia": "fi:Raittijärvi"
      }
    },
    {
      "type": "node",
      "id": 3581077481,
      "lat": 69.1463945,
      "lon": 21.5851306,
      "timestamp": "2019-03-25T22:43:27Z",
      "version": 4,
      "changeset": 68526016,
      "user": "b-jazz-bot",
      "uid": 9451067,
      "tags": {
        "addr:city": "Enontekiö",
        "capacity": "4",
        "ele": "590",
        "fee": "yes",
        "fixme": "Location",
        "name": "Porojärvi vuokratupa",
        "operator": "Metsähallitus",
        "phone": "0205 64 7950",
        "reservation": "required",
        "tourism": "wilderness_hut",
        "website": "https://www.luontoon.fi/porojarvivuokratupa"
      }
    },
    {
      "type": "node",
      "id": 5704398023,
      "lat": 69.0334378,
      "lon": 21.2254821,
      "timestamp": "2021-08-10T06:50:43Z",
      "version": 2,
      "changeset": 109442959,
      "user": "|Yucca|",
      "uid": 3391786,
      "tags": {
        "natural": "spring"
      }
    },
    {
      "type": "node",
      "id": 5715214682,
      "lat": 69.146505,
      "lon": 21.5862899,
      "timestamp": "2019-03-25T22:43:27Z",
      "version": 3,
      "changeset": 68526016,
      "user": "b-jazz-bot",
      "uid": 9451067,
      "tags": {
        "addr:city": "Enontekiö",
        "alt_name": "Kekkosen kämppä",
        "fee": "yes",
        "fixme": "Location",
        "historic": "building",
        "name": "UKK-kämppä",
        "operator": "Metsähallitus",
        "reservation": "required",
        "tourism": "wilderness_hut",
        "website": "https://www.luontoon.fi/porojarvivuokratupa"
      }
    },
    {
      "type": "node",
      "id": 5716728209,
      "lat": 69.1493528,
      "lon": 21.3874961,
      "timestamp": "2021-01-21T17:00:02Z",
      "version": 3,
      "changeset": 97918828,
      "user": "frspp",
      "uid": 76015,
      "tags": {
        "ele": "830",
        "name": "Saivaara",
        "natural": "peak",
        "wikidata": "Q11891949",
        "wikipedia": "fi:Saivaara"
      }
    },
    {
      "type": "node",
      "id": 5717088282,
      "lat": 69.1238674,
      "lon": 21.2385856,
      "timestamp": "2021-10-27T10:30:16Z",
      "version": 2,
      "changeset": 113030903,
      "user": "|Yucca|",
      "uid": 3391786,
      "tags": {
        "natural": "spring"
      }
    },
    {
      "type": "node",
      "id": 6853841189,
      "lat": 69.1018587,
      "lon": 21.2192928,
      "timestamp": "2019-10-05T16:31:11Z",
      "version": 1,
      "changeset": 75322982,
      "user": "JyriK",
      "uid": 22190,
      "tags": {
        "addr:city": "Enontekiö",
        "building": "cabin",
        "building:levels": "1",
        "capacity": "10",
        "charge": "12€/night/person",
        "ele": "850",
        "fee": "yes",
        "fireplace": "stove",
        "gas": "yes",
        "name": "Kuonjarjoki varaustupa",
        "name:en": "Kuonjarjoki wilderness hut",
        "name:sv": "Kuonjarjoki ödestuga",
        "operator": "Metsähallitus",
        "payment:credit_cards": "yes",
        "pets": "no",
        "reservation": "required",
        "tourism": "wilderness_hut",
        "website": "https://www.luontoon.fi/kuonjarjokivaraustupa"
      }
    },
    {
      "type": "node",
      "id": 7542300683,
      "lat": 69.0715892,
      "lon": 21.7695162,
      "timestamp": "2020-05-20T20:16:06Z",
      "version": 1,
      "changeset": 85516911,
      "user": "JyriK",
      "uid": 22190,
      "tags": {
        "natural": "spring"
      }
    },
    {
      "type": "node",
      "id": 7542300684,
      "lat": 69.0705755,
      "lon": 21.7676167,
      "timestamp": "2020-05-20T20:16:06Z",
      "version": 1,
      "changeset": 85516911,
      "user": "JyriK",
      "uid": 22190,
      "tags": {
        "natural": "spring"
      }
    },
    {
      "type": "node",
      "id": 7991987356,
      "lat": 68.9896701,
      "lon": 21.1793419,
      "timestamp": "2020-10-09T11:38:16Z",
      "version": 1,
      "changeset": 92234415,
      "user": "|Yucca|",
      "uid": 3391786,
      "tags": {
        "natural": "spring"
      }
    },
    {
      "type": "node",
      "id": 7992015247,
      "lat": 68.979132,
      "lon": 21.2160562,
      "timestamp": "2020-10-09T11:46:57Z",
      "version": 1,
      "changeset": 92234922,
      "user": "|Yucca|",
      "uid": 3391786,
      "tags": {
        "natural": "spring"
      }
    },
    {
      "type": "node",
      "id": 7999864486,
      "lat": 68.9595125,
      "lon": 21.1262761,
      "timestamp": "2020-10-12T11:18:40Z",
      "version": 1,
      "changeset": 92349929,
      "user": "|Yucca|",
      "uid": 3391786,
      "tags": {
        "natural": "spring"
      }
    },
    {
      "type": "node",
      "id": 8000198402,
      "lat": 68.9256348,
      "lon": 21.1743613,
      "timestamp": "2020-10-12T13:04:28Z",
      "version": 1,
      "changeset": 92357157,
      "user": "|Yucca|",
      "uid": 3391786,
      "tags": {
        "natural": "spring"
      }
    },
    {
      "type": "node",
      "id": 8005633383,
      "lat": 69.017753,
      "lon": 21.1660727,
      "timestamp": "2020-10-14T06:38:05Z",
      "version": 1,
      "changeset": 92452610,
      "user": "|Yucca|",
      "uid": 3391786,
      "tags": {
        "natural": "spring"
      }
    },
    {
      "type": "node",
      "id": 8077491992,
      "lat": 69.1372292,
      "lon": 21.3408496,
      "timestamp": "2021-11-03T08:41:23Z",
      "version": 2,
      "changeset": 113320626,
      "user": "|Yucca|",
      "uid": 3391786,
      "tags": {
        "natural": "spring"
      }
    },
    {
      "type": "node",
      "id": 8087265322,
      "lat": 69.1466893,
      "lon": 21.345975,
      "timestamp": "2020-11-06T07:43:57Z",
      "version": 1,
      "changeset": 93646782,
      "user": "|Yucca|",
      "uid": 3391786,
      "tags": {
        "natural": "spring"
      }
    },
    {
      "type": "node",
      "id": 8087265425,
      "lat": 69.1462163,
      "lon": 21.3451639,
      "timestamp": "2020-11-06T07:43:57Z",
      "version": 1,
      "changeset": 93646782,
      "user": "|Yucca|",
      "uid": 3391786,
      "tags": {
        "natural": "spring"
      }
    },
    {
      "type": "node",
      "id": 8087265426,
      "lat": 69.1471902,
      "lon": 21.3484798,
      "timestamp": "2020-11-06T07:43:57Z",
      "version": 1,
      "changeset": 93646782,
      "user": "|Yucca|",
      "uid": 3391786,
      "tags": {
        "natural": "spring"
      }
    },
    {
      "type": "node",
      "id": 8087265589,
      "lat": 69.153673,
      "lon": 21.3306402,
      "timestamp": "2020-11-06T07:43:57Z",
      "version": 1,
      "changeset": 93646782,
      "user": "|Yucca|",
      "uid": 3391786,
      "tags": {
        "natural": "spring"
      }
    },
    {
      "type": "node",
      "id": 8087265692,
      "lat": 69.1603489,
      "lon": 21.2821597,
      "timestamp": "2020-11-06T07:43:57Z",
      "version": 1,
      "changeset": 93646782,
      "user": "|Yucca|",
      "uid": 3391786,
      "tags": {
        "natural": "spring"
      }
    },
    {
      "type": "node",
      "id": 9009358958,
      "lat": 69.0107842,
      "lon": 21.3807208,
      "timestamp": "2021-08-16T06:37:12Z",
      "version": 1,
      "changeset": 109729047,
      "user": "|Yucca|",
      "uid": 3391786,
      "tags": {
        "natural": "spring"
      }
    },
    {
      "type": "node",
      "id": 9019943833,
      "lat": 69.0034858,
      "lon": 21.5999327,
      "timestamp": "2021-08-19T12:07:02Z",
      "version": 1,
      "changeset": 109930899,
      "user": "|Yucca|",
      "uid": 3391786,
      "tags": {
        "natural": "spring"
      }
    },
    {
      "type": "node",
      "id": 9029775517,
      "lat": 69.1419719,
      "lon": 21.393101,
      "timestamp": "2021-08-23T20:25:56Z",
      "version": 1,
      "changeset": 110136429,
      "user": "|Yucca|",
      "uid": 3391786,
      "tags": {
        "natural": "spring"
      }
    },
    {
      "type": "node",
      "id": 9204398182,
      "lat": 69.0850803,
      "lon": 21.3288945,
      "timestamp": "2021-10-27T09:25:55Z",
      "version": 1,
      "changeset": 113027786,
      "user": "|Yucca|",
      "uid": 3391786,
      "tags": {
        "natural": "spring"
      }
    },
    {
      "type": "node",
      "id": 9204398200,
      "lat": 69.0846688,
      "lon": 21.3254738,
      "timestamp": "2021-10-27T09:25:55Z",
      "version": 1,
      "changeset": 113027786,
      "user": "|Yucca|",
      "uid": 3391786,
      "tags": {
        "natural": "spring"
      }
    },
    {
      "type": "node",
      "id": 9204400600,
      "lat": 69.0801365,
      "lon": 21.3025751,
      "timestamp": "2021-10-27T09:25:55Z",
      "version": 1,
      "changeset": 113027786,
      "user": "|Yucca|",
      "uid": 3391786,
      "tags": {
        "natural": "spring"
      }
    },
    {
      "type": "node",
      "id": 9204528726,
      "lat": 69.1191059,
      "lon": 21.2776253,
      "timestamp": "2021-10-27T10:30:16Z",
      "version": 1,
      "changeset": 113030903,
      "user": "|Yucca|",
      "uid": 3391786,
      "tags": {
        "natural": "spring"
      }
    },
    {
      "type": "node",
      "id": 9204528768,
      "lat": 69.1247818,
      "lon": 21.2402613,
      "timestamp": "2021-10-27T10:30:16Z",
      "version": 1,
      "changeset": 113030903,
      "user": "|Yucca|",
      "uid": 3391786,
      "tags": {
        "natural": "spring"
      }
    },
    {
      "type": "node",
      "id": 9206938819,
      "lat": 69.1071544,
      "lon": 21.2449594,
      "timestamp": "2021-10-28T06:43:11Z",
      "version": 1,
      "changeset": 113066890,
      "user": "|Yucca|",
      "uid": 3391786,
      "tags": {
        "natural": "spring"
      }
    },
    {
      "type": "node",
      "id": 9206938840,
      "lat": 69.1071733,
      "lon": 21.2451769,
      "timestamp": "2021-10-28T06:43:11Z",
      "version": 1,
      "changeset": 113066890,
      "user": "|Yucca|",
      "uid": 3391786,
      "tags": {
        "natural": "spring"
      }
    },
    {
      "type": "node",
      "id": 9206938846,
      "lat": 69.1062939,
      "lon": 21.2400554,
      "timestamp": "2021-10-28T06:43:11Z",
      "version": 1,
      "changeset": 113066890,
      "user": "|Yucca|",
      "uid": 3391786,
      "tags": {
        "natural": "spring"
      }
    },
    {
      "type": "node",
      "id": 9206938884,
      "lat": 69.1061691,
      "lon": 21.2393729,
      "timestamp": "2021-10-28T06:43:11Z",
      "version": 1,
      "changeset": 113066890,
      "user": "|Yucca|",
      "uid": 3391786,
      "tags": {
        "natural": "spring"
      }
    },
    {
      "type": "node",
      "id": 9206938909,
      "lat": 69.1068993,
      "lon": 21.24183,
      "timestamp": "2021-10-28T06:43:11Z",
      "version": 1,
      "changeset": 113066890,
      "user": "|Yucca|",
      "uid": 3391786,
      "tags": {
        "natural": "spring"
      }
    },
    {
      "type": "node",
      "id": 9206938951,
      "lat": 69.1069145,
      "lon": 21.2425722,
      "timestamp": "2021-10-28T06:43:11Z",
      "version": 1,
      "changeset": 113066890,
      "user": "|Yucca|",
      "uid": 3391786,
      "tags": {
        "natural": "spring"
      }
    },
    {
      "type": "node",
      "id": 9215999791,
      "lat": 69.1225375,
      "lon": 21.2400808,
      "timestamp": "2021-11-01T10:51:02Z",
      "version": 1,
      "changeset": 113229581,
      "user": "|Yucca|",
      "uid": 3391786,
      "tags": {
        "natural": "spring"
      }
    },
    {
      "type": "node",
      "id": 9220775692,
      "lat": 69.1341828,
      "lon": 21.2566011,
      "timestamp": "2021-11-03T08:41:23Z",
      "version": 1,
      "changeset": 113320626,
      "user": "|Yucca|",
      "uid": 3391786,
      "tags": {
        "natural": "spring"
      }
    },
    {
      "type": "node",
      "id": 9220776069,
      "lat": 69.1206735,
      "lon": 21.2972752,
      "timestamp": "2021-11-03T08:41:23Z",
      "version": 1,
      "changeset": 113320626,
      "user": "|Yucca|",
      "uid": 3391786,
      "tags": {
        "natural": "spring"
      }
    },
    {
      "type": "node",
      "id": 9220776104,
      "lat": 69.1206306,
      "lon": 21.2966121,
      "timestamp": "2021-11-03T08:41:23Z",
      "version": 1,
      "changeset": 113320626,
      "user": "|Yucca|",
      "uid": 3391786,
      "tags": {
        "natural": "spring"
      }
    },
    {
      "type": "node",
      "id": 9220776198,
      "lat": 69.1296377,
      "lon": 21.321228,
      "timestamp": "2021-11-03T08:41:23Z",
      "version": 1,
      "changeset": 113320626,
      "user": "|Yucca|",
      "uid": 3391786,
      "tags": {
        "natural": "spring"
      }
    },
    {
      "type": "node",
      "id": 9220776680,
      "lat": 69.1369839,
      "lon": 21.3418138,
      "timestamp": "2021-11-03T08:41:23Z",
      "version": 1,
      "changeset": 113320626,
      "user": "|Yucca|",
      "uid": 3391786,
      "tags": {
        "natural": "spring"
      }
    },
    {
      "type": "node",
      "id": 9220776695,
      "lat": 69.1369389,
      "lon": 21.3422929,
      "timestamp": "2021-11-03T08:41:23Z",
      "version": 1,
      "changeset": 113320626,
      "user": "|Yucca|",
      "uid": 3391786,
      "tags": {
        "natural": "spring"
      }
    },
    {
      "type": "node",
      "id": 9220776719,
      "lat": 69.1370171,
      "lon": 21.3433309,
      "timestamp": "2021-11-03T08:41:23Z",
      "version": 1,
      "changeset": 113320626,
      "user": "|Yucca|",
      "uid": 3391786,
      "tags": {
        "natural": "spring"
      }
    },
    {
      "type": "node",
      "id": 9220811164,
      "lat": 69.1341647,
      "lon": 21.3514736,
      "timestamp": "2021-11-03T08:59:03Z",
      "version": 1,
      "changeset": 113321331,
      "user": "|Yucca|",
      "uid": 3391786,
      "tags": {
        "natural": "spring"
      }
    },
    {
      "type": "node",
      "id": 9220811786,
      "lat": 69.1460898,
      "lon": 21.3454653,
      "timestamp": "2021-11-03T08:59:03Z",
      "version": 1,
      "changeset": 113321331,
      "user": "|Yucca|",
      "uid": 3391786,
      "tags": {
        "natural": "spring"
      }
    },
    {
      "type": "node",
      "id": 9220812015,
      "lat": 69.1262052,
      "lon": 21.3244845,
      "timestamp": "2021-11-03T08:59:03Z",
      "version": 1,
      "changeset": 113321331,
      "user": "|Yucca|",
      "uid": 3391786,
      "tags": {
        "natural": "spring"
      }
    },
    {
      "type": "node",
      "id": 9240314269,
      "lat": 69.0812324,
      "lon": 21.6472019,
      "timestamp": "2021-11-10T11:13:09Z",
      "version": 1,
      "changeset": 113603598,
      "user": "|Yucca|",
      "uid": 3391786,
      "tags": {
        "natural": "spring"
      }
    },
    {
      "type": "node",
      "id": 9263770150,
      "lat": 69.1473341,
      "lon": 21.735979,
      "timestamp": "2021-11-18T12:21:37Z",
      "version": 1,
      "changeset": 113942481,
      "user": "|Yucca|",
      "uid": 3391786,
      "tags": {
        "natural": "spring"
      }
    },
    {
      "type": "node",
      "id": 9263770164,
      "lat": 69.1477799,
      "lon": 21.7348999,
      "timestamp": "2021-11-18T12:21:37Z",
      "version": 1,
      "changeset": 113942481,
      "user": "|Yucca|",
      "uid": 3391786,
      "tags": {
        "natural": "spring"
      }
    },
    {
      "type": "node",
      "id": 9323592724,
      "lat": 69.1606282,
      "lon": 21.2523935,
      "timestamp": "2021-12-09T10:58:39Z",
      "version": 1,
      "changeset": 114738043,
      "user": "|Yucca|",
      "uid": 3391786,
      "tags": {
        "natural": "spring"
      }
    },
    {
      "type": "way",
      "id": 355321728,
      "timestamp": "2019-10-05T15:44:32Z",
      "version": 7,
      "changeset": 75321889,
      "user": "JyriK",
      "uid": 22190,
      "center": {
        "lat": 69.1018774,
        "lon": 21.2191412
      },
      "nodes": [],
      "tags": {
        "addr:city": "Enontekiö",
        "building": "cabin",
        "building:levels": "1",
        "capacity": "10",
        "ele": "850",
        "fee": "no",
        "fireplace": "stove",
        "gas": "yes",
        "name": "Kuonjarjoki autiotupa",
        "name:en": "Kuonjarjoki wilderness hut",
        "name:sv": "Kuonjarjoki ödestuga",
        "operator": "Metsähallitus",
        "pets": "no",
        "reservation": "no",
        "tourism": "wilderness_hut",
        "website": "https://www.luontoon.fi/kuonjarjokivaraustupa"
      }
    },
    {
      "type": "way",
      "id": 355321731,
      "timestamp": "2019-03-25T22:43:37Z",
      "version": 3,
      "changeset": 68526020,
      "user": "b-jazz-bot",
      "uid": 9451067,
      "center": {
        "lat": 69.1561623,
        "lon": 21.7579463
      },
      "nodes": [],
      "tags": {
        "addr:city": "Enontekiö",
        "building": "cabin",
        "building:levels": "1",
        "capacity": "4",
        "ele": "640",
        "fee": "no",
        "fireplace": "stove",
        "fixme": "Fix elevation",
        "name": "Taapmajärvi autiotupa",
        "operator": "Metsähallitus",
        "pets": "allowed",
        "phone": "0205 64 7950",
        "reservation": "no",
        "tourism": "wilderness_hut",
        "website": "https://www.luontoon.fi/taapmajarviautiotupa"
      }
    },
    {
      "type": "way",
      "id": 355321732,
      "timestamp": "2019-03-18T01:16:15Z",
      "version": 5,
      "changeset": 68243653,
      "user": "b-jazz-bot",
      "uid": 9451067,
      "center": {
        "lat": 69.0270283,
        "lon": 21.2282097
      },
      "nodes": [],
      "tags": {
        "addr:city": "Enontekiö",
        "building": "cabin",
        "building:levels": "1",
        "capacity": "8",
        "fee": "no",
        "fireplace": "stove",
        "name": "Termisjärvi autiotupa",
        "operator": "Metsähallitus",
        "pets": "allowed",
        "phone": "0205 64 7950",
        "reservation": "no",
        "snowmobile": "yes",
        "tourism": "wilderness_hut",
        "website": "https://www.luontoon.fi/termisjarviautiotupa"
      }
    },
    {
      "type": "way",
      "id": 599760544,
      "timestamp": "2019-10-05T17:02:26Z",
      "version": 5,
      "changeset": 75323631,
      "user": "JyriK",
      "uid": 22190,
      "center": {
        "lat": 69.1614427,
        "lon": 21.3427892
      },
      "nodes": [],
      "tags": {
        "access": "no",
        "addr:city": "Enontekiö",
        "building": "cabin",
        "building:levels": "1",
        "designation": "Varaustupa",
        "fee": "yes",
        "height": "4",
        "internet_access": "no",
        "name": "Meekonjärvi vuokratupa",
        "operator": "Metsähallitus",
        "reservation": "required",
        "source": "GPS",
        "tourism": "alpine_hut",
        "website": "https://www.luontoon.fi/meekonjarvivuokratupa"
      }
    },
    {
      "type": "way",
      "id": 599760548,
      "timestamp": "2019-10-05T17:02:26Z",
      "version": 4,
      "changeset": 75323631,
      "user": "JyriK",
      "uid": 22190,
      "center": {
        "lat": 69.1620148,
        "lon": 21.3424876
      },
      "nodes": [],
      "tags": {
        "addr:city": "Enontekiö",
        "building": "cabin",
        "building:levels": "1",
        "capacity": "8",
        "description": "Reservation: Kilpisjärvi Nature Center , tel. +46 206 39 7990 or Fell Lapplands Naturcenter , Peuratie 15, Enontekiö, tfn +358 206 39 7950.",
        "description:2019": "Closed for renovations 6-17 may 2019.",
        "fee": "yes",
        "fireplace": "stove",
        "gas": "yes",
        "height": "4",
        "name": "Meekonjärvi varaustupa",
        "operator": "Metsähallitus",
        "reservation": "required",
        "tourism": "wilderness_hut",
        "website": "https://www.luontoon.fi/meekonjarvivaraustupa"
      }
    },
    {
      "type": "way",
      "id": 599760551,
      "timestamp": "2019-10-05T16:55:05Z",
      "version": 3,
      "changeset": 75323479,
      "user": "JyriK",
      "uid": 22190,
      "center": {
        "lat": 69.159935,
        "lon": 21.3502217
      },
      "nodes": [],
      "tags": {
        "addr:city": "Enontekiö",
        "building": "cabin",
        "building:levels": "1",
        "capacity": "6",
        "fee": "no",
        "fireplace": "stove",
        "gas": "yes",
        "name": "Meekonjärvi autiotupa",
        "operator": "Metsähallitus",
        "pets": "allowed",
        "phone": "0205 64 7950",
        "reservation": "no",
        "tourism": "wilderness_hut",
        "website": "https://www.luontoon.fi/meekonjarviautiotupa"
      }
    },
    {
      "type": "way",
      "id": 599924332,
      "timestamp": "2019-03-25T22:43:33Z",
      "version": 2,
      "changeset": 68526020,
      "user": "b-jazz-bot",
      "uid": 9451067,
      "center": {
        "lat": 69.1549786,
        "lon": 21.4820443
      },
      "nodes": [],
      "tags": {
        "addr:city": "Enontekiö",
        "building": "cabin",
        "building:levels": "1",
        "capacity": "4",
        "ele": "590",
        "fireplace": "yes",
        "historic": "building",
        "name": "Jogasjärvi autiotupa",
        "operator": "Metsähallitus",
        "pets": "allowed",
        "phone": "0205 64 7950",
        "reservation": "no",
        "tourism": "wilderness_hut",
        "website": "https://www.luontoon.fi/jogasjarviautiotupa"
      }
    },
    {
      "type": "way",
      "id": 599924334,
      "timestamp": "2018-06-20T17:44:20Z",
      "version": 1,
      "changeset": 60017851,
      "user": "JyriK",
      "uid": 22190,
      "center": {
        "lat": 69.1546113,
        "lon": 21.4826714
      },
      "nodes": [],
      "tags": {
        "addr:city": "Enontekiö",
        "building": "cabin",
        "building:levels": "1",
        "capacity": "4",
        "fee": "yes",
        "fireplace": "stove",
        "gas": "yes",
        "name": "Jogasjärvi varaustupa",
        "operator": "Metsähallitus",
        "reservation": "required",
        "tourism": "wilderness_hut",
        "url": "http://www.luontoon.fi/jogasjarvivuokratupa"
      }
    },
    {
      "type": "way",
      "id": 601304930,
      "timestamp": "2019-03-25T22:43:24Z",
      "version": 2,
      "changeset": 68526016,
      "user": "b-jazz-bot",
      "uid": 9451067,
      "center": {
        "lat": 69.1489384,
        "lon": 21.5618125
      },
      "nodes": [],
      "tags": {
        "addr:city": "Enontekiö",
        "building": "cabin",
        "building:levels": "1",
        "capacity": "6",
        "fireplace": "stove",
        "name": "Porojärvi autiotupa",
        "operator": "Metsähallitus",
        "pets": "allowed",
        "phone": "0205 64 7950",
        "reservation": "no",
        "tourism": "wilderness_hut",
        "website": "https://www.luontoon.fi/porojarviautiotupa"
      }
    },
    {
      "type": "way",
      "id": 604028343,
      "timestamp": "2019-03-25T22:43:19Z",
      "version": 3,
      "changeset": 68526014,
      "user": "b-jazz-bot",
      "uid": 9451067,
      "center": {
        "lat": 68.9648114,
        "lon": 21.0983614
      },
      "nodes": [],
      "tags": {
        "addr:city": "Enontekiö",
        "building": "cabin",
        "building:levels": "1",
        "capacity": "6",
        "fireplace": "stove",
        "name": "Ailakkajärvi autiotupa",
        "operator": "Metsähallitus",
        "pets": "allowed",
        "reservation": "no",
        "tourism": "wilderness_hut",
        "website": "https://www.luontoon.fi/ailakkajarviautiotupa"
      }
    }
  ]
}