{
  "osm3s": {
    "timestamp_osm_date": "2022-01-21T23:59:59Z",
    "timestamp_osm_base": "2022-01-22T04:43:01Z",
    "copyright": "The data included in this document is from www.openstreetmap.org. The data is made available under ODbL."
  },
  "elements": [
    {
      "type": "node",
      "id": 26859690,
      "lat": 43.892778,
      "lon": 12.243056,
      "timestamp": "2007-03-28T17:22:27Z",
      "version": 1,
      "changeset": 247310,
      "user": "Sven S_",
      "uid": 2566,
      "tags": {
        "created_by": "JOSM",
        "name": "Perticara",
        "tourism": "camp_site"
      }
    },
    {
      "type": "node",
      "id": 26862887,
      "lat": 43.6586166,
      "lon": 12.1646991,
      "timestamp": "2017-10-23T03:51:20Z",
      "version": 7,
      "changeset": 53166483,
      "user": "adivik2000",
      "uid": 250196,
      "tags": {
        "ele": "1453",
        "name": "Monte dei Frati",
        "natural": "peak",
        "wikidata": "Q6904966"
      }
    },
    {
      "type": "node",
      "id": 61753385,
      "lat": 43.7092081,
      "lon": 12.1848762,
      "timestamp": "2016-09-12T00:26:10Z",
      "version": 4,
      "changeset": 42089695,
      "user": "fayor",
      "uid": 743479,
      "tags": {
        "gfoss_id": "4586",
        "is_in": "Arezzo, Toscana, Italy",
        "name": "Badia Tedalda",
        "place": "village",
        "population": "1215",
        "source": "geodati.gfoss.it"
      }
    },
    {
      "type": "node",
      "id": 61753389,
      "lat": 43.639852,
      "lon": 11.98484,
      "timestamp": "2007-10-09T13:50:52Z",
      "version": 1,
      "changeset": 70041,
      "user": "Niccolo",
      "uid": 864,
      "tags": {
        "created_by": "JOSM",
        "gfoss_id": "4590",
        "is_in": "Arezzo, Toscana, Italy",
        "name": "Caprese Michelangelo",
        "place": "village",
        "population": "1626",
        "source": "geodati.gfoss.it"
      }
    },
    {
      "type": "node",
      "id": 61753417,
      "lat": 43.6693568,
      "lon": 12.041589,
      "timestamp": "2015-05-16T16:54:54Z",
      "version": 3,
      "changeset": 31206576,
      "user": "Griphon",
      "uid": 461682,
      "tags": {
        "gfoss_id": "4613",
        "is_in": "Arezzo, Toscana, Italy",
        "name": "Pieve Santo Stefano",
        "place": "village",
        "population": "3316",
        "source": "geodati.gfoss.it"
      }
    },
    {
      "type": "node",
      "id": 61753421,
      "lat": 43.7083496,
      "lon": 12.2965336,
      "timestamp": "2013-11-01T14:57:40Z",
      "version": 2,
      "changeset": 18652879,
      "user": "Pab09",
      "uid": 178610,
      "tags": {
        "gfoss_id": "4618",
        "is_in": "Arezzo, Toscana, Italy",
        "name": "Sestino",
        "place": "village",
        "population": "1454",
        "source": "geodati.gfoss.it"
      }
    },
    {
      "type": "node",
      "id": 69300020,
      "lat": 44.0593886,
      "lon": 12.5684371,
      "timestamp": "2021-04-08T21:36:42Z",
      "version": 24,
      "changeset": 102591069,
      "user": "EnumMapper",
      "uid": 2188716,
      "tags": {
        "capital": "6",
        "gfoss_id": "7934",
        "name": "Rimini",
        "name:be": "Рыміні",
        "name:ca": "Rímini",
        "name:el": "Ρίμινι",
        "name:en": "Rimini",
        "name:it": "Rimini",
        "name:lt": "Riminis",
        "name:rgn": "Rèmin",
        "name:ru": "Римини",
        "name:sr": "Римини",
        "name:zh": "里米尼",
        "name:zh-Hant": "里米尼",
        "old_name:lat": "Ariminum",
        "place": "city",
        "population": "147750",
        "source": "geodati.gfoss.it",
        "wikidata": "Q13369"
      }
    },
    {
      "type": "node",
      "id": 69300339,
      "lat": 44.0422403,
      "lon": 12.3182595,
      "timestamp": "2016-09-16T15:55:11Z",
      "version": 3,
      "changeset": 42205884,
      "user": "fayor",
      "uid": 743479,
      "tags": {
        "gfoss_id": "4153",
        "name": "Roncofreddo",
        "place": "village",
        "population": "2819",
        "source": "geodati.gfoss.it"
      }
    },
    {
      "type": "node",
      "id": 69300360,
      "lat": 44.0315914,
      "lon": 12.3543893,
      "timestamp": "2017-03-28T22:35:52Z",
      "version": 3,
      "changeset": 47244409,
      "user": "Claudio Giannini",
      "uid": 4970775,
      "tags": {
        "gfoss_id": "4133",
        "name": "Borghi",
        "place": "village",
        "population": "2034",
        "source": "geodati.gfoss.it"
      }
    },
    {
      "type": "node",
      "id": 69300376,
      "lat": 43.792956,
      "lon": 12.003938,
      "timestamp": "2016-09-16T15:55:12Z",
      "version": 2,
      "changeset": 42205884,
      "user": "fayor",
      "uid": 743479,
      "tags": {
        "gfoss_id": "4160",
        "name": "Verghereto",
        "place": "village",
        "population": "2027",
        "source": "geodati.gfoss.it"
      }
    },
    {
      "type": "node",
      "id": 69300382,
      "lat": 44.004663,
      "lon": 12.300541,
      "timestamp": "2016-09-16T15:55:12Z",
      "version": 2,
      "changeset": 42205884,
      "user": "fayor",
      "uid": 743479,
      "tags": {
        "gfoss_id": "4158",
        "name": "Sogliano al Rubicone",
        "place": "village",
        "population": "2890",
        "source": "geodati.gfoss.it"
      }
    },
    {
      "type": "node",
      "id": 69300389,
      "lat": 43.9187582,
      "lon": 12.1432584,
      "timestamp": "2016-09-16T15:55:12Z",
      "version": 4,
      "changeset": 42205884,
      "user": "fayor",
      "uid": 743479,
      "tags": {
        "gfoss_id": "4156",
        "name": "Sarsina",
        "place": "village",
        "population": "3446",
        "source": "geodati.gfoss.it"
      }
    },
    {
      "type": "node",
      "id": 69300400,
      "lat": 44.082965,
      "lon": 12.30444,
      "timestamp": "2016-09-16T15:55:09Z",
      "version": 2,
      "changeset": 42205884,
      "user": "fayor",
      "uid": 743479,
      "tags": {
        "gfoss_id": "4148",
        "name": "Montiano",
        "place": "village",
        "population": "1591",
        "source": "geodati.gfoss.it"
      }
    },
    {
      "type": "node",
      "id": 69300410,
      "lat": 44.0743778,
      "lon": 12.3274733,
      "timestamp": "2021-04-02T12:49:25Z",
      "version": 3,
      "changeset": 102194793,
      "user": "RosTnT",
      "uid": 585860,
      "tags": {
        "gfoss_id": "4144",
        "name": "Longiano",
        "place": "village",
        "population": "7126",
        "source": "geodati.gfoss.it"
      }
    },
    {
      "type": "node",
      "id": 69301710,
      "lat": 43.9858,
      "lon": 12.385382,
      "timestamp": "2017-03-10T16:28:27Z",
      "version": 5,
      "changeset": 46743011,
      "user": "sbiribizio",
      "uid": 354284,
      "tags": {
        "gfoss_id": "7939",
        "name": "Torriana",
        "place": "village",
        "population": "499",
        "source": "geodati.gfoss.it",
        "wikidata": "Q111966",
        "wikipedia": "it:Torriana"
      }
    },
    {
      "type": "node",
      "id": 69301724,
      "lat": 43.998274,
      "lon": 12.6474368,
      "timestamp": "2016-10-27T18:56:23Z",
      "version": 6,
      "changeset": 43225829,
      "user": "karitotp",
      "uid": 2748195,
      "tags": {
        "gfoss_id": "7933",
        "name": "Riccione",
        "place": "town",
        "population": "34965",
        "source": "geodati.gfoss.it",
        "wikidata": "Q111888"
      }
    },
    {
      "type": "node",
      "id": 69301732,
      "lat": 43.913748,
      "lon": 12.6460672,
      "timestamp": "2017-12-01T21:15:17Z",
      "version": 6,
      "changeset": 54250049,
      "user": "GFS",
      "uid": 362065,
      "tags": {
        "gfoss_id": "7931",
        "name": "Morciano di Romagna",
        "place": "village",
        "population": "7045",
        "source": "geodati.gfoss.it"
      }
    },
    {
      "type": "node",
      "id": 69301742,
      "lat": 43.9204993,
      "lon": 12.5520847,
      "timestamp": "2017-03-10T16:28:27Z",
      "version": 8,
      "changeset": 46743011,
      "user": "sbiribizio",
      "uid": 354284,
      "tags": {
        "gfoss_id": "7927",
        "name": "Monte Colombo",
        "place": "village",
        "population": "114",
        "source": "geodati.gfoss.it",
        "wikidata": "Q111829",
        "wikipedia": "it:Monte Colombo"
      }
    },
    {
      "type": "node",
      "id": 69301746,
      "lat": 43.9041617,
      "lon": 12.5830579,
      "timestamp": "2016-09-16T15:55:08Z",
      "version": 4,
      "changeset": 42205884,
      "user": "fayor",
      "uid": 743479,
      "tags": {
        "gfoss_id": "7924",
        "name": "Gemmano",
        "place": "village",
        "population": "1053",
        "source": "geodati.gfoss.it"
      }
    },
    {
      "type": "node",
      "id": 69301768,
      "lat": 43.965186,
      "lon": 12.602374,
      "timestamp": "2019-11-09T15:34:38Z",
      "version": 6,
      "changeset": 76847149,
      "user": "Pab09",
      "uid": 178610,
      "tags": {
        "gfoss_id": "7923",
        "name": "Coriano",
        "place": "village",
        "population": "10502",
        "source": "geodati.gfoss.it"
      }
    },
    {
      "type": "node",
      "id": 69301775,
      "lat": 44.0633818,
      "lon": 12.4467025,
      "timestamp": "2016-10-27T18:56:48Z",
      "version": 7,
      "changeset": 43225848,
      "user": "karitotp",
      "uid": 2748195,
      "tags": {
        "gfoss_id": "7938",
        "name": "Santarcangelo di Romagna",
        "place": "town",
        "population": "22089",
        "source": "geodati.gfoss.it",
        "wikidata": "Q111954"
      }
    },
    {
      "type": "node",
      "id": 69301805,
      "lat": 43.983611,
      "lon": 12.4211632,
      "timestamp": "2019-04-22T04:32:07Z",
      "version": 7,
      "changeset": 69439779,
      "user": "dgitto",
      "uid": 554973,
      "tags": {
        "gfoss_id": "7940",
        "name": "Verucchio",
        "place": "town",
        "population": "10078",
        "source": "geodati.gfoss.it"
      }
    },
    {
      "type": "node",
      "id": 69301820,
      "lat": 43.9322054,
      "lon": 12.6256931,
      "timestamp": "2016-09-16T15:55:11Z",
      "version": 5,
      "changeset": 42205884,
      "user": "fayor",
      "uid": 743479,
      "tags": {
        "gfoss_id": "7936",
        "name": "San Clemente",
        "place": "village",
        "population": "3096",
        "source": "geodati.gfoss.it"
      }
    },
    {
      "type": "node",
      "id": 69301833,
      "lat": 43.91928,
      "lon": 12.5432591,
      "timestamp": "2016-09-20T16:11:12Z",
      "version": 7,
      "changeset": 42302787,
      "user": "fayor",
      "uid": 743479,
      "tags": {
        "ele": "386",
        "gfoss_id": "7930",
        "name": "Montescudo",
        "place": "village",
        "population": "999"
      }
    },
    {
      "type": "node",
      "id": 69301843,
      "lat": 44.0272603,
      "lon": 12.4088012,
      "timestamp": "2017-03-10T16:28:27Z",
      "version": 5,
      "changeset": 46743011,
      "user": "sbiribizio",
      "uid": 354284,
      "tags": {
        "gfoss_id": "7932",
        "name": "Poggio Berni",
        "place": "village",
        "population": "186",
        "source": "geodati.gfoss.it",
        "wikidata": "Q111883",
        "wikipedia": "it:Poggio Berni"
      }
    },
    {
      "type": "node",
      "id": 69301853,
      "lat": 43.8902363,
      "lon": 12.6103147,
      "timestamp": "2016-09-16T15:55:09Z",
      "version": 4,
      "changeset": 42205884,
      "user": "fayor",
      "uid": 743479,
      "tags": {
        "gfoss_id": "7928",
        "name": "Montefiore Conca",
        "place": "village",
        "population": "1765",
        "source": "geodati.gfoss.it"
      }
    },
    {
      "type": "node",
      "id": 70978843,
      "lat": 43.7262608,
      "lon": 12.6363135,
      "timestamp": "2021-09-02T18:14:39Z",
      "version": 18,
      "changeset": 110634505,
      "user": "Rienux",
      "uid": 11911273,
      "tags": {
        "capital": "8",
        "gfoss_id": "4227",
        "name": "Urbino",
        "name:rgn": "Urbìn",
        "name:ru": "Урбино",
        "name:zh": "乌尔比诺",
        "old_name:lat": "Urvinum Mataurense",
        "place": "town",
        "population": "15019",
        "source": "geodati.gfoss.it",
        "wikidata": "Q2759",
        "wikipedia": "it:Urbino"
      }
    },
    {
      "type": "node",
      "id": 70981508,
      "lat": 43.867661,
      "lon": 12.471247,
      "timestamp": "2016-09-09T17:36:39Z",
      "version": 5,
      "changeset": 42039680,
      "user": "fayor",
      "uid": 743479,
      "tags": {
        "alt_name": "Montegrignano",
        "gfoss_id": "4195",
        "name": "Monte Grimano Terme",
        "place": "village",
        "population": "1155",
        "source": "geodati.gfoss.it"
      }
    },
    {
      "type": "node",
      "id": 70981520,
      "lat": 43.7814344,
      "lon": 12.3364462,
      "timestamp": "2019-05-23T20:09:58Z",
      "version": 4,
      "changeset": 70565080,
      "user": "OneTwoThreeFour",
      "uid": 9830089,
      "tags": {
        "gfoss_id": "4169",
        "name": "Carpegna",
        "place": "village",
        "population": "1605",
        "source": "geodati.gfoss.it"
      }
    },
    {
      "type": "node",
      "id": 70981530,
      "lat": 43.6570839,
      "lon": 12.2935875,
      "timestamp": "2016-09-09T17:36:29Z",
      "version": 5,
      "changeset": 42039680,
      "user": "fayor",
      "uid": 743479,
      "tags": {
        "gfoss_id": "4166",
        "name": "Borgo Pace",
        "place": "village",
        "population": "606",
        "source": "geodati.gfoss.it"
      }
    },
    {
      "type": "node",
      "id": 70981688,
      "lat": 43.87396,
      "lon": 12.311144,
      "timestamp": "2016-09-16T15:55:09Z",
      "version": 3,
      "changeset": 42205884,
      "user": "fayor",
      "uid": 743479,
      "tags": {
        "gfoss_id": "4184",
        "name": "Maiolo",
        "place": "village",
        "population": "809",
        "source": "geodati.gfoss.it"
      }
    },
    {
      "type": "node",
      "id": 70981755,
      "lat": 43.8170539,
      "lon": 12.265276,
      "timestamp": "2017-01-04T14:39:26Z",
      "version": 7,
      "changeset": 44900143,
      "user": "paracetamolo",
      "uid": 68540,
      "tags": {
        "gfoss_id": "4202",
        "name": "Pennabilli",
        "place": "village",
        "population": "3139",
        "source": "geodati.gfoss.it",
        "wikidata": "Q111878",
        "wikipedia": "it:Pennabilli"
      }
    },
    {
      "type": "node",
      "id": 70981798,
      "lat": 43.696458,
      "lon": 12.497851,
      "timestamp": "2016-09-09T17:36:43Z",
      "version": 3,
      "changeset": 42039680,
      "user": "fayor",
      "uid": 743479,
      "tags": {
        "gfoss_id": "4201",
        "name": "Peglio",
        "place": "village",
        "population": "727",
        "source": "geodati.gfoss.it"
      }
    },
    {
      "type": "node",
      "id": 70981824,
      "lat": 43.647355,
      "lon": 12.336648,
      "timestamp": "2016-09-09T17:36:37Z",
      "version": 3,
      "changeset": 42039680,
      "user": "fayor",
      "uid": 743479,
      "tags": {
        "gfoss_id": "4185",
        "name": "Mercatello sul Metauro",
        "place": "village",
        "population": "1448",
        "source": "geodati.gfoss.it"
      }
    },
    {
      "type": "node",
      "id": 70981837,
      "lat": 43.8033644,
      "lon": 12.4434146,
      "timestamp": "2016-09-09T17:36:36Z",
      "version": 4,
      "changeset": 42039680,
      "user": "fayor",
      "uid": 743479,
      "tags": {
        "gfoss_id": "4183",
        "name": "Macerata Feltria",
        "place": "village",
        "population": "2025",
        "source": "geodati.gfoss.it"
      }
    },
    {
      "type": "node",
      "id": 70981845,
      "lat": 43.84046,
      "lon": 12.414747,
      "timestamp": "2016-09-09T17:36:39Z",
      "version": 3,
      "changeset": 42039680,
      "user": "fayor",
      "uid": 743479,
      "tags": {
        "gfoss_id": "4191",
        "name": "Monte Cerignone",
        "place": "village",
        "population": "688",
        "source": "geodati.gfoss.it"
      }
    },
    {
      "type": "node",
      "id": 70981855,
      "lat": 43.811562,
      "lon": 12.631052,
      "timestamp": "2016-09-09T17:36:40Z",
      "version": 3,
      "changeset": 42039680,
      "user": "fayor",
      "uid": 743479,
      "tags": {
        "gfoss_id": "4190",
        "name": "Montecalvo in Foglia",
        "place": "village",
        "population": "2363",
        "source": "geodati.gfoss.it"
      }
    },
    {
      "type": "node",
      "id": 70981858,
      "lat": 43.764558,
      "lon": 12.376747,
      "timestamp": "2016-09-09T17:36:35Z",
      "version": 3,
      "changeset": 42039680,
      "user": "fayor",
      "uid": 743479,
      "tags": {
        "gfoss_id": "4177",
        "name": "Frontino",
        "place": "village",
        "population": "369",
        "source": "geodati.gfoss.it"
      }
    },
    {
      "type": "node",
      "id": 70981880,
      "lat": 43.7304752,
      "lon": 12.4414172,
      "timestamp": "2019-11-22T11:13:30Z",
      "version": 4,
      "changeset": 77420807,
      "user": "Pab09",
      "uid": 178610,
      "tags": {
        "gfoss_id": "4182",
        "name": "Lunano",
        "place": "village",
        "population": "1232",
        "source": "geodati.gfoss.it"
      }
    },
    {
      "type": "node",
      "id": 70981894,
      "lat": 43.6767577,
      "lon": 12.6453734,
      "timestamp": "2018-04-05T21:12:23Z",
      "version": 4,
      "changeset": 57847887,
      "user": "Qvalcvno",
      "uid": 7127944,
      "tags": {
        "gfoss_id": "4174",
        "name": "Fermignano",
        "place": "village",
        "population": "8596",
        "source": "geodati.gfoss.it"
      }
    },
    {
      "type": "node",
      "id": 70981956,
      "lat": 43.9049899,
      "lon": 12.2858982,
      "timestamp": "2016-09-16T15:55:12Z",
      "version": 4,
      "changeset": 42205884,
      "user": "fayor",
      "uid": 743479,
      "tags": {
        "gfoss_id": "4223",
        "name": "Talamello",
        "place": "village",
        "population": "1093",
        "source": "geodati.gfoss.it"
      }
    },
    {
      "type": "node",
      "id": 70981983,
      "lat": 43.821561,
      "lon": 12.57035,
      "timestamp": "2018-12-31T14:34:55Z",
      "version": 4,
      "changeset": 65914209,
      "user": "fayor",
      "uid": 743479,
      "tags": {
        "gfoss_id": "4163",
        "name": "Auditore",
        "place": "hamlet",
        "population": "182",
        "source": "geodati.gfoss.it",
        "wikidata": "Q190221",
        "wikipedia": "it:Auditore"
      }
    },
    {
      "type": "node",
      "id": 70981990,
      "lat": 43.896961,
      "lon": 12.343644,
      "timestamp": "2016-09-16T15:55:11Z",
      "version": 3,
      "changeset": 42205884,
      "user": "fayor",
      "uid": 743479,
      "tags": {
        "gfoss_id": "4213",
        "name": "San Leo",
        "place": "village",
        "population": "2720",
        "source": "geodati.gfoss.it"
      }
    },
    {
      "type": "node",
      "id": 70982032,
      "lat": 43.78156,
      "lon": 12.498749,
      "timestamp": "2018-12-31T14:34:55Z",
      "version": 4,
      "changeset": 65914209,
      "user": "fayor",
      "uid": 743479,
      "tags": {
        "gfoss_id": "4219",
        "name": "Sassocorvaro",
        "place": "village",
        "population": "954",
        "source": "geodati.gfoss.it",
        "wikidata": "Q207612",
        "wikipedia": "it:Sassocorvaro"
      }
    },
    {
      "type": "node",
      "id": 70982040,
      "lat": 43.8643024,
      "lon": 12.2079994,
      "timestamp": "2016-09-16T15:55:11Z",
      "version": 5,
      "changeset": 42205884,
      "user": "fayor",
      "uid": 743479,
      "tags": {
        "gfoss_id": "4215",
        "name": "Sant'Agata Feltria",
        "place": "village",
        "population": "2151",
        "source": "geodati.gfoss.it"
      }
    },
    {
      "type": "node",
      "id": 70982074,
      "lat": 43.5892717,
      "lon": 12.5094295,
      "timestamp": "2016-09-09T17:36:44Z",
      "version": 4,
      "changeset": 42039680,
      "user": "fayor",
      "uid": 743479,
      "tags": {
        "gfoss_id": "4209",
        "name": "Piobbico",
        "place": "village",
        "population": "2046",
        "source": "geodati.gfoss.it"
      }
    },
    {
      "type": "node",
      "id": 70982079,
      "lat": 43.724158,
      "lon": 12.411048,
      "timestamp": "2016-09-09T17:36:44Z",
      "version": 3,
      "changeset": 42039680,
      "user": "fayor",
      "uid": 743479,
      "tags": {
        "gfoss_id": "4207",
        "name": "Piandimeleto",
        "place": "village",
        "population": "1962",
        "source": "geodati.gfoss.it"
      }
    },
    {
      "type": "node",
      "id": 70982153,
      "lat": 43.870162,
      "lon": 12.491148,
      "timestamp": "2016-09-09T17:36:37Z",
      "version": 3,
      "changeset": 42039680,
      "user": "fayor",
      "uid": 743479,
      "tags": {
        "gfoss_id": "4186",
        "name": "Mercatino Conca",
        "place": "village",
        "population": "1029",
        "source": "geodati.gfoss.it"
      }
    },
    {
      "type": "node",
      "id": 70982167,
      "lat": 43.8438497,
      "lon": 12.5939243,
      "timestamp": "2019-11-27T19:46:09Z",
      "version": 4,
      "changeset": 77651133,
      "user": "Pab09",
      "uid": 178610,
      "tags": {
        "gfoss_id": "4224",
        "name": "Tavoleto",
        "place": "village",
        "population": "816",
        "source": "geodati.gfoss.it"
      }
    },
    {
      "type": "node",
      "id": 70982175,
      "lat": 43.668257,
      "lon": 12.5241126,
      "timestamp": "2019-11-09T15:28:47Z",
      "version": 4,
      "changeset": 76847008,
      "user": "Pab09",
      "uid": 178610,
      "tags": {
        "gfoss_id": "4226",
        "name": "Urbania",
        "place": "village",
        "population": "7099",
        "source": "geodati.gfoss.it"
      }
    },
    {
      "type": "node",
      "id": 70982202,
      "lat": 43.6631608,
      "lon": 12.4053612,
      "timestamp": "2016-09-09T17:36:47Z",
      "version": 7,
      "changeset": 42039680,
      "user": "fayor",
      "uid": 743479,
      "tags": {
        "gfoss_id": "4217",
        "name": "Sant'Angelo in Vado",
        "place": "village",
        "population": "3868",
        "source": "geodati.gfoss.it"
      }
    },
    {
      "type": "node",
      "id": 70982204,
      "lat": 43.8919617,
      "lon": 12.5101834,
      "timestamp": "2016-09-09T17:36:48Z",
      "version": 4,
      "changeset": 42039680,
      "user": "fayor",
      "uid": 743479,
      "tags": {
        "gfoss_id": "4220",
        "name": "Sassofeltrio",
        "place": "village",
        "population": "1229",
        "source": "geodati.gfoss.it"
      }
    },
    {
      "type": "node",
      "id": 166272769,
      "lat": 43.5951168,
      "lon": 12.235588,
      "timestamp": "2020-03-12T14:54:26Z",
      "version": 8,
      "changeset": 82118245,
      "user": "totera",
      "uid": 123412,
      "tags": {
        "ele": "1049",
        "mountain_pass": "yes",
        "name": "Bocca Trabaria",
        "name:es": "Bocca Trabaria",
        "name:it": "Bocca Trabaria",
        "natural": "saddle",
        "wikidata": "Q2908284",
        "wikipedia": "it:Bocca Trabaria"
      }
    },
    {
      "type": "node",
      "id": 244519724,
      "lat": 43.8759397,
      "lon": 12.0415058,
      "timestamp": "2016-09-16T15:55:12Z",
      "version": 2,
      "changeset": 42205884,
      "user": "fayor",
      "uid": 743479,
      "tags": {
        "name": "Selvapiana",
        "place": "hamlet",
        "population": "93"
      }
    },
    {
      "type": "node",
      "id": 250166945,
      "lat": 44.0451447,
      "lon": 12.2666609,
      "timestamp": "2015-12-07T22:14:00Z",
      "version": 3,
      "changeset": 35816943,
      "user": "Denisov21",
      "uid": 817066,
      "tags": {
        "ele": "362",
        "name": "Monteleone",
        "place": "hamlet"
      }
    },
    {
      "type": "node",
      "id": 250169934,
      "lat": 44.0298201,
      "lon": 12.2412183,
      "timestamp": "2016-02-22T23:06:25Z",
      "version": 3,
      "changeset": 37378874,
      "user": "Jinx71",
      "uid": 70012,
      "tags": {
        "name": "Montecodruzzo",
        "place": "hamlet"
      }
    },
    {
      "type": "node",
      "id": 250197094,
      "lat": 44.065787,
      "lon": 12.2954325,
      "timestamp": "2008-03-02T21:28:48Z",
      "version": 1,
      "changeset": 256324,
      "user": "mpolci",
      "uid": 25837,
      "tags": {
        "created_by": "JOSM",
        "name": "Montenovo",
        "place": "hamlet"
      }
    },
    {
      "type": "node",
      "id": 268953042,
      "lat": 43.94771,
      "lon": 12.3188,
      "timestamp": "2015-01-16T21:56:26Z",
      "version": 4,
      "changeset": 28196892,
      "user": "geow",
      "uid": 223093,
      "tags": {
        "alt_name": "Passo del Grillo",
        "mountain_pass": "yes",
        "name": "Passo Siepi",
        "natural": "saddle"
      }
    },
    {
      "type": "node",
      "id": 271622335,
      "lat": 43.68261,
      "lon": 12.1163995,
      "timestamp": "2017-03-11T12:52:42Z",
      "version": 6,
      "changeset": 46761779,
      "user": "sbiribizio",
      "uid": 354284,
      "tags": {
        "ele": "983",
        "mountain_pass": "yes",
        "name": "Passo di Viamaggio",
        "natural": "saddle",
        "wikidata": "Q3368399",
        "wikipedia": "it:Passo di Viamaggio"
      }
    },
    {
      "type": "node",
      "id": 280981402,
      "lat": 43.9093574,
      "lon": 12.4847155,
      "timestamp": "2020-01-15T17:49:39Z",
      "version": 8,
      "changeset": 79616620,
      "user": "syntex",
      "uid": 6668641,
      "tags": {
        "name": "Montegiardino",
        "place": "village",
        "population": "911",
        "postal_code": "47898",
        "wikidata": "Q206962",
        "wikipedia": "it:Montegiardino"
      }
    },
    {
      "type": "node",
      "id": 280981529,
      "lat": 43.9269122,
      "lon": 12.4974633,
      "timestamp": "2020-01-15T17:49:39Z",
      "version": 6,
      "changeset": 79616620,
      "user": "syntex",
      "uid": 6668641,
      "tags": {
        "name": "Faetano",
        "place": "village",
        "population": "1179",
        "postal_code": "47896",
        "wikidata": "Q206356",
        "wikipedia": "it:Faetano"
      }
    },
    {
      "type": "node",
      "id": 280981759,
      "lat": 43.9699026,
      "lon": 12.4802946,
      "timestamp": "2020-01-15T17:49:39Z",
      "version": 10,
      "changeset": 79616620,
      "user": "syntex",
      "uid": 6668641,
      "tags": {
        "name": "Serravalle",
        "place": "town",
        "population": "10601",
        "postal_code": "47899",
        "wikidata": "Q185412",
        "wikipedia": "it:Serravalle (San Marino)"
      }
    },
    {
      "type": "node",
      "id": 280981926,
      "lat": 43.9475027,
      "lon": 12.4690616,
      "timestamp": "2020-01-15T17:49:39Z",
      "version": 7,
      "changeset": 79616620,
      "user": "syntex",
      "uid": 6668641,
      "tags": {
        "name": "Domagnano",
        "place": "village",
        "population": "3265",
        "postal_code": "47895",
        "wikidata": "Q202202",
        "wikipedia": "it:Domagnano"
      }
    },
    {
      "type": "node",
      "id": 280982054,
      "lat": 43.9464246,
      "lon": 12.4191909,
      "timestamp": "2020-01-15T17:49:39Z",
      "version": 7,
      "changeset": 79616620,
      "user": "syntex",
      "uid": 6668641,
      "tags": {
        "name": "Acquaviva",
        "place": "village",
        "population": "2104",
        "postal_code": "47892",
        "wikidata": "Q206363",
        "wikipedia": "it:Acquaviva (San Marino)"
      }
    },
    {
      "type": "node",
      "id": 280982186,
      "lat": 43.9411865,
      "lon": 12.447422,
      "timestamp": "2020-01-15T17:49:39Z",
      "version": 9,
      "changeset": 79616620,
      "user": "syntex",
      "uid": 6668641,
      "tags": {
        "name": "Borgo Maggiore",
        "place": "village",
        "population": "6640",
        "postal_code": "47893",
        "wikidata": "Q201368",
        "wikipedia": "it:Borgo Maggiore"
      }
    },
    {
      "type": "node",
      "id": 280982509,
      "lat": 43.9053382,
      "lon": 12.4220187,
      "timestamp": "2020-01-13T17:59:15Z",
      "version": 9,
      "changeset": 79527804,
      "user": "syntex",
      "uid": 6668641,
      "tags": {
        "name": "Chiesanuova",
        "place": "village",
        "population": "1090",
        "postal_code": "47894",
        "wikidata": "Q206980",
        "wikipedia": "it:Chiesanuova (San Marino)"
      }
    },
    {
      "type": "node",
      "id": 280982562,
      "lat": 43.9103157,
      "lon": 12.4575556,
      "timestamp": "2020-01-15T17:49:39Z",
      "version": 6,
      "changeset": 79616620,
      "user": "syntex",
      "uid": 6668641,
      "tags": {
        "name": "Fiorentino",
        "place": "village",
        "population": "2537",
        "postal_code": "47897",
        "wikidata": "Q206968",
        "wikipedia": "it:Fiorentino (San Marino)"
      }
    },
    {
      "type": "node",
      "id": 280982720,
      "lat": 43.9363996,
      "lon": 12.4466991,
      "timestamp": "2021-12-28T18:12:46Z",
      "version": 27,
      "changeset": 115482923,
      "user": "Martino Scaglione",
      "uid": 10901495,
      "tags": {
        "admin_level": "2",
        "alt_name:la": "Fanum Sancti Marini",
        "capital": "yes",
        "name": "Città di San Marino",
        "name:af": "San Marino",
        "name:am": "ሳን ማሪኖ",
        "name:an": "Ciudad de San Marino",
        "name:ar": "مدينة سان مارينو",
        "name:arc": "ܣܢ ܡܪܝܢܘ",
        "name:ast": "Ciudá de San Marín",
        "name:az-Arab": "سان مارینو",
        "name:azb": "سان مارینو",
        "name:bat-smg": "San Marins",
        "name:be": "Сан-Марына",
        "name:be-tarask": "Сан-Марына",
        "name:bg": "Сан Марино",
        "name:bo": "སན་མ་རི་ནོ།",
        "name:br": "Kêr San Marino",
        "name:bs": "San Marino",
        "name:ca": "Ciutat de San Marino",
        "name:ckb": "سان مارینۆ",
        "name:cs": "San Marino",
        "name:cy": "Dinas San Marino",
        "name:da": "San Marino",
        "name:de": "Stadt San Marino",
        "name:el": "Άγιος Μαρίνος",
        "name:en": "City of San Marino",
        "name:eo": "San-Marino",
        "name:es": "San Marino",
        "name:et": "San Marino",
        "name:eu": "San Marino",
        "name:fa": "شهر سان مارینو",
        "name:fi": "San Marino",
        "name:fiu-vro": "San Marino",
        "name:fr": "Ville de Saint-Marin",
        "name:frr": "San Marino",
        "name:fy": "San Marino",
        "name:ga": "Cathair San Mairíne, San Mairíne",
        "name:gd": "San Marino",
        "name:gl": "Cidade de San Mariño - Città di San Marino",
        "name:grc": "Ἁγιομαρινούπολις",
        "name:gv": "San Marino",
        "name:he": "סן מרינו",
        "name:hr": "San Marino",
        "name:ht": "Sen Maren",
        "name:hu": "San Marino",
        "name:hy": "Սան Մարինո",
        "name:id": "San Marino",
        "name:ie": "San Marino",
        "name:io": "San Marino",
        "name:is": "San Marínó",
        "name:it": "Città di San Marino",
        "name:ja": "サンマリノ市",
        "name:jv": "San Marino",
        "name:ka": "სან-მარინო",
        "name:kab-Arab": "سان مارين",
        "name:kk": "Сан-Марино",
        "name:kk-Arab": "سان مارىينو",
        "name:kmr": "سان مارینۆ",
        "name:ko": "산마리노",
        "name:ks": "سان مارینو",
        "name:ku-Arab": "سان مارینۆ",
        "name:la": "Marinum",
        "name:lb": "San Marino",
        "name:lt": "San Marinas",
        "name:lv": "Sanmarīno",
        "name:mk": "Сан Марино",
        "name:mzn": "سان مارینو",
        "name:nl": "San Marino",
        "name:nn": "San Marino i San Marino",
        "name:no": "San Marino by",
        "name:oc": "Sant Marin",
        "name:os": "Сан-Марино",
        "name:pa": "ਸਾਨ ਮਰੀਨੋ",
        "name:pl": "San Marino",
        "name:pms": "Sità ëd San Marin",
        "name:pnb": "سان مرینو شہر",
        "name:ps": "سان مارینو",
        "name:pt": "San Marino",
        "name:qu": "San Marino",
        "name:ro": "Orașul San Marino",
        "name:roa-tara": "Cetate de San Marine",
        "name:sco": "Ceety o San Marino",
        "name:sd": "سان مارينو",
        "name:simple": "San Marino City",
        "name:sk": "San Maríno",
        "name:sl": "San Marino",
        "name:sq": "San Marino",
        "name:sr": "Сан Марино",
        "name:sv": "San Marino",
        "name:syc": "ܣܢ ܡܪܝܢܘ",
        "name:szl": "San Marino",
        "name:ta": "சான் மரீனோ",
        "name:tl": "San Marino, San Marino",
        "name:tr": "San Marino şehri",
        "name:udm": "Сан-Марино",
        "name:ug": "سان مارىنو",
        "name:uk": "Сан-Марино",
        "name:ur": "سان مارینو شہر",
        "name:vec": "Sità de San Marin",
        "name:vi": "Thành phố San Marino",
        "name:vo": "San Marino",
        "name:war": "San Marino, San Marino",
        "name:yo": "Ìlú San Màrínò",
        "name:zh": "聖馬力諾",
        "name:zh-Hans": "圣马力诺",
        "name:zh-Hant": "聖馬力諾",
        "place": "city",
        "population": "4211",
        "postal_code": "47890",
        "wikidata": "Q1848",
        "wikipedia": "it:Città di San Marino"
      }
    },
    {
      "type": "node",
      "id": 281339878,
      "lat": 43.9987595,
      "lon": 12.6312577,
      "timestamp": "2013-05-20T21:36:03Z",
      "version": 6,
      "changeset": 16216808,
      "user": "Samuele Battarra",
      "uid": 51179,
      "tags": {
        "name": "Conad Boschetto",
        "operator": "Conad",
        "shop": "supermarket"
      }
    },
    {
      "type": "node",
      "id": 288241797,
      "lat": 43.9804006,
      "lon": 12.6205391,
      "timestamp": "2021-09-01T15:51:17Z",
      "version": 3,
      "changeset": 110574761,
      "user": "Mannivu",
      "uid": 1950277,
      "tags": {
        "is_in": "Coriano, Rimini, Emilia Romagna, Italy",
        "name": "Sant'Andrea in Besanigo",
        "place": "village",
        "wikidata": "Q18448013"
      }
    },
    {
      "type": "node",
      "id": 288904110,
      "lat": 43.9359348,
      "lon": 12.609836,
      "timestamp": "2008-08-17T20:33:58Z",
      "version": 1,
      "changeset": 300873,
      "user": "Samuele Battarra",
      "uid": 51179,
      "tags": {
        "is_in": "San Clemente, Rimini, Emilia Romagna, Italy",
        "name": "Agello",
        "place": "hamlet"
      }
    },
    {
      "type": "node",
      "id": 288904128,
      "lat": 43.9493402,
      "lon": 12.6119398,
      "timestamp": "2008-08-17T20:33:58Z",
      "version": 1,
      "changeset": 300873,
      "user": "Samuele Battarra",
      "uid": 51179,
      "tags": {
        "is_in": "Coriano, Rimini, Emilia Romagna, Italy",
        "name": "Castelleale",
        "place": "hamlet"
      }
    },
    {
      "type": "node",
      "id": 291093294,
      "lat": 43.9269823,
      "lon": 12.5176006,
      "timestamp": "2017-03-10T16:28:31Z",
      "version": 3,
      "changeset": 46743011,
      "user": "sbiribizio",
      "uid": 354284,
      "tags": {
        "is_in": "Montescudo, Rimini, Emilia Romagna, Italy",
        "name": "Albereto",
        "place": "hamlet",
        "wikidata": "Q4746603",
        "wikipedia": "it:Albereto"
      }
    },
    {
      "type": "node",
      "id": 291093300,
      "lat": 43.8000974,
      "lon": 12.6198069,
      "timestamp": "2019-07-10T22:05:46Z",
      "version": 2,
      "changeset": 72112585,
      "user": "totera",
      "uid": 123412,
      "tags": {
        "name": "Ca' Gallo",
        "place": "hamlet"
      }
    },
    {
      "type": "node",
      "id": 291093306,
      "lat": 43.8160117,
      "lon": 12.5894349,
      "timestamp": "2018-12-31T14:34:55Z",
      "version": 2,
      "changeset": 65914209,
      "user": "fayor",
      "uid": 743479,
      "tags": {
        "name": "Casinina",
        "place": "village",
        "population": "1152"
      }
    },
    {
      "type": "node",
      "id": 291093317,
      "lat": 43.9364223,
      "lon": 12.542716,
      "timestamp": "2017-01-06T13:42:42Z",
      "version": 3,
      "changeset": 44953457,
      "user": "Samuele Battarra",
      "uid": 51179,
      "tags": {
        "is_in": "Montescudo, Rimini, Emilia Romagna, Italy",
        "name": "Trarivi",
        "place": "village"
      }
    },
    {
      "type": "node",
      "id": 291093318,
      "lat": 43.9465685,
      "lon": 12.5587312,
      "timestamp": "2008-08-25T22:50:49Z",
      "version": 1,
      "changeset": 406082,
      "user": "Samuele Battarra",
      "uid": 51179,
      "tags": {
        "is_in": "Coriano, Rimini, Emilia Romagna, Italy",
        "name": "Cavallino",
        "place": "hamlet"
      }
    },
    {
      "type": "node",
      "id": 291093319,
      "lat": 43.9709153,
      "lon": 12.5767486,
      "timestamp": "2008-08-25T22:50:49Z",
      "version": 1,
      "changeset": 406082,
      "user": "Samuele Battarra",
      "uid": 51179,
      "tags": {
        "is_in": "Coriano, Rimini, Emilia Romagna, Italy",
        "name": "Pian della Pieve",
        "place": "hamlet"
      }
    },
    {
      "type": "node",
      "id": 291200875,
      "lat": 44.0584369,
      "lon": 12.2454407,
      "timestamp": "2014-04-08T21:09:22Z",
      "version": 4,
      "changeset": 21579027,
      "user": "Jinx71",
      "uid": 70012,
      "tags": {
        "name": "Ardiano",
        "place": "hamlet"
      }
    },
    {
      "type": "node",
      "id": 291464586,
      "lat": 43.9833058,
      "lon": 12.5362383,
      "timestamp": "2017-03-10T16:28:32Z",
      "version": 5,
      "changeset": 46743011,
      "user": "sbiribizio",
      "uid": 354284,
      "tags": {
        "is_in": "Coriano, Rimini, Emilia Romagna, Italy",
        "name": "Cerasolo",
        "place": "village",
        "wikidata": "Q2164981",
        "wikipedia": "it:Cerasolo"
      }
    },
    {
      "type": "node",
      "id": 291464590,
      "lat": 44.0194414,
      "lon": 12.4535958,
      "timestamp": "2021-09-01T15:51:14Z",
      "version": 4,
      "changeset": 110574761,
      "user": "Mannivu",
      "uid": 1950277,
      "tags": {
        "name": "Corpolò",
        "place": "village",
        "wikidata": "Q18447769",
        "wikipedia": "it:Corpolò"
      }
    },
    {
      "type": "node",
      "id": 291464591,
      "lat": 44.0341157,
      "lon": 12.4875459,
      "timestamp": "2021-09-01T15:51:13Z",
      "version": 5,
      "changeset": 110574761,
      "user": "Mannivu",
      "uid": 1950277,
      "tags": {
        "name": "Sant'Ermete",
        "place": "village",
        "wikidata": "Q3948847",
        "wikipedia": "it:Sant'Ermete (Santarcangelo di Romagna)"
      }
    },
    {
      "type": "node",
      "id": 291464592,
      "lat": 43.9241832,
      "lon": 12.5898433,
      "timestamp": "2021-09-01T15:51:15Z",
      "version": 3,
      "changeset": 110574761,
      "user": "Mannivu",
      "uid": 1950277,
      "tags": {
        "is_in": "Monte Colombo, Rimini, Emilia Romagna, Italy",
        "name": "Croce",
        "place": "village",
        "wikidata": "Q18447772"
      }
    },
    {
      "type": "node",
      "id": 291464593,
      "lat": 43.9808743,
      "lon": 12.4885922,
      "timestamp": "2016-09-14T00:12:05Z",
      "version": 5,
      "changeset": 42138399,
      "user": "fayor",
      "uid": 743479,
      "tags": {
        "name": "Dogana",
        "place": "village",
        "population": "7000",
        "wikidata": "Q1642645",
        "wikipedia": "it:Dogana (San Marino)"
      }
    },
    {
      "type": "node",
      "id": 291464596,
      "lat": 43.98036,
      "lon": 12.5023479,
      "timestamp": "2016-04-02T06:56:43Z",
      "version": 4,
      "changeset": 38243244,
      "user": "Wikidata",
      "uid": 3537321,
      "tags": {
        "name": "Falciano",
        "place": "village",
        "wikidata": "Q2271111",
        "wikipedia": "it:Falciano"
      }
    },
    {
      "type": "node",
      "id": 291464597,
      "lat": 43.9574552,
      "lon": 12.4788066,
      "timestamp": "2020-01-24T22:09:32Z",
      "version": 5,
      "changeset": 80053821,
      "user": "syntex",
      "uid": 6668641,
      "tags": {
        "name": "Fiorina",
        "place": "hamlet",
        "wikidata": "Q3745919",
        "wikipedia": "it:Fiorina"
      }
    },
    {
      "type": "node",
      "id": 291464599,
      "lat": 43.9776481,
      "lon": 12.4786531,
      "timestamp": "2020-02-14T00:11:57Z",
      "version": 3,
      "changeset": 80979331,
      "user": "syntex",
      "uid": 6668641,
      "tags": {
        "name": "Galazzano",
        "place": "hamlet"
      }
    },
    {
      "type": "node",
      "id": 291647108,
      "lat": 43.8927194,
      "lon": 12.5307802,
      "timestamp": "2021-09-01T15:51:18Z",
      "version": 4,
      "changeset": 110574761,
      "user": "Mannivu",
      "uid": 1950277,
      "tags": {
        "name": "Fratte",
        "place": "village",
        "wikidata": "Q18498428"
      }
    },
    {
      "type": "node",
      "id": 291647109,
      "lat": 44.0054901,
      "lon": 12.5691907,
      "timestamp": "2016-09-20T16:11:10Z",
      "version": 2,
      "changeset": 42302787,
      "user": "fayor",
      "uid": 743479,
      "tags": {
        "name": "Gaiofana",
        "place": "village",
        "population": "743"
      }
    },
    {
      "type": "node",
      "id": 291647111,
      "lat": 43.9055532,
      "lon": 12.5075397,
      "timestamp": "2019-07-10T22:05:46Z",
      "version": 3,
      "changeset": 72112585,
      "user": "totera",
      "uid": 123412,
      "tags": {
        "name": "Gesso",
        "place": "hamlet"
      }
    },
    {
      "type": "node",
      "id": 291647121,
      "lat": 43.8402291,
      "lon": 12.3591843,
      "timestamp": "2016-09-11T00:19:08Z",
      "version": 4,
      "changeset": 42069137,
      "user": "fayor",
      "uid": 743479,
      "tags": {
        "name": "Villagrande",
        "place": "village",
        "population": "510"
      }
    },
    {
      "type": "node",
      "id": 291647124,
      "lat": 43.9541553,
      "lon": 12.5560588,
      "timestamp": "2009-08-16T20:28:36Z",
      "version": 2,
      "changeset": 2170110,
      "user": "Samuele Battarra",
      "uid": 51179,
      "tags": {
        "is_in": "Coriano, Rimini, Emilia Romagna, Italy",
        "name": "Vecciano",
        "place": "hamlet"
      }
    },
    {
      "type": "node",
      "id": 291647126,
      "lat": 43.9377688,
      "lon": 12.5289203,
      "timestamp": "2014-07-13T10:48:48Z",
      "version": 3,
      "changeset": 24117203,
      "user": "team ca' rossa",
      "uid": 88162,
      "tags": {
        "is_in": "Coriano, Rimini, Emilia Romagna, Italy",
        "name": "Vallecchio",
        "place": "hamlet"
      }
    },
    {
      "type": "node",
      "id": 291922402,
      "lat": 43.7811928,
      "lon": 12.4862977,
      "timestamp": "2019-11-22T11:27:54Z",
      "version": 3,
      "changeset": 77422394,
      "user": "Pab09",
      "uid": 178610,
      "tags": {
        "name": "Mercatale",
        "place": "village",
        "population": "1152"
      }
    },
    {
      "type": "node",
      "id": 291922410,
      "lat": 43.9586567,
      "lon": 12.655194,
      "timestamp": "2021-09-01T15:51:15Z",
      "version": 4,
      "changeset": 110574761,
      "user": "Mannivu",
      "uid": 1950277,
      "tags": {
        "is_in": "Misano Adriatico, Rimini, Emilia Romagna, Italy",
        "name": "Misano Monte",
        "place": "village",
        "wikidata": "Q18447871"
      }
    },
    {
      "type": "node",
      "id": 291943684,
      "lat": 43.8852684,
      "lon": 12.4804424,
      "timestamp": "2019-07-10T22:05:46Z",
      "version": 2,
      "changeset": 72112585,
      "user": "totera",
      "uid": 123412,
      "tags": {
        "name": "Montelicciano",
        "place": "hamlet"
      }
    },
    {
      "type": "node",
      "id": 291943693,
      "lat": 43.9321858,
      "lon": 12.4509752,
      "timestamp": "2020-02-02T22:56:52Z",
      "version": 7,
      "changeset": 80448473,
      "user": "syntex",
      "uid": 6668641,
      "tags": {
        "ele": "739",
        "name": "Monte Titano",
        "natural": "peak",
        "wikidata": "Q158526",
        "wikipedia": "it:Monte Titano"
      }
    },
    {
      "type": "node",
      "id": 291943697,
      "lat": 43.968951,
      "lon": 12.5781782,
      "timestamp": "2017-01-30T00:31:59Z",
      "version": 2,
      "changeset": 45635896,
      "user": "Samuele Battarra",
      "uid": 51179,
      "tags": {
        "is_in": "Coriano, Rimini, Emilia Romagna, Italy",
        "name": "Monte Tauro",
        "place": "hamlet"
      }
    },
    {
      "type": "node",
      "id": 291943712,
      "lat": 43.9599675,
      "lon": 12.5371122,
      "timestamp": "2009-02-22T16:39:49Z",
      "version": 2,
      "changeset": 611181,
      "user": "Samuele Battarra",
      "uid": 51179,
      "tags": {
        "is_in": "Coriano, Rimini, Emilia Romagna, Italy",
        "name": "Mulazzano",
        "place": "hamlet"
      }
    },
    {
      "type": "node",
      "id": 291943716,
      "lat": 43.9832823,
      "lon": 12.5695541,
      "timestamp": "2020-06-13T10:25:10Z",
      "version": 4,
      "changeset": 86595527,
      "user": "NonnEmilia",
      "uid": 683102,
      "tags": {
        "is_in": "Coriano, Rimini, Emilia Romagna, Italy",
        "name": "Ospedaletto",
        "place": "village",
        "wikidata": "Q18447903"
      }
    },
    {
      "type": "node",
      "id": 291943720,
      "lat": 43.9171885,
      "lon": 12.5966577,
      "timestamp": "2008-08-29T00:21:59Z",
      "version": 1,
      "changeset": 454160,
      "user": "Samuele Battarra",
      "uid": 51179,
      "tags": {
        "is_in": "Monte Colombo, Rimini, Emilia Romagna, Italy",
        "name": "Osteria Nuova",
        "place": "hamlet"
      }
    },
    {
      "type": "node",
      "id": 292639048,
      "lat": 43.9511093,
      "lon": 12.5949156,
      "timestamp": "2010-09-05T18:26:23Z",
      "version": 3,
      "changeset": 5690906,
      "user": "Samuele Battarra",
      "uid": 51179,
      "tags": {
        "is_in": "Coriano, Rimini, Emilia Romagna, Italy",
        "name": "Passano",
        "place": "hamlet"
      }
    },
    {
      "type": "node",
      "id": 292645073,
      "lat": 43.9386851,
      "lon": 12.5954066,
      "timestamp": "2021-09-01T15:51:16Z",
      "version": 3,
      "changeset": 110574761,
      "user": "Mannivu",
      "uid": 1950277,
      "tags": {
        "is_in": "Monte Colombo, Rimini, Emilia Romagna, Italy",
        "name": "San Savino",
        "place": "village",
        "wikidata": "Q18447985"
      }
    },
    {
      "type": "node",
      "id": 292645074,
      "lat": 43.9721874,
      "lon": 12.5894362,
      "timestamp": "2008-08-31T18:11:00Z",
      "version": 1,
      "changeset": 473127,
      "user": "Samuele Battarra",
      "uid": 51179,
      "tags": {
        "is_in": "Coriano, Rimini, Emilia Romagna, Italy",
        "name": "Pedrolara",
        "place": "hamlet"
      }
    },
    {
      "type": "node",
      "id": 292645075,
      "lat": 43.9813941,
      "lon": 12.5558559,
      "timestamp": "2008-08-31T18:11:00Z",
      "version": 1,
      "changeset": 473127,
      "user": "Samuele Battarra",
      "uid": 51179,
      "tags": {
        "is_in": "Coriano, Rimini, Emilia Romagna, Italy",
        "name": "San Patrignano",
        "place": "hamlet"
      }
    },
    {
      "type": "node",
      "id": 292645076,
      "lat": 43.9904327,
      "lon": 12.5871568,
      "timestamp": "2021-12-01T20:37:23Z",
      "version": 3,
      "changeset": 114457616,
      "user": "Marco_T",
      "uid": 1227619,
      "tags": {
        "is_in": "Coriano, Rimini, Emilia Romagna, Italy",
        "name": "San Salvatore",
        "place": "hamlet",
        "wikidata": "Q18447983",
        "wikipedia": "it:Pieve di San Salvatore"
      }
    },
    {
      "type": "node",
      "id": 292699736,
      "lat": 44.0062155,
      "lon": 12.5822615,
      "timestamp": "2016-09-20T16:11:14Z",
      "version": 4,
      "changeset": 42302787,
      "user": "fayor",
      "uid": 743479,
      "tags": {
        "name": "San Lorenzo in Correggiano",
        "place": "hamlet",
        "population": "56"
      }
    },
    {
      "type": "node",
      "id": 292699739,
      "lat": 44.0004624,
      "lon": 12.4709963,
      "timestamp": "2008-08-31T20:50:54Z",
      "version": 1,
      "changeset": 478378,
      "user": "Samuele Battarra",
      "uid": 51179,
      "tags": {
        "is_in": "Rimini, Rimini, Emilia Romagna, Italy",
        "name": "San Paolo",
        "place": "hamlet"
      }
    },
    {
      "type": "node",
      "id": 292699742,
      "lat": 44.0683524,
      "lon": 12.4838248,
      "timestamp": "2020-06-10T17:53:54Z",
      "version": 3,
      "changeset": 86475942,
      "user": "Mannivu",
      "uid": 1950277,
      "tags": {
        "name": "Santa Giustina",
        "place": "village",
        "population": "1865",
        "wikidata": "Q18447995"
      }
    },
    {
      "type": "node",
      "id": 292699745,
      "lat": 44.0484967,
      "lon": 12.5046968,
      "timestamp": "2012-11-09T22:03:59Z",
      "version": 2,
      "changeset": 13814945,
      "user": "Samuele Battarra",
      "uid": 51179,
      "tags": {
        "is_in": "Rimini, Rimini, Emilia Romagna, Italy",
        "name": "Spadarolo",
        "place": "hamlet"
      }
    },
    {
      "type": "node",
      "id": 292700104,
      "lat": 43.9754153,
      "lon": 12.655951,
      "timestamp": "2008-08-31T20:51:27Z",
      "version": 1,
      "changeset": 478378,
      "user": "Samuele Battarra",
      "uid": 51179,
      "tags": {
        "is_in": "Misano Adriatico, Rimini, Emilia Romagna, Italy",
        "name": "Scacciano",
        "place": "hamlet"
      }
    },
    {
      "type": "node",
      "id": 292700109,
      "lat": 43.9318311,
      "lon": 12.653668,
      "timestamp": "2021-09-01T15:51:17Z",
      "version": 3,
      "changeset": 110574761,
      "user": "Mannivu",
      "uid": 1950277,
      "tags": {
        "is_in": "San Clemente, Rimini, Emilia Romagna, Italy",
        "name": "Sant'Andrea in Casale",
        "place": "village",
        "wikidata": "Q18448015"
      }
    },
    {
      "type": "node",
      "id": 292700113,
      "lat": 43.9118296,
      "lon": 12.5571054,
      "timestamp": "2021-09-01T15:51:18Z",
      "version": 3,
      "changeset": 110574761,
      "user": "Mannivu",
      "uid": 1950277,
      "tags": {
        "is_in": "Monte Colombo, Rimini, Emilia Romagna, Italy",
        "name": "Taverna",
        "place": "village",
        "wikidata": "Q18448039"
      }
    },
    {
      "type": "node",
      "id": 292700117,
      "lat": 43.8812764,
      "lon": 12.6236569,
      "timestamp": "2008-08-31T20:51:29Z",
      "version": 1,
      "changeset": 478378,
      "user": "Samuele Battarra",
      "uid": 51179,
      "tags": {
        "is_in": "Montefiore Conca, Rimini, Emilia Romagna, Italy",
        "name": "San Felice",
        "place": "hamlet"
      }
    },
    {
      "type": "node",
      "id": 292703667,
      "lat": 43.9051078,
      "lon": 12.5354108,
      "timestamp": "2021-09-01T15:51:17Z",
      "version": 4,
      "changeset": 110574761,
      "user": "Mannivu",
      "uid": 1950277,
      "tags": {
        "is_in": "Montescudo, Rimini, Emilia Romagna, Italy",
        "name": "Santa Maria del Piano",
        "place": "village",
        "wikidata": "Q18448002"
      }
    },
    {
      "type": "node",
      "id": 292996518,
      "lat": 43.8662192,
      "lon": 12.2848603,
      "timestamp": "2008-09-01T21:41:02Z",
      "version": 1,
      "changeset": 486826,
      "user": "Samuele Battarra",
      "uid": 51179,
      "tags": {
        "is_in": "Novafeltria, Pesaro e Urbino, Marche, Italy",
        "name": "Ponte Baffoni",
        "place": "hamlet"
      }
    },
    {
      "type": "node",
      "id": 292996524,
      "lat": 43.8224233,
      "lon": 12.2467551,
      "timestamp": "2017-03-10T16:28:32Z",
      "version": 3,
      "changeset": 46743011,
      "user": "sbiribizio",
      "uid": 354284,
      "tags": {
        "is_in": "Pennabilli",
        "name": "Ponte Messa",
        "place": "hamlet",
        "wikidata": "Q3907992",
        "wikipedia": "it:Ponte Messa"
      }
    },
    {
      "type": "node",
      "id": 292996531,
      "lat": 43.9353902,
      "lon": 12.343117,
      "timestamp": "2019-07-17T13:37:57Z",
      "version": 3,
      "changeset": 72349543,
      "user": "GBAB",
      "uid": 3335899,
      "tags": {
        "name": "Ponte Santa Maria Maddalena",
        "place": "hamlet"
      }
    },
    {
      "type": "node",
      "id": 292996540,
      "lat": 43.9267475,
      "lon": 12.3203599,
      "timestamp": "2017-03-10T16:28:33Z",
      "version": 3,
      "changeset": 46743011,
      "user": "sbiribizio",
      "uid": 354284,
      "tags": {
        "is_in": "Novafeltria, Pesaro e Urbino, Marche, Italy",
        "name": "Secchiano",
        "place": "hamlet",
        "wikidata": "Q3953849",
        "wikipedia": "it:Secchiano Marecchia"
      }
    },
    {
      "type": "node",
      "id": 292996547,
      "lat": 43.9808689,
      "lon": 12.3037713,
      "timestamp": "2008-09-01T21:41:04Z",
      "version": 1,
      "changeset": 486826,
      "user": "Samuele Battarra",
      "uid": 51179,
      "tags": {
        "is_in": "Sogliano al Rubicone, Forlì-Cesena, Emilia Romagna, Italy",
        "name": "Ponte Uso",
        "place": "hamlet"
      }
    },
    {
      "type": "node",
      "id": 292996626,
      "lat": 43.7848417,
      "lon": 12.6331116,
      "timestamp": "2019-07-10T22:05:46Z",
      "version": 5,
      "changeset": 72112585,
      "user": "totera",
      "uid": 123412,
      "tags": {
        "name": "Schieti",
        "place": "hamlet",
        "wikidata": "Q16600927",
        "wikipedia": "it:Schieti"
      }
    },
    {
      "type": "node",
      "id": 292996637,
      "lat": 43.9526835,
      "lon": 12.5076486,
      "timestamp": "2017-03-10T16:29:16Z",
      "version": 3,
      "changeset": 46743027,
      "user": "sbiribizio",
      "uid": 354284,
      "tags": {
        "name": "Torraccia",
        "place": "hamlet",
        "wikidata": "Q3995104",
        "wikipedia": "it:Torraccia"
      }
    },
    {
      "type": "node",
      "id": 292996651,
      "lat": 43.9899491,
      "lon": 12.5118294,
      "timestamp": "2020-01-15T20:01:00Z",
      "version": 4,
      "changeset": 79620431,
      "user": "syntex",
      "uid": 6668641,
      "tags": {
        "name": "Rovereta",
        "place": "hamlet",
        "wikidata": "Q3941941",
        "wikipedia": "it:Rovereta"
      }
    },
    {
      "type": "node",
      "id": 292996663,
      "lat": 43.870866,
      "lon": 12.3577452,
      "timestamp": "2019-07-10T22:05:46Z",
      "version": 3,
      "changeset": 72112585,
      "user": "totera",
      "uid": 123412,
      "tags": {
        "name": "Madonna di Pugliano",
        "place": "hamlet"
      }
    },
    {
      "type": "node",
      "id": 292996678,
      "lat": 43.9813476,
      "lon": 12.4076128,
      "timestamp": "2009-05-18T21:43:44Z",
      "version": 2,
      "changeset": 1242593,
      "user": "Cyclop",
      "uid": 41098,
      "tags": {
        "is_in": "Verucchio, Rimini, Emilia Romagna, Italy",
        "name": "Ponte Verucchio",
        "place": "hamlet"
      }
    },
    {
      "type": "node",
      "id": 292996685,
      "lat": 44.0038969,
      "lon": 12.4328817,
      "timestamp": "2019-07-17T13:37:57Z",
      "version": 5,
      "changeset": 72349543,
      "user": "GBAB",
      "uid": 3335899,
      "tags": {
        "name": "Villa Verucchio",
        "place": "village",
        "wikidata": "Q2310250",
        "wikipedia": "it:Villa Verucchio"
      }
    },
    {
      "type": "node",
      "id": 296874916,
      "lat": 44.0326811,
      "lon": 12.3875104,
      "timestamp": "2008-09-14T10:21:26Z",
      "version": 1,
      "changeset": 635125,
      "user": "Samuele Battarra",
      "uid": 51179,
      "tags": {
        "is_in": "Borghi, Forlì-Cesena, Emilia Romagna, Italy",
        "name": "Lo Stradone",
        "place": "hamlet"
      }
    },
    {
      "type": "node",
      "id": 296874920,
      "lat": 43.9896935,
      "lon": 12.5333028,
      "timestamp": "2008-09-14T10:21:27Z",
      "version": 1,
      "changeset": 635125,
      "user": "Samuele Battarra",
      "uid": 51179,
      "tags": {
        "is_in": "Coriano, Rimini, Emilia Romagna, Italy",
        "name": "Cerasolo Ausa",
        "place": "hamlet"
      }
    },
    {
      "type": "node",
      "id": 296874922,
      "lat": 43.8724714,
      "lon": 12.5455431,
      "timestamp": "2019-07-10T22:05:46Z",
      "version": 2,
      "changeset": 72112585,
      "user": "totera",
      "uid": 123412,
      "tags": {
        "name": "Onferno",
        "place": "hamlet"
      }
    },
    {
      "type": "node",
      "id": 296874943,
      "lat": 44.034847,
      "lon": 12.5742448,
      "timestamp": "2016-09-20T16:11:16Z",
      "version": 2,
      "changeset": 42302787,
      "user": "fayor",
      "uid": 743479,
      "tags": {
        "name": "Villaggio Primo Maggio",
        "place": "village"
      }
    },
    {
      "type": "node",
      "id": 296874950,
      "lat": 43.8833211,
      "lon": 12.6541966,
      "timestamp": "2008-09-14T10:21:30Z",
      "version": 1,
      "changeset": 635125,
      "user": "Samuele Battarra",
      "uid": 51179,
      "tags": {
        "is_in": "Saludecio, Rimini, Emilia Romagna, Italy",
        "name": "Sant'Ansovino",
        "place": "hamlet"
      }
    },
    {
      "type": "node",
      "id": 296874955,
      "lat": 43.9001424,
      "lon": 12.4129918,
      "timestamp": "2017-03-10T16:28:34Z",
      "version": 3,
      "changeset": 46743011,
      "user": "sbiribizio",
      "uid": 354284,
      "tags": {
        "is_in": "Verucchio, Rimini, Emilia Romagna, Italy",
        "name": "Pieve Corena",
        "place": "hamlet",
        "wikidata": "Q2691455",
        "wikipedia": "it:Pieve Corena"
      }
    },
    {
      "type": "node",
      "id": 300702058,
      "lat": 43.8576286,
      "lon": 11.9769068,
      "timestamp": "2020-06-13T10:08:57Z",
      "version": 6,
      "changeset": 86595101,
      "user": "NonnEmilia",
      "uid": 683102,
      "tags": {
        "name": "San Piero in Bagno",
        "place": "village",
        "population": "3210",
        "wikidata": "Q18440301"
      }
    },
    {
      "type": "node",
      "id": 300702852,
      "lat": 43.8950479,
      "lon": 11.9564939,
      "timestamp": "2017-03-10T16:28:35Z",
      "version": 5,
      "changeset": 46743011,
      "user": "sbiribizio",
      "uid": 354284,
      "tags": {
        "ele": "776",
        "mountain_pass": "yes",
        "name": "Passo del Carnaio",
        "natural": "saddle",
        "wikidata": "Q3897363",
        "wikipedia": "it:Passo del Carnaio"
      }
    },
    {
      "type": "node",
      "id": 313765398,
      "lat": 43.934138,
      "lon": 12.5598835,
      "timestamp": "2008-11-22T18:03:18Z",
      "version": 1,
      "changeset": 780721,
      "user": "Samuele Battarra",
      "uid": 51179,
      "tags": {
        "name": "Valliano",
        "place": "hamlet"
      }
    },
    {
      "type": "node",
      "id": 318611081,
      "lat": 44.0808734,
      "lon": 12.502859,
      "timestamp": "2016-09-20T16:11:13Z",
      "version": 2,
      "changeset": 42302787,
      "user": "fayor",
      "uid": 743479,
      "tags": {
        "name": "Orsoleto",
        "place": "village",
        "population": "476"
      }
    },
    {
      "type": "node",
      "id": 318626426,
      "lat": 44.0313259,
      "lon": 12.5450471,
      "timestamp": "2008-12-14T14:58:00Z",
      "version": 1,
      "changeset": 368421,
      "user": "Samuele Battarra",
      "uid": 51179,
      "tags": {
        "name": "Covignano",
        "place": "hamlet"
      }
    },
    {
      "type": "node",
      "id": 323321536,
      "lat": 44.0070943,
      "lon": 12.6325045,
      "timestamp": "2016-09-16T18:32:13Z",
      "version": 2,
      "changeset": 42210110,
      "user": "Samuele Battarra",
      "uid": 51179,
      "tags": {
        "name": "Tuodì",
        "shop": "supermarket"
      }
    },
    {
      "type": "node",
      "id": 324633562,
      "lat": 43.6016958,
      "lon": 12.5238493,
      "timestamp": "2017-08-12T19:29:30Z",
      "version": 6,
      "changeset": 51066197,
      "user": "carths81",
      "uid": 2352517,
      "tags": {
        "ele": "975",
        "name": "Monte Montiego",
        "natural": "peak",
        "wikidata": "Q3861763",
        "wikipedia": "it:Monte Montiego"
      }
    },
    {
      "type": "node",
      "id": 349067426,
      "lat": 44.065622,
      "lon": 12.2593231,
      "timestamp": "2017-03-10T16:28:37Z",
      "version": 4,
      "changeset": 46743011,
      "user": "sbiribizio",
      "uid": 354284,
      "tags": {
        "name": "Sorrivoli",
        "place": "village",
        "wikidata": "Q728810",
        "wikipedia": "it:Sorrivoli"
      }
    },
    {
      "type": "node",
      "id": 349067429,
      "lat": 44.0699017,
      "lon": 12.2304391,
      "timestamp": "2012-05-05T21:50:33Z",
      "version": 3,
      "changeset": 11512912,
      "user": "Jinx71",
      "uid": 70012,
      "tags": {
        "name": "Diolaguardia",
        "place": "village"
      }
    },
    {
      "type": "node",
      "id": 353935371,
      "lat": 44.0831113,
      "lon": 12.4573825,
      "timestamp": "2017-03-10T16:28:37Z",
      "version": 4,
      "changeset": 46743011,
      "user": "sbiribizio",
      "uid": 354284,
      "tags": {
        "name": "San Vito",
        "place": "village",
        "population": "815",
        "wikidata": "Q3948039",
        "wikipedia": "it:San Vito (Emilia-Romagna)"
      }
    },
    {
      "type": "node",
      "id": 356833285,
      "lat": 44.0337759,
      "lon": 12.4618206,
      "timestamp": "2021-09-01T15:51:16Z",
      "version": 3,
      "changeset": 110574761,
      "user": "Mannivu",
      "uid": 1950277,
      "tags": {
        "name": "San Martino dei Mulini",
        "place": "village",
        "wikidata": "Q18447973"
      }
    },
    {
      "type": "node",
      "id": 364830696,
      "lat": 43.970595,
      "lon": 12.4945977,
      "timestamp": "2017-03-10T16:29:16Z",
      "version": 3,
      "changeset": 46743027,
      "user": "sbiribizio",
      "uid": 354284,
      "tags": {
        "name": "Cinque Vie",
        "place": "hamlet",
        "wikidata": "Q3677285",
        "wikipedia": "it:Cinque Vie"
      }
    },
    {
      "type": "node",
      "id": 372860471,
      "lat": 43.9796467,
      "lon": 12.1396984,
      "timestamp": "2021-07-12T09:37:05Z",
      "version": 3,
      "changeset": 107827499,
      "user": "gabriele_sani",
      "uid": 7078274,
      "tags": {
        "ele": "580",
        "mountain_pass": "yes",
        "name": "Passo Ciola",
        "natural": "saddle"
      }
    },
    {
      "type": "node",
      "id": 372860478,
      "lat": 43.9803907,
      "lon": 12.1401026,
      "timestamp": "2016-09-17T08:38:18Z",
      "version": 4,
      "changeset": 42222097,
      "user": "Alecs01",
      "uid": 1476146,
      "tags": {
        "ele": "542",
        "name": "Ciola",
        "place": "village"
      }
    },
    {
      "type": "node",
      "id": 373442509,
      "lat": 43.9039809,
      "lon": 12.3427606,
      "timestamp": "2016-08-23T17:34:48Z",
      "version": 2,
      "changeset": 41643545,
      "user": "sorcrosc",
      "uid": 160229,
      "tags": {
        "name": "Le Celle",
        "place": "hamlet"
      }
    },
    {
      "type": "node",
      "id": 374337856,
      "lat": 44.0864832,
      "lon": 12.3474416,
      "timestamp": "2014-03-03T22:35:32Z",
      "version": 2,
      "changeset": 20899267,
      "user": "Matthias Frank",
      "uid": 287306,
      "tags": {
        "name": "Crocetta",
        "place": "village"
      }
    },
    {
      "type": "node",
      "id": 387539028,
      "lat": 43.8470635,
      "lon": 12.0549177,
      "timestamp": "2012-08-30T08:05:58Z",
      "version": 2,
      "changeset": 12914402,
      "user": "diegofreschi",
      "uid": 700704,
      "tags": {
        "ele": "670",
        "gfoss_id": "43348",
        "istat_id": "2147483647",
        "name": "Alfero",
        "place": "village",
        "population": "668",
        "source": "Istat 2001 - geodati.gfoss.it"
      }
    },
    {
      "type": "node",
      "id": 387539030,
      "lat": 43.7860885,
      "lon": 12.0357087,
      "timestamp": "2020-06-13T10:08:56Z",
      "version": 2,
      "changeset": 86595101,
      "user": "NonnEmilia",
      "uid": 683102,
      "tags": {
        "ele": "882",
        "gfoss_id": "43351",
        "istat_id": "2147483647",
        "name": "Montecoronaro",
        "place": "hamlet",
        "population": "58",
        "source": "Istat 2001 - geodati.gfoss.it",
        "wikidata": "Q6905046"
      }
    },
    {
      "type": "node",
      "id": 387539031,
      "lat": 43.8594329,
      "lon": 12.0142486,
      "timestamp": "2021-08-28T09:31:24Z",
      "version": 3,
      "changeset": 110372658,
      "user": "Alecs01",
      "uid": 1476146,
      "tags": {
        "ele": "650",
        "gfoss_id": "42919",
        "istat_id": "2147483647",
        "name": "Valgianna",
        "place": "hamlet",
        "population": "246"
      }
    },
    {
      "type": "node",
      "id": 390527180,
      "lat": 43.851275,
      "lon": 12.085625,
      "timestamp": "2009-05-04T21:34:22Z",
      "version": 1,
      "changeset": 1080277,
      "user": "Jinx71",
      "uid": 70012,
      "tags": {
        "ele": "466",
        "gfoss_id": "43358",
        "istat_id": "2147483647",
        "name": "Mazzi",
        "place": "hamlet",
        "population": "32",
        "source": "Istat 2001 - geodati.gfoss.it"
      }
    },
    {
      "type": "node",
      "id": 390527184,
      "lat": 43.837574,
      "lon": 12.072536,
      "timestamp": "2009-05-04T21:34:22Z",
      "version": 1,
      "changeset": 1080277,
      "user": "Jinx71",
      "uid": 70012,
      "tags": {
        "ele": "826",
        "gfoss_id": "43352",
        "istat_id": "2147483647",
        "name": "Riofreddo",
        "place": "hamlet",
        "population": "162",
        "source": "Istat 2001 - geodati.gfoss.it"
      }
    },
    {
      "type": "node",
      "id": 394947989,
      "lat": 44.0847191,
      "lon": 12.1073599,
      "timestamp": "2017-03-10T16:28:38Z",
      "version": 3,
      "changeset": 46743011,
      "user": "sbiribizio",
      "uid": 354284,
      "tags": {
        "name": "Teodorano",
        "place": "village",
        "wikidata": "Q16268821",
        "wikipedia": "it:Teodorano"
      }
    },
    {
      "type": "node",
      "id": 394948448,
      "lat": 44.053433,
      "lon": 12.1784048,
      "timestamp": "2009-05-12T23:18:13Z",
      "version": 2,
      "changeset": 1170148,
      "user": "Cyclop",
      "uid": 41098,
      "tags": {
        "amenity": "drinking_water"
      }
    },
    {
      "type": "node",
      "id": 394948601,
      "lat": 44.0522189,
      "lon": 12.1761961,
      "timestamp": "2009-05-12T21:41:41Z",
      "version": 1,
      "changeset": 1168939,
      "user": "Cyclop",
      "uid": 41098,
      "tags": {
        "amenity": "drinking_water"
      }
    },
    {
      "type": "node",
      "id": 394948642,
      "lat": 44.0517813,
      "lon": 12.1756382,
      "timestamp": "2017-03-10T16:28:38Z",
      "version": 3,
      "changeset": 46743011,
      "user": "sbiribizio",
      "uid": 354284,
      "tags": {
        "name": "Borello",
        "place": "village",
        "wikidata": "Q2296497",
        "wikipedia": "it:Borello (Cesena)"
      }
    },
    {
      "type": "node",
      "id": 394949904,
      "lat": 44.0692112,
      "lon": 12.130105,
      "timestamp": "2022-01-16T09:08:06Z",
      "version": 3,
      "changeset": 116206492,
      "user": "Danysan95",
      "uid": 4425563,
      "tags": {
        "ele": "480",
        "name": "Monte Cavallo",
        "natural": "peak",
        "wikidata": "Q31223362"
      }
    },
    {
      "type": "node",
      "id": 394952736,
      "lat": 44.0494738,
      "lon": 12.2003832,
      "timestamp": "2011-07-12T16:02:12Z",
      "version": 2,
      "changeset": 8704535,
      "user": "bucci74",
      "uid": 189636,
      "tags": {
        "name": "Montevecchio",
        "place": "hamlet"
      }
    },
    {
      "type": "node",
      "id": 395030324,
      "lat": 44.0275193,
      "lon": 12.131258,
      "timestamp": "2009-05-12T23:18:46Z",
      "version": 1,
      "changeset": 1170148,
      "user": "Cyclop",
      "uid": 41098,
      "tags": {
        "name": "Piavola",
        "place": "village"
      }
    },
    {
      "type": "node",
      "id": 395030334,
      "lat": 44.028876,
      "lon": 12.1321284,
      "timestamp": "2020-02-16T17:26:53Z",
      "version": 2,
      "changeset": 81077119,
      "user": "Jinx71",
      "uid": 70012,
      "tags": {
        "name": "Osteria di Piavola",
        "place": "hamlet"
      }
    },
    {
      "type": "node",
      "id": 395030626,
      "lat": 44.0034773,
      "lon": 12.1108303,
      "timestamp": "2012-06-13T08:18:28Z",
      "version": 2,
      "changeset": 11882219,
      "user": "diegofreschi",
      "uid": 700704,
      "tags": {
        "name": "San Romano",
        "place": "hamlet"
      }
    },
    {
      "type": "node",
      "id": 395030631,
      "lat": 43.9941541,
      "lon": 12.1066246,
      "timestamp": "2009-05-12T23:20:16Z",
      "version": 1,
      "changeset": 1170148,
      "user": "Cyclop",
      "uid": 41098,
      "tags": {
        "amenity": "drinking_water"
      }
    },
    {
      "type": "node",
      "id": 395030653,
      "lat": 43.9939071,
      "lon": 12.1064959,
      "timestamp": "2021-06-19T13:37:15Z",
      "version": 2,
      "changeset": 106632526,
      "user": "gabriele_sani",
      "uid": 7078274,
      "tags": {
        "ele": "205",
        "name": "Linaro",
        "place": "village"
      }
    },
    {
      "type": "node",
      "id": 395030685,
      "lat": 43.9700811,
      "lon": 12.0783,
      "timestamp": "2010-07-12T09:29:07Z",
      "version": 2,
      "changeset": 5197104,
      "user": "Niccolo",
      "uid": 864,
      "tags": {
        "name": "Ranchio",
        "place": "village"
      }
    },
    {
      "type": "node",
      "id": 395031600,
      "lat": 43.970299,
      "lon": 12.0774201,
      "timestamp": "2013-11-30T17:35:27Z",
      "version": 2,
      "changeset": 19198173,
      "user": "RosTnT",
      "uid": 585860,
      "tags": {
        "amenity": "drinking_water"
      }
    },
    {
      "type": "node",
      "id": 395033597,
      "lat": 43.9223787,
      "lon": 11.9822817,
      "timestamp": "2009-05-12T23:36:03Z",
      "version": 1,
      "changeset": 1170148,
      "user": "Cyclop",
      "uid": 41098,
      "tags": {
        "amenity": "drinking_water"
      }
    },
    {
      "type": "node",
      "id": 395033641,
      "lat": 43.9230464,
      "lon": 11.9812002,
      "timestamp": "2009-05-12T23:36:44Z",
      "version": 1,
      "changeset": 1170148,
      "user": "Cyclop",
      "uid": 41098,
      "tags": {
        "amenity": "drinking_water"
      }
    },
    {
      "type": "node",
      "id": 395033650,
      "lat": 43.9241936,
      "lon": 11.9814077,
      "timestamp": "2017-03-10T16:28:38Z",
      "version": 4,
      "changeset": 46743011,
      "user": "sbiribizio",
      "uid": 354284,
      "tags": {
        "name": "Spinello",
        "place": "village",
        "wikidata": "Q3015806",
        "wikipedia": "it:Spinello (Santa Sofia)"
      }
    },
    {
      "type": "node",
      "id": 395033754,
      "lat": 43.9476709,
      "lon": 12.034544,
      "timestamp": "2012-07-26T09:02:37Z",
      "version": 2,
      "changeset": 12496141,
      "user": "diegofreschi",
      "uid": 700704,
      "tags": {
        "name": "Civorio",
        "place": "village"
      }
    },
    {
      "type": "node",
      "id": 395502730,
      "lat": 43.9616246,
      "lon": 12.2818718,
      "timestamp": "2017-03-10T16:28:38Z",
      "version": 3,
      "changeset": 46743011,
      "user": "sbiribizio",
      "uid": 354284,
      "tags": {
        "name": "Pietra dell Uso",
        "place": "hamlet",
        "wikidata": "Q3410090",
        "wikipedia": "it:Pietra dell'Uso"
      }
    },
    {
      "type": "node",
      "id": 395504314,
      "lat": 43.9527706,
      "lon": 12.2756233,
      "timestamp": "2009-05-13T19:39:08Z",
      "version": 1,
      "changeset": 1177184,
      "user": "Cyclop",
      "uid": 41098,
      "tags": {
        "amenity": "drinking_water"
      }
    },
    {
      "type": "node",
      "id": 395504405,
      "lat": 43.9528201,
      "lon": 12.2758465,
      "timestamp": "2009-05-13T19:39:33Z",
      "version": 1,
      "changeset": 1177184,
      "user": "Cyclop",
      "uid": 41098,
      "tags": {
        "name": "Montetiffi",
        "place": "hamlet"
      }
    },
    {
      "type": "node",
      "id": 395595083,
      "lat": 43.9464131,
      "lon": 12.1824027,
      "timestamp": "2016-01-16T14:04:53Z",
      "version": 2,
      "changeset": 36615713,
      "user": "GFS",
      "uid": 362065,
      "tags": {
        "name": "Monte Castello",
        "place": "village"
      }
    },
    {
      "type": "node",
      "id": 395603809,
      "lat": 43.9567436,
      "lon": 12.1957664,
      "timestamp": "2016-09-16T15:55:09Z",
      "version": 4,
      "changeset": 42205884,
      "user": "fayor",
      "uid": 743479,
      "tags": {
        "name": "Mercato Saraceno",
        "place": "village",
        "population": "6886"
      }
    },
    {
      "type": "node",
      "id": 395644162,
      "lat": 43.9880179,
      "lon": 12.1985989,
      "timestamp": "2009-05-13T20:51:58Z",
      "version": 1,
      "changeset": 1178381,
      "user": "Cyclop",
      "uid": 41098,
      "tags": {
        "name": "Borgostecchi",
        "place": "hamlet"
      }
    },
    {
      "type": "node",
      "id": 395646118,
      "lat": 44.0011082,
      "lon": 12.2015171,
      "timestamp": "2009-05-13T20:52:42Z",
      "version": 1,
      "changeset": 1178381,
      "user": "Cyclop",
      "uid": 41098,
      "tags": {
        "name": "Cella",
        "place": "hamlet"
      }
    },
    {
      "type": "node",
      "id": 395656586,
      "lat": 44.0111239,
      "lon": 12.2042465,
      "timestamp": "2019-11-23T14:11:36Z",
      "version": 2,
      "changeset": 77459441,
      "user": "Pab09",
      "uid": 178610,
      "tags": {
        "name": "Bivio Montegelli",
        "place": "hamlet"
      }
    },
    {
      "type": "node",
      "id": 395658459,
      "lat": 44.0238552,
      "lon": 12.2045641,
      "timestamp": "2009-05-13T20:56:05Z",
      "version": 1,
      "changeset": 1178381,
      "user": "Cyclop",
      "uid": 41098,
      "tags": {
        "name": "Gualdo",
        "place": "village"
      }
    },
    {
      "type": "node",
      "id": 395858272,
      "lat": 43.9550446,
      "lon": 12.2300739,
      "timestamp": "2017-03-10T16:28:38Z",
      "version": 3,
      "changeset": 46743011,
      "user": "sbiribizio",
      "uid": 354284,
      "tags": {
        "name": "Rontagnano",
        "place": "hamlet",
        "wikidata": "Q3941153",
        "wikipedia": "it:Rontagnano"
      }
    },
    {
      "type": "node",
      "id": 395860117,
      "lat": 43.9390641,
      "lon": 12.2257287,
      "timestamp": "2012-06-13T10:13:45Z",
      "version": 3,
      "changeset": 11883072,
      "user": "diegofreschi",
      "uid": 700704,
      "tags": {
        "name": "Barbotto",
        "place": "hamlet"
      }
    },
    {
      "type": "node",
      "id": 395870980,
      "lat": 43.9789521,
      "lon": 12.2451389,
      "timestamp": "2017-12-13T16:48:58Z",
      "version": 2,
      "changeset": 54601791,
      "user": "domen58",
      "uid": 6627076,
      "tags": {
        "name": "Montegelli",
        "place": "hamlet"
      }
    },
    {
      "type": "node",
      "id": 395872475,
      "lat": 44.0028495,
      "lon": 12.2374554,
      "timestamp": "2009-05-13T22:04:33Z",
      "version": 1,
      "changeset": 1179894,
      "user": "Cyclop",
      "uid": 41098,
      "tags": {
        "name": "Santa Maria Riopetra",
        "place": "hamlet"
      }
    },
    {
      "type": "node",
      "id": 395886527,
      "lat": 43.993835,
      "lon": 12.2722168,
      "timestamp": "2009-05-13T22:07:10Z",
      "version": 1,
      "changeset": 1179894,
      "user": "Cyclop",
      "uid": 41098,
      "tags": {
        "name": "Strigara",
        "place": "hamlet"
      }
    },
    {
      "type": "node",
      "id": 395906002,
      "lat": 44.020504,
      "lon": 12.3297234,
      "timestamp": "2009-05-13T22:10:55Z",
      "version": 1,
      "changeset": 1179894,
      "user": "Cyclop",
      "uid": 41098,
      "tags": {
        "name": "San Martino in Converseto",
        "place": "hamlet"
      }
    },
    {
      "type": "node",
      "id": 395910168,
      "lat": 44.0426574,
      "lon": 12.3719091,
      "timestamp": "2009-05-13T22:12:18Z",
      "version": 1,
      "changeset": 1179894,
      "user": "Cyclop",
      "uid": 41098,
      "tags": {
        "name": "Tribola",
        "place": "hamlet"
      }
    },
    {
      "type": "node",
      "id": 395911391,
      "lat": 44.0561367,
      "lon": 12.3769732,
      "timestamp": "2009-05-13T22:12:39Z",
      "version": 1,
      "changeset": 1179894,
      "user": "Cyclop",
      "uid": 41098,
      "tags": {
        "name": "Montalbano",
        "place": "hamlet"
      }
    },
    {
      "type": "node",
      "id": 404559989,
      "lat": 44.0716113,
      "lon": 11.972851,
      "timestamp": "2010-11-30T15:46:22Z",
      "version": 2,
      "changeset": 6495398,
      "user": "Killer Fiore",
      "uid": 310584,
      "tags": {
        "name": "San Savino",
        "place": "hamlet"
      }
    },
    {
      "type": "node",
      "id": 404560153,
      "lat": 44.0662019,
      "lon": 11.9700003,
      "timestamp": "2009-05-18T20:11:16Z",
      "version": 1,
      "changeset": 1240301,
      "user": "Cyclop",
      "uid": 41098,
      "tags": {
        "name": "Bagno",
        "place": "hamlet"
      }
    },
    {
      "type": "node",
      "id": 404578288,
      "lat": 44.0443641,
      "lon": 12.0048138,
      "timestamp": "2017-03-10T16:28:39Z",
      "version": 4,
      "changeset": 46743011,
      "user": "sbiribizio",
      "uid": 354284,
      "tags": {
        "name": "Cusercoli",
        "place": "village",
        "wikidata": "Q3699734",
        "wikipedia": "it:Cusercoli"
      }
    },
    {
      "type": "node",
      "id": 404596666,
      "lat": 44.0716377,
      "lon": 12.0313613,
      "timestamp": "2010-01-20T17:25:00Z",
      "version": 2,
      "changeset": 3668532,
      "user": "Darth Xiong",
      "uid": 68654,
      "tags": {
        "name": "Gualdo",
        "place": "hamlet"
      }
    },
    {
      "type": "node",
      "id": 404596850,
      "lat": 44.0785846,
      "lon": 12.0368752,
      "timestamp": "2017-03-10T16:28:39Z",
      "version": 4,
      "changeset": 46743011,
      "user": "sbiribizio",
      "uid": 354284,
      "tags": {
        "name": "Rico",
        "place": "hamlet",
        "wikidata": "Q2444265",
        "wikipedia": "it:Ricò"
      }
    },
    {
      "type": "node",
      "id": 404717532,
      "lat": 44.0398464,
      "lon": 12.4269752,
      "timestamp": "2021-09-01T15:51:16Z",
      "version": 3,
      "changeset": 110574761,
      "user": "Mannivu",
      "uid": 1950277,
      "tags": {
        "name": "San Michele",
        "place": "village",
        "wikidata": "Q18447977"
      }
    },
    {
      "type": "node",
      "id": 404718049,
      "lat": 44.0150749,
      "lon": 12.4073037,
      "timestamp": "2016-09-16T15:55:12Z",
      "version": 5,
      "changeset": 42205884,
      "user": "fayor",
      "uid": 743479,
      "tags": {
        "name": "Santo Marino",
        "place": "village",
        "population": "767"
      }
    },
    {
      "type": "node",
      "id": 404725339,
      "lat": 43.953122,
      "lon": 12.3712099,
      "timestamp": "2017-03-10T16:28:39Z",
      "version": 3,
      "changeset": 46743011,
      "user": "sbiribizio",
      "uid": 354284,
      "tags": {
        "name": "Pietracuta",
        "place": "village",
        "wikidata": "Q1110618",
        "wikipedia": "it:Pietracuta"
      }
    },
    {
      "type": "node",
      "id": 404725599,
      "lat": 43.9485435,
      "lon": 12.3655128,
      "timestamp": "2009-05-18T21:47:25Z",
      "version": 1,
      "changeset": 1242593,
      "user": "Cyclop",
      "uid": 41098,
      "tags": {
        "name": "Villanova",
        "place": "hamlet"
      }
    },
    {
      "type": "node",
      "id": 404727573,
      "lat": 43.8996436,
      "lon": 12.3582602,
      "timestamp": "2009-05-18T21:51:32Z",
      "version": 1,
      "changeset": 1242593,
      "user": "Cyclop",
      "uid": 41098,
      "tags": {
        "name": "Castelnuovo",
        "place": "hamlet"
      }
    },
    {
      "type": "node",
      "id": 404729256,
      "lat": 43.896174,
      "lon": 12.3477459,
      "timestamp": "2009-05-18T22:01:15Z",
      "version": 1,
      "changeset": 1242593,
      "user": "Cyclop",
      "uid": 41098,
      "tags": {
        "amenity": "drinking_water"
      }
    },
    {
      "type": "node",
      "id": 404729915,
      "lat": 43.867392,
      "lon": 12.3662461,
      "timestamp": "2017-03-06T07:19:51Z",
      "version": 3,
      "changeset": 46614997,
      "user": "agnostico",
      "uid": 3084054,
      "tags": {
        "name": "Pugliano",
        "place": "hamlet",
        "wikidata": "Q3925477",
        "wikipedia": "it:Pugliano"
      }
    },
    {
      "type": "node",
      "id": 404730587,
      "lat": 43.8415112,
      "lon": 12.3476429,
      "timestamp": "2014-06-03T22:03:31Z",
      "version": 2,
      "changeset": 22724016,
      "user": "armnum",
      "uid": 2105508,
      "tags": {
        "name": "Villaggio del Lago",
        "place": "hamlet",
        "source": "Conoscenza diretta"
      }
    },
    {
      "type": "node",
      "id": 404732660,
      "lat": 43.8456711,
      "lon": 12.317379,
      "timestamp": "2017-03-10T16:28:39Z",
      "version": 3,
      "changeset": 46743011,
      "user": "sbiribizio",
      "uid": 354284,
      "tags": {
        "name": "Soanne",
        "place": "hamlet",
        "wikidata": "Q2657966",
        "wikipedia": "it:Soanne"
      }
    },
    {
      "type": "node",
      "id": 404736268,
      "lat": 43.8399016,
      "lon": 12.3110876,
      "timestamp": "2018-06-15T17:48:50Z",
      "version": 2,
      "changeset": 59880127,
      "user": "sorcrosc",
      "uid": 160229,
      "tags": {
        "name": "Cermitosa",
        "place": "hamlet"
      }
    },
    {
      "type": "node",
      "id": 404737239,
      "lat": 43.8436593,
      "lon": 12.2840767,
      "timestamp": "2017-03-10T16:28:39Z",
      "version": 3,
      "changeset": 46743011,
      "user": "sbiribizio",
      "uid": 354284,
      "tags": {
        "name": "Maciano",
        "place": "village",
        "wikidata": "Q3842098",
        "wikipedia": "it:Maciano"
      }
    },
    {
      "type": "node",
      "id": 404738595,
      "lat": 43.859616,
      "lon": 12.2826004,
      "timestamp": "2018-06-16T17:37:04Z",
      "version": 2,
      "changeset": 59898981,
      "user": "sorcrosc",
      "uid": 160229,
      "tags": {
        "alt_name": "Santa Maria di Antico",
        "name": "Santa Maria",
        "place": "hamlet"
      }
    },
    {
      "type": "node",
      "id": 404738762,
      "lat": 43.9476166,
      "lon": 12.3192501,
      "timestamp": "2009-05-18T22:35:52Z",
      "version": 1,
      "changeset": 1242593,
      "user": "Cyclop",
      "uid": 41098,
      "tags": {
        "name": "Alessio",
        "place": "hamlet"
      }
    },
    {
      "type": "node",
      "id": 404742230,
      "lat": 44.0584799,
      "lon": 12.4058189,
      "timestamp": "2009-05-18T22:46:04Z",
      "version": 1,
      "changeset": 1242593,
      "user": "Cyclop",
      "uid": 41098,
      "tags": {
        "name": "Canonica",
        "place": "hamlet"
      }
    },
    {
      "type": "node",
      "id": 413539122,
      "lat": 43.9035075,
      "lon": 12.6447143,
      "timestamp": "2009-05-31T17:09:40Z",
      "version": 1,
      "changeset": 1370589,
      "user": "Samuele Battarra",
      "uid": 51179,
      "tags": {
        "ele": "114",
        "gfoss_id": "43461",
        "istat_id": "2147483647",
        "name": "Falda",
        "place": "hamlet",
        "population": "425",
        "source": "Istat 2001 - geodati.gfoss.it"
      }
    },
    {
      "type": "node",
      "id": 413539123,
      "lat": 43.8979582,
      "lon": 12.6356514,
      "timestamp": "2009-05-31T17:09:41Z",
      "version": 1,
      "changeset": 1370589,
      "user": "Samuele Battarra",
      "uid": 51179,
      "tags": {
        "ele": "225",
        "gfoss_id": "43469",
        "istat_id": "2147483647",
        "name": "Serbadone",
        "place": "hamlet",
        "population": "47",
        "source": "Istat 2001 - geodati.gfoss.it"
      }
    },
    {
      "type": "node",
      "id": 413539124,
      "lat": 43.8944319,
      "lon": 12.6360774,
      "timestamp": "2009-05-31T17:09:41Z",
      "version": 1,
      "changeset": 1370589,
      "user": "Samuele Battarra",
      "uid": 51179,
      "tags": {
        "ele": "227",
        "gfoss_id": "43463",
        "istat_id": "2147483647",
        "name": "Serra di Sotto",
        "place": "hamlet",
        "population": "123",
        "source": "Istat 2001 - geodati.gfoss.it"
      }
    },
    {
      "type": "node",
      "id": 413539125,
      "lat": 43.8915322,
      "lon": 12.6283748,
      "timestamp": "2021-09-01T15:51:17Z",
      "version": 2,
      "changeset": 110574761,
      "user": "Mannivu",
      "uid": 1950277,
      "tags": {
        "ele": "300",
        "gfoss_id": "43471",
        "istat_id": "2147483647",
        "name": "Serra di Sopra",
        "place": "hamlet",
        "population": "71",
        "source": "Istat 2001 - geodati.gfoss.it",
        "wikidata": "Q18448034"
      }
    },
    {
      "type": "node",
      "id": 414666154,
      "lat": 43.8591578,
      "lon": 12.6288917,
      "timestamp": "2010-09-26T20:05:09Z",
      "version": 2,
      "changeset": 5885263,
      "user": "Samuele Battarra",
      "uid": 51179,
      "tags": {
        "ele": "237",
        "gfoss_id": "43609",
        "istat_id": "2147483647",
        "name": "Cerreto Castello",
        "place": "hamlet",
        "population": "9",
        "source": "Istat 2001 - geodati.gfoss.it"
      }
    },
    {
      "type": "node",
      "id": 414666159,
      "lat": 43.8483216,
      "lon": 12.6425387,
      "timestamp": "2009-06-02T11:59:42Z",
      "version": 1,
      "changeset": 1403031,
      "user": "Samuele Battarra",
      "uid": 51179,
      "tags": {
        "ele": "238",
        "gfoss_id": "43442",
        "istat_id": "2147483647",
        "name": "Chetino",
        "place": "hamlet",
        "population": "11",
        "source": "Istat 2001 - geodati.gfoss.it"
      }
    },
    {
      "type": "node",
      "id": 414666164,
      "lat": 43.8536832,
      "lon": 12.6320759,
      "timestamp": "2009-06-02T11:59:42Z",
      "version": 1,
      "changeset": 1403031,
      "user": "Samuele Battarra",
      "uid": 51179,
      "tags": {
        "ele": "275",
        "gfoss_id": "43615",
        "istat_id": "2147483647",
        "name": "La Serra",
        "place": "hamlet",
        "population": "21",
        "source": "Istat 2001 - geodati.gfoss.it"
      }
    },
    {
      "type": "node",
      "id": 414666167,
      "lat": 43.8526109,
      "lon": 12.6370524,
      "timestamp": "2009-06-02T11:59:42Z",
      "version": 1,
      "changeset": 1403031,
      "user": "Samuele Battarra",
      "uid": 51179,
      "tags": {
        "ele": "289",
        "gfoss_id": "43610",
        "istat_id": "2147483647",
        "name": "Pedreto",
        "place": "hamlet",
        "population": "16",
        "source": "Istat 2001 - geodati.gfoss.it"
      }
    },
    {
      "type": "node",
      "id": 442330174,
      "lat": 43.8526309,
      "lon": 12.2260224,
      "timestamp": "2009-07-15T20:27:13Z",
      "version": 1,
      "changeset": 1839535,
      "user": "Samuele Battarra",
      "uid": 51179,
      "tags": {
        "name": "Monte Benedetto",
        "place": "hamlet"
      }
    },
    {
      "type": "node",
      "id": 442330846,
      "lat": 43.8418546,
      "lon": 12.242953,
      "timestamp": "2009-07-15T20:31:50Z",
      "version": 1,
      "changeset": 1839594,
      "user": "Samuele Battarra",
      "uid": 51179,
      "tags": {
        "ele": "578",
        "gfoss_id": "51584",
        "istat_id": "2147483647",
        "name": "Petrella Guidi",
        "place": "hamlet",
        "population": "17",
        "source": "Istat 2001 - geodati.gfoss.it"
      }
    },
    {
      "type": "node",
      "id": 442330847,
      "lat": 43.8229568,
      "lon": 12.2248477,
      "timestamp": "2009-07-15T20:31:50Z",
      "version": 1,
      "changeset": 1839594,
      "user": "Samuele Battarra",
      "uid": 51179,
      "tags": {
        "ele": "404",
        "gfoss_id": "51591",
        "istat_id": "2147483647",
        "name": "Frullo",
        "place": "hamlet",
        "population": "11",
        "source": "Istat 2001 - geodati.gfoss.it"
      }
    },
    {
      "type": "node",
      "id": 442330848,
      "lat": 43.8283869,
      "lon": 12.2125091,
      "timestamp": "2009-07-15T20:31:50Z",
      "version": 1,
      "changeset": 1839594,
      "user": "Samuele Battarra",
      "uid": 51179,
      "tags": {
        "ele": "575",
        "gfoss_id": "51590",
        "istat_id": "2147483647",
        "name": "Rocca Pratiffi",
        "place": "hamlet",
        "population": "27",
        "source": "Istat 2001 - geodati.gfoss.it"
      }
    },
    {
      "type": "node",
      "id": 443060500,
      "lat": 44.0065581,
      "lon": 12.610426,
      "timestamp": "2009-07-17T18:53:54Z",
      "version": 2,
      "changeset": 1856744,
      "user": "Samuele Battarra",
      "uid": 51179,
      "tags": {
        "ele": "20",
        "gfoss_id": "43600",
        "istat_id": "2147483647",
        "name": "Casalecchio",
        "place": "hamlet",
        "population": "9",
        "source": "Istat 2001 - geodati.gfoss.it"
      }
    },
    {
      "type": "node",
      "id": 443060505,
      "lat": 44.008246,
      "lon": 12.6011099,
      "timestamp": "2009-07-17T18:53:54Z",
      "version": 2,
      "changeset": 1856744,
      "user": "Samuele Battarra",
      "uid": 51179,
      "tags": {
        "ele": "37",
        "gfoss_id": "43564",
        "istat_id": "2147483647",
        "name": "Ghetto Tombanuova",
        "place": "hamlet",
        "population": "153",
        "source": "Istat 2001 - geodati.gfoss.it"
      }
    },
    {
      "type": "node",
      "id": 443060510,
      "lat": 43.9967666,
      "lon": 12.6033485,
      "timestamp": "2018-10-17T15:37:29Z",
      "version": 3,
      "changeset": 63615364,
      "user": "-WI-",
      "uid": 102162,
      "tags": {
        "ele": "29",
        "gfoss_id": "43581",
        "istat_id": "2147483647",
        "name": "Osteria del Fiume",
        "place": "hamlet",
        "population": "68",
        "source": "Istat 2001 - geodati.gfoss.it",
        "wikidata": "Q18447912"
      }
    },
    {
      "type": "node",
      "id": 443060516,
      "lat": 44.0215889,
      "lon": 12.5791251,
      "timestamp": "2009-07-17T18:47:45Z",
      "version": 1,
      "changeset": 1856699,
      "user": "Samuele Battarra",
      "uid": 51179,
      "tags": {
        "ele": "57",
        "gfoss_id": "43587",
        "istat_id": "2147483647",
        "name": "San Martino Monte L'Abate",
        "place": "hamlet",
        "population": "35",
        "source": "Istat 2001 - geodati.gfoss.it"
      }
    },
    {
      "type": "node",
      "id": 453540691,
      "lat": 43.7854061,
      "lon": 12.2985222,
      "timestamp": "2010-07-05T16:26:50Z",
      "version": 2,
      "changeset": 5143342,
      "user": "Miellino",
      "uid": 128189,
      "tags": {
        "amenity": "drinking_water"
      }
    },
    {
      "type": "node",
      "id": 453545611,
      "lat": 43.8156563,
      "lon": 12.3477859,
      "timestamp": "2021-06-16T17:55:58Z",
      "version": 2,
      "changeset": 106483534,
      "user": "Stewie2292",
      "uid": 13568212,
      "tags": {
        "access": "yes",
        "amenity": "drinking_water",
        "wheelchair": "limited"
      }
    },
    {
      "type": "node",
      "id": 453556333,
      "lat": 43.8470795,
      "lon": 12.3527878,
      "timestamp": "2022-01-04T03:11:21Z",
      "version": 6,
      "changeset": 115734732,
      "user": "Stewie2292",
      "uid": 13568212,
      "tags": {
        "ele": "1006",
        "mountain_pass": "yes",
        "name": "Passo San Marco",
        "natural": "saddle"
      }
    },
    {
      "type": "node",
      "id": 469842809,
      "lat": 43.9142679,
      "lon": 12.647722,
      "timestamp": "2010-07-31T09:03:41Z",
      "version": 3,
      "changeset": 5360931,
      "user": "Miellino",
      "uid": 128189,
      "tags": {
        "amenity": "drinking_water",
        "disused": "yes"
      }
    },
    {
      "type": "node",
      "id": 472486902,
      "lat": 43.8580857,
      "lon": 12.5066389,
      "timestamp": "2009-08-23T23:50:23Z",
      "version": 1,
      "changeset": 2237687,
      "user": "Samuele Battarra",
      "uid": 51179,
      "tags": {
        "amenity": "drinking_water"
      }
    },
    {
      "type": "node",
      "id": 472487175,
      "lat": 43.8433946,
      "lon": 12.5940887,
      "timestamp": "2015-08-16T19:12:48Z",
      "version": 2,
      "changeset": 33375992,
      "user": "Samuele Battarra",
      "uid": 51179,
      "tags": {
        "amenity": "drinking_water"
      }
    },
    {
      "type": "node",
      "id": 478165720,
      "lat": 43.8863432,
      "lon": 12.651944,
      "timestamp": "2009-08-31T19:22:22Z",
      "version": 2,
      "changeset": 2329562,
      "user": "Samuele Battarra",
      "uid": 51179,
      "tags": {
        "name": "Monte del Prete Basso",
        "place": "hamlet"
      }
    },
    {
      "type": "node",
      "id": 478178540,
      "lat": 43.9202935,
      "lon": 12.6426959,
      "timestamp": "2009-12-27T19:57:30Z",
      "version": 2,
      "changeset": 3466352,
      "user": "Samuele Battarra",
      "uid": 51179,
      "tags": {
        "name": "Fornace",
        "place": "hamlet"
      }
    },
    {
      "type": "node",
      "id": 520205408,
      "lat": 44.0722462,
      "lon": 12.5117474,
      "timestamp": "2016-09-20T16:11:14Z",
      "version": 2,
      "changeset": 42302787,
      "user": "fayor",
      "uid": 743479,
      "tags": {
        "name": "San Martino in Riparotta",
        "place": "hamlet",
        "population": "12"
      }
    },
    {
      "type": "node",
      "id": 520205411,
      "lat": 44.0735183,
      "lon": 12.4820191,
      "timestamp": "2009-10-04T15:54:07Z",
      "version": 1,
      "changeset": 2738091,
      "user": "Samuele Battarra",
      "uid": 51179,
      "tags": {
        "name": "Variano",
        "place": "hamlet"
      }
    },
    {
      "type": "node",
      "id": 520205415,
      "lat": 44.0742419,
      "lon": 12.4725408,
      "timestamp": "2016-09-20T16:11:07Z",
      "version": 2,
      "changeset": 42302787,
      "user": "fayor",
      "uid": 743479,
      "tags": {
        "name": "Casale-San Vito",
        "place": "hamlet"
      }
    },
    {
      "type": "node",
      "id": 575815646,
      "lat": 44.0764384,
      "lon": 12.1570759,
      "timestamp": "2009-11-30T11:11:20Z",
      "version": 7,
      "changeset": 3254465,
      "user": "gekid83",
      "uid": 196748,
      "tags": {
        "is_in": "Emilia Romagna",
        "name": "Formignano",
        "place": "village"
      }
    },
    {
      "type": "node",
      "id": 582868068,
      "lat": 43.9705067,
      "lon": 12.4836552,
      "timestamp": "2013-01-03T12:52:27Z",
      "version": 4,
      "changeset": 14511576,
      "user": "nicorsm",
      "uid": 634768,
      "tags": {
        "name": "Azzurro Shopping Center",
        "shop": "supermarket",
        "wheelchair": "yes"
      }
    },
    {
      "type": "node",
      "id": 597274521,
      "lat": 43.6628179,
      "lon": 12.1047922,
      "timestamp": "2013-09-03T09:16:07Z",
      "version": 2,
      "changeset": 17650171,
      "user": "Sembola",
      "uid": 151374,
      "tags": {
        "ele": "874",
        "mountain_pass": "yes",
        "name": "Passo di Tralarbia",
        "natural": "saddle"
      }
    },
    {
      "type": "node",
      "id": 621109586,
      "lat": 43.6787091,
      "lon": 12.6426178,
      "timestamp": "2017-12-03T01:00:26Z",
      "version": 4,
      "changeset": 54286151,
      "user": "Qvalcvno",
      "uid": 7127944,
      "tags": {
        "amenity": "drinking_water",
        "name": "Camper Site"
      }
    },
    {
      "type": "node",
      "id": 623598938,
      "lat": 43.5805001,
      "lon": 12.0971383,
      "timestamp": "2017-10-23T03:53:10Z",
      "version": 2,
      "changeset": 53166483,
      "user": "adivik2000",
      "uid": 250196,
      "tags": {
        "ele": "326",
        "gfoss_id": "47837",
        "istat_id": "2147483647",
        "name": "Gragnano",
        "place": "hamlet",
        "population": "184",
        "source": "Istat 2001 - geodati.gfoss.it",
        "wikidata": "Q18485344"
      }
    },
    {
      "type": "node",
      "id": 623598942,
      "lat": 43.5816703,
      "lon": 12.1036624,
      "timestamp": "2017-10-23T03:56:18Z",
      "version": 3,
      "changeset": 53166483,
      "user": "adivik2000",
      "uid": 250196,
      "tags": {
        "ele": "315",
        "gfoss_id": "47843",
        "istat_id": "2147483647",
        "name": "Rosadino",
        "place": "hamlet",
        "population": "21",
        "source": "Istat 2001 - geodati.gfoss.it",
        "wikidata": "Q18485962"
      }
    },