{
  "osm3s": {
    "timestamp_osm_date": "2021-07-09T23:59:59Z",
    "timestamp_osm_base": "2021-07-10T02:41:54Z",
    "copyright": "The data included in this document is from www.openstreetmap.org. The data is made available under ODbL."
  },
  "elements": [
    {
      "type": "node",
      "id": 150936988,
      "lat": 48.485671,
      "lon": -121.5976334,
      "timestamp": "2008-12-06T19:11:52Z",
      "version": 2,
      "changeset": 196981,
      "user": "davidearl",
      "uid": 3582,
      "tags": {
        "ele": "84",
        "gnis:Class": "Populated Place",
        "gnis:County": "Skagit",
        "gnis:County_num": "057",
        "gnis:ST_alpha": "WA",
        "gnis:ST_num": "53",
        "gnis:id": "1525156",
        "import_uuid": "bb7269ee-502a-5391-8056-e3ce0e66489c",
        "is_in": "Skagit,Washington,Wash.,WA,USA",
        "name": "Rockport",
        "place": "hamlet"
      }
    },
    {
      "type": "node",
      "id": 150952111,
      "lat": 48.7134615,
      "lon": -121.141233,
      "timestamp": "2018-10-19T17:02:33Z",
      "version": 4,
      "changeset": 63684870,
      "user": "hofoen",
      "uid": 52797,
      "tags": {
        "ele": "274",
        "gnis:Class": "Populated Place",
        "gnis:County": "Whatcom",
        "gnis:County_num": "073",
        "gnis:ST_alpha": "WA",
        "gnis:ST_num": "53",
        "gnis:id": "1518740",
        "import_uuid": "bb7269ee-502a-5391-8056-e3ce0e66489c",
        "is_in": "Whatcom,Washington,Wash.,WA,USA",
        "name": "Diablo",
        "place": "hamlet",
        "wikidata": "Q17198982",
        "wikipedia": "en:Diablo, Washington"
      }
    },
    {
      "type": "node",
      "id": 150958899,
      "lat": 48.5087292,
      "lon": -121.4737403,
      "timestamp": "2008-12-06T19:14:16Z",
      "version": 2,
      "changeset": 196981,
      "user": "davidearl",
      "uid": 3582,
      "tags": {
        "ele": "89",
        "gnis:Class": "Populated Place",
        "gnis:County": "Skagit",
        "gnis:County_num": "057",
        "gnis:ST_alpha": "WA",
        "gnis:ST_num": "53",
        "gnis:id": "1518108",
        "import_uuid": "bb7269ee-502a-5391-8056-e3ce0e66489c",
        "is_in": "Skagit,Washington,Wash.,WA,USA",
        "name": "Corkindale",
        "place": "hamlet"
      }
    },
    {
      "type": "node",
      "id": 150966910,
      "lat": 48.474837,
      "lon": -121.626523,
      "timestamp": "2008-12-06T19:15:30Z",
      "version": 2,
      "changeset": 196981,
      "user": "davidearl",
      "uid": 3582,
      "tags": {
        "ele": "69",
        "gnis:Class": "Populated Place",
        "gnis:County": "Skagit",
        "gnis:County_num": "057",
        "gnis:ST_alpha": "WA",
        "gnis:ST_num": "53",
        "gnis:id": "1529902",
        "import_uuid": "bb7269ee-502a-5391-8056-e3ce0e66489c",
        "is_in": "Skagit,Washington,Wash.,WA,USA",
        "name": "Sauk",
        "place": "hamlet"
      }
    },
    {
      "type": "node",
      "id": 150967747,
      "lat": 48.6737368,
      "lon": -121.247346,
      "timestamp": "2018-05-03T21:06:56Z",
      "version": 3,
      "changeset": 58660682,
      "user": "Edward",
      "uid": 364,
      "tags": {
        "ele": "158",
        "gnis:Class": "Populated Place",
        "gnis:County": "Whatcom",
        "gnis:County_num": "073",
        "gnis:ST_alpha": "WA",
        "gnis:ST_num": "53",
        "gnis:id": "1523641",
        "import_uuid": "bb7269ee-502a-5391-8056-e3ce0e66489c",
        "is_in": "Whatcom,Washington,Wash.,WA,USA",
        "name": "Newhalem",
        "place": "hamlet",
        "wikidata": "Q3474237"
      }
    },
    {
      "type": "node",
      "id": 150969722,
      "lat": 48.5268285,
      "lon": -121.4330076,
      "timestamp": "2019-10-14T22:58:37Z",
      "version": 3,
      "changeset": 75690905,
      "user": "Glassman",
      "uid": 447903,
      "tags": {
        "ele": "96",
        "gnis:County": "Skagit",
        "gnis:County_num": "057",
        "gnis:ST_alpha": "WA",
        "gnis:ST_num": "53",
        "gnis:id": "1522717",
        "import_uuid": "bb7269ee-502a-5391-8056-e3ce0e66489c",
        "name": "Marblemount",
        "place": "hamlet"
      }
    },
    {
      "type": "node",
      "id": 150977225,
      "lat": 48.5840104,
      "lon": -121.390405,
      "timestamp": "2008-12-06T19:16:24Z",
      "version": 2,
      "changeset": 196981,
      "user": "davidearl",
      "uid": 3582,
      "tags": {
        "ele": "113",
        "gnis:Class": "Populated Place",
        "gnis:County": "Skagit",
        "gnis:County_num": "057",
        "gnis:ST_alpha": "WA",
        "gnis:ST_num": "53",
        "gnis:id": "1530569",
        "import_uuid": "bb7269ee-502a-5391-8056-e3ce0e66489c",
        "is_in": "Skagit,Washington,Wash.,WA,USA",
        "name": "Portage",
        "place": "hamlet"
      }
    },
    {
      "type": "node",
      "id": 349028214,
      "lat": 48.8312379,
      "lon": -121.602677,
      "timestamp": "2020-11-12T17:46:52Z",
      "version": 7,
      "changeset": 94010934,
      "user": "mtbgreg1",
      "uid": 9051711,
      "tags": {
        "ele": "2784",
        "gnis:Cell": "Mount Shuksan",
        "gnis:Class": "Summit",
        "gnis:County": "Whatcom",
        "gnis:County_num": "73",
        "gnis:ST_alph": "WA",
        "gnis:ST_num": "53",
        "gnis:id": "1525722",
        "is_in:country": "USA",
        "is_in:county": "Whatcom",
        "is_in:state_code": "WA",
        "name": "Mount Shuksan",
        "natural": "peak",
        "source": "USGS",
        "wikidata": "Q1788022"
      }
    },
    {
      "type": "node",
      "id": 349028227,
      "lat": 48.8364854,
      "lon": -121.5864663,
      "timestamp": "2020-09-18T03:52:46Z",
      "version": 4,
      "changeset": 91078888,
      "user": "ppjj",
      "uid": 6771650,
      "tags": {
        "ele": "2530",
        "gnis:Cell": "Mount Shuksan",
        "gnis:Class": "Summit",
        "gnis:County": "Whatcom",
        "gnis:County_num": "73",
        "gnis:ST_alph": "WA",
        "gnis:ST_num": "53",
        "gnis:county_id": "073",
        "gnis:created": "09/10/1979",
        "gnis:feature_id": "1523716",
        "gnis:id": "1523716",
        "gnis:state_id": "53",
        "is_in:country": "USA",
        "is_in:county": "Whatcom",
        "is_in:state_code": "WA",
        "name": "Nooksack Tower",
        "natural": "peak",
        "source": "USGS",
        "wikidata": "Q14713855"
      }
    },
    {
      "type": "node",
      "id": 349028379,
      "lat": 48.6615166,
      "lon": -121.121231,
      "timestamp": "2018-05-03T21:07:02Z",
      "version": 3,
      "changeset": 58660682,
      "user": "Edward",
      "uid": 364,
      "tags": {
        "ele": "2348",
        "gnis:Cell": "Ross Dam",
        "gnis:Class": "Summit",
        "gnis:County": "Whatcom",
        "gnis:County_num": "73",
        "gnis:ST_alph": "WA",
        "gnis:ST_num": "53",
        "gnis:county_id": "073",
        "gnis:created": "09/10/1979",
        "gnis:feature_id": "1517969",
        "gnis:id": "1517969",
        "gnis:state_id": "53",
        "is_in:country": "USA",
        "is_in:county": "Whatcom",
        "is_in:state_code": "WA",
        "name": "Colonial Peak",
        "natural": "peak",
        "source": "USGS",
        "wikidata": "Q5148356"
      }
    },
    {
      "type": "node",
      "id": 349028391,
      "lat": 48.7742935,
      "lon": -121.299573,
      "timestamp": "2018-05-03T21:07:09Z",
      "version": 3,
      "changeset": 58660682,
      "user": "Edward",
      "uid": 364,
      "tags": {
        "ele": "2448",
        "gnis:Cell": "Mount Challenger",
        "gnis:Class": "Summit",
        "gnis:County": "Whatcom",
        "gnis:County_num": "73",
        "gnis:ST_alph": "WA",
        "gnis:ST_num": "53",
        "gnis:county_id": "073",
        "gnis:created": "09/10/1979",
        "gnis:feature_id": "1527016",
        "gnis:id": "1527016",
        "gnis:state_id": "53",
        "is_in:country": "USA",
        "is_in:county": "Whatcom",
        "is_in:state_code": "WA",
        "name": "Mount Terror",
        "natural": "peak",
        "source": "USGS",
        "wikidata": "Q6924090"
      }
    },
    {
      "type": "node",
      "id": 349028397,
      "lat": 48.8190158,
      "lon": -121.342631,
      "timestamp": "2018-05-03T21:07:28Z",
      "version": 3,
      "changeset": 58660682,
      "user": "Edward",
      "uid": 364,
      "tags": {
        "ele": "2443",
        "gnis:Cell": "Mount Challenger",
        "gnis:Class": "Summit",
        "gnis:County": "Whatcom",
        "gnis:County_num": "73",
        "gnis:ST_alph": "WA",
        "gnis:ST_num": "53",
        "gnis:county_id": "073",
        "gnis:created": "09/10/1979",
        "gnis:feature_id": "1524379",
        "gnis:id": "1524379",
        "gnis:state_id": "53",
        "is_in:country": "USA",
        "is_in:county": "Whatcom",
        "is_in:state_code": "WA",
        "name": "Phantom Peak",
        "natural": "peak",
        "source": "USGS",
        "wikidata": "Q14713870"
      }
    },
    {
      "type": "node",
      "id": 349028401,
      "lat": 48.8306832,
      "lon": -121.273185,
      "timestamp": "2018-05-03T21:07:06Z",
      "version": 3,
      "changeset": 58660682,
      "user": "Edward",
      "uid": 364,
      "tags": {
        "ele": "2477",
        "gnis:Cell": "Mount Challenger",
        "gnis:Class": "Summit",
        "gnis:County": "Whatcom",
        "gnis:County_num": "73",
        "gnis:ST_alph": "WA",
        "gnis:ST_num": "53",
        "gnis:county_id": "073",
        "gnis:created": "09/10/1979",
        "gnis:feature_id": "1522575",
        "gnis:id": "1522575",
        "gnis:state_id": "53",
        "is_in:country": "USA",
        "is_in:county": "Whatcom",
        "is_in:state_code": "WA",
        "name": "Luna Peak",
        "natural": "peak",
        "source": "USGS",
        "wikidata": "Q6703581"
      }
    },
    {
      "type": "node",
      "id": 349028403,
      "lat": 48.8267936,
      "lon": -121.341243,
      "timestamp": "2018-05-03T21:07:23Z",
      "version": 3,
      "changeset": 58660682,
      "user": "Edward",
      "uid": 364,
      "tags": {
        "ele": "2476",
        "gnis:Cell": "Mount Challenger",
        "gnis:Class": "Summit",
        "gnis:County": "Whatcom",
        "gnis:County_num": "73",
        "gnis:ST_alph": "WA",
        "gnis:ST_num": "53",
        "gnis:county_id": "073",
        "gnis:created": "09/10/1979",
        "gnis:feature_id": "1518339",
        "gnis:id": "1518339",
        "gnis:state_id": "53",
        "is_in:country": "USA",
        "is_in:county": "Whatcom",
        "is_in:state_code": "WA",
        "name": "Crooked Thumb Peak",
        "natural": "peak",
        "source": "USGS",
        "wikidata": "Q14713627"
      }
    },
    {
      "type": "node",
      "id": 349028405,
      "lat": 48.8363323,
      "lon": -121.3421502,
      "timestamp": "2020-09-27T16:33:05Z",
      "version": 4,
      "changeset": 91590047,
      "user": "ppjj",
      "uid": 6771650,
      "tags": {
        "ele": "2501",
        "gnis:Cell": "Mount Challenger",
        "gnis:Class": "Summit",
        "gnis:County": "Whatcom",
        "gnis:County_num": "73",
        "gnis:ST_alph": "WA",
        "gnis:ST_num": "53",
        "gnis:county_id": "073",
        "gnis:created": "09/10/1979",
        "gnis:feature_id": "1517614",
        "gnis:id": "1517614",
        "gnis:state_id": "53",
        "is_in:country": "USA",
        "is_in:county": "Whatcom",
        "is_in:state_code": "WA",
        "name": "Mount Challenger",
        "natural": "peak",
        "source": "USGS",
        "wikidata": "Q14713829"
      }
    },
    {
      "type": "node",
      "id": 349028442,
      "lat": 48.6945739,
      "lon": -121.042618,
      "timestamp": "2018-10-19T17:07:46Z",
      "version": 4,
      "changeset": 63684996,
      "user": "hofoen",
      "uid": 52797,
      "tags": {
        "ele": "2225",
        "gnis:Cell": "Ross Dam",
        "gnis:Class": "Summit",
        "gnis:County": "Whatcom",
        "gnis:County_num": "73",
        "gnis:ST_alph": "WA",
        "gnis:ST_num": "53",
        "gnis:county_id": "073",
        "gnis:created": "09/10/1979",
        "gnis:feature_id": "1525279",
        "gnis:id": "1525279",
        "gnis:state_id": "53",
        "is_in:country": "USA",
        "is_in:county": "Whatcom",
        "is_in:state_code": "WA",
        "name": "Ruby Mountain",
        "natural": "peak",
        "source": "USGS",
        "wikidata": "Q49070289",
        "wikipedia": "en:Ruby Mountain (Washington)"
      }
    },
    {
      "type": "node",
      "id": 349028454,
      "lat": 48.7520734,
      "lon": -121.128178,
      "timestamp": "2018-10-19T17:02:33Z",
      "version": 4,
      "changeset": 63684870,
      "user": "hofoen",
      "uid": 52797,
      "tags": {
        "ele": "1863",
        "gnis:Cell": "Mount Prophet",
        "gnis:Class": "Summit",
        "gnis:County": "Whatcom",
        "gnis:County_num": "73",
        "gnis:ST_alph": "WA",
        "gnis:ST_num": "53",
        "gnis:county_id": "073",
        "gnis:created": "09/10/1979",
        "gnis:feature_id": "1526129",
        "gnis:id": "1526129",
        "gnis:state_id": "53",
        "is_in:country": "USA",
        "is_in:county": "Whatcom",
        "is_in:state_code": "WA",
        "name": "Sourdough Mountain",
        "natural": "peak",
        "source": "USGS",
        "wikidata": "Q17349508",
        "wikipedia": "en:Sourdough Mountain (Whatcom County, Washington)"
      }
    },
    {
      "type": "node",
      "id": 356544363,
      "lat": 48.7540133,
      "lon": -121.481525,
      "timestamp": "2018-05-03T21:07:08Z",
      "version": 3,
      "changeset": 58660682,
      "user": "Edward",
      "uid": 364,
      "tags": {
        "ele": "2328",
        "gnis:Cell": "Mount Blum",
        "gnis:Class": "Summit",
        "gnis:County": "Whatcom",
        "gnis:County_num": "73",
        "gnis:ST_alph": "WA",
        "gnis:ST_num": "53",
        "gnis:county_id": "073",
        "gnis:created": "09/10/1979",
        "gnis:feature_id": "1516730",
        "gnis:id": "1516730",
        "gnis:state_id": "53",
        "is_in:country": "USA",
        "is_in:county": "Whatcom",
        "is_in:state_code": "WA",
        "name": "Mount Blum",
        "natural": "peak",
        "source": "USGS",
        "wikidata": "Q6919761"
      }
    },
    {
      "type": "node",
      "id": 356544719,
      "lat": 48.7292941,
      "lon": -121.202902,
      "timestamp": "2018-05-03T21:07:03Z",
      "version": 3,
      "changeset": 58660682,
      "user": "Edward",
      "uid": 364,
      "tags": {
        "ele": "2137",
        "gnis:Cell": "Diablo Dam",
        "gnis:Class": "Summit",
        "gnis:County": "Whatcom",
        "gnis:County_num": "73",
        "gnis:ST_alph": "WA",
        "gnis:ST_num": "53",
        "gnis:county_id": "073",
        "gnis:created": "09/10/1979",
        "gnis:feature_id": "1518511",
        "gnis:id": "1518511",
        "gnis:state_id": "53",
        "is_in:country": "USA",
        "is_in:county": "Whatcom",
        "is_in:state_code": "WA",
        "name": "Davis Peak",
        "natural": "peak",
        "source": "USGS",
        "wikidata": "Q5241948"
      }
    },
    {
      "type": "node",
      "id": 356544735,
      "lat": 48.7715158,
      "lon": -121.293184,
      "timestamp": "2018-05-03T21:07:26Z",
      "version": 3,
      "changeset": 58660682,
      "user": "Edward",
      "uid": 364,
      "tags": {
        "ele": "2421",
        "gnis:Cell": "Mount Challenger",
        "gnis:Class": "Summit",
        "gnis:County": "Whatcom",
        "gnis:County_num": "73",
        "gnis:ST_alph": "WA",
        "gnis:ST_num": "53",
        "gnis:county_id": "073",
        "gnis:created": "09/10/1979",
        "gnis:feature_id": "1518662",
        "gnis:id": "1518662",
        "gnis:state_id": "53",
        "is_in:country": "USA",
        "is_in:county": "Whatcom",
        "is_in:state_code": "WA",
        "name": "Mount Degenhardt",
        "natural": "peak",
        "source": "USGS",
        "wikidata": "Q14713830"
      }
    },
    {
      "type": "node",
      "id": 356544739,
      "lat": 48.9112432,
      "lon": -121.016235,
      "timestamp": "2017-09-24T21:12:45Z",
      "version": 5,
      "changeset": 52339545,
      "user": "nyuriks",
      "uid": 339581,
      "tags": {
        "ele": "1855",
        "gnis:Cell": "Hozomeen Mountain",
        "gnis:Class": "Summit",
        "gnis:County": "Whatcom",
        "gnis:County_num": "73",
        "gnis:ST_alph": "WA",
        "gnis:ST_num": "53",
        "gnis:county_id": "073",
        "gnis:created": "09/10/1979",
        "gnis:feature_id": "1518686",
        "gnis:id": "1518686",
        "gnis:state_id": "53",
        "is_in:country": "USA",
        "is_in:county": "Whatcom",
        "is_in:state_code": "WA",
        "name": "Desolation Peak",
        "natural": "peak",
        "source": "USGS",
        "wikidata": "Q3024539",
        "wikipedia": "en:Desolation Peak (Washington)"
      }
    },
    {
      "type": "node",
      "id": 356544996,
      "lat": 48.8123492,
      "lon": -121.323186,
      "timestamp": "2018-05-03T21:07:26Z",
      "version": 3,
      "changeset": 58660682,
      "user": "Edward",
      "uid": 364,
      "tags": {
        "ele": "2474",
        "gnis:Cell": "Mount Challenger",
        "gnis:Class": "Summit",
        "gnis:County": "Whatcom",
        "gnis:County_num": "73",
        "gnis:ST_alph": "WA",
        "gnis:ST_num": "53",
        "gnis:county_id": "073",
        "gnis:created": "09/10/1979",
        "gnis:feature_id": "1519858",
        "gnis:id": "1519858",
        "gnis:state_id": "53",
        "is_in:country": "USA",
        "is_in:county": "Whatcom",
        "is_in:state_code": "WA",
        "name": "Mount Fury",
        "natural": "peak",
        "source": "USGS",
        "wikidata": "Q14713831"
      }
    },
    {
      "type": "node",
      "id": 356545213,
      "lat": 48.5004011,
      "lon": -121.197339,
      "timestamp": "2021-06-27T14:51:14Z",
      "version": 3,
      "changeset": 107039780,
      "user": "Glassman",
      "uid": 447903,
      "tags": {
        "ele": "2140",
        "gnis:Cell": "Eldorado Peak",
        "gnis:Class": "Summit",
        "gnis:County": "Skagit",
        "gnis:County_num": "57",
        "gnis:ST_alph": "WA",
        "gnis:ST_num": "53",
        "gnis:county_id": "057",
        "gnis:created": "09/10/1979",
        "gnis:feature_id": "1520759",
        "gnis:id": "1520759",
        "gnis:state_id": "53",
        "is_in:country": "USA",
        "is_in:county": "Skagit",
        "is_in:state_code": "WA",
        "name": "Hidden Lake Peaks",
        "natural": "peak",
        "source": "USGS",
        "wikidata": "Q49036206",
        "wikipedia": "en:Hidden Lake Peaks"
      }
    },
    {
      "type": "node",
      "id": 356546106,
      "lat": 48.7479074,
      "lon": -121.082621,
      "timestamp": "2018-10-19T17:07:46Z",
      "version": 4,
      "changeset": 63684996,
      "user": "hofoen",
      "uid": 52797,
      "tags": {
        "ele": "1498",
        "gnis:Cell": "Ross Dam",
        "gnis:Class": "Summit",
        "gnis:County": "Whatcom",
        "gnis:County_num": "73",
        "gnis:ST_alph": "WA",
        "gnis:ST_num": "53",
        "gnis:county_id": "073",
        "gnis:created": "09/10/1979",
        "gnis:feature_id": "1524412",
        "gnis:id": "1524412",
        "gnis:state_id": "53",
        "is_in:country": "USA",
        "is_in:county": "Whatcom",
        "is_in:state_code": "WA",
        "name": "Pierce Mountain",
        "natural": "peak",
        "source": "USGS",
        "wikidata": "Q49061125",
        "wikipedia": "en:Pierce Mountain (Washington)"
      }
    },
    {
      "type": "node",
      "id": 356546163,
      "lat": 48.8487405,
      "lon": -121.162626,
      "timestamp": "2018-05-03T21:07:08Z",
      "version": 3,
      "changeset": 58660682,
      "user": "Edward",
      "uid": 364,
      "tags": {
        "ele": "2315",
        "gnis:Cell": "Mount Prophet",
        "gnis:Class": "Summit",
        "gnis:County": "Whatcom",
        "gnis:County_num": "73",
        "gnis:ST_alph": "WA",
        "gnis:ST_num": "53",
        "gnis:county_id": "073",
        "gnis:created": "09/10/1979",
        "gnis:feature_id": "1524659",
        "gnis:id": "1524659",
        "gnis:state_id": "53",
        "is_in:country": "USA",
        "is_in:county": "Whatcom",
        "is_in:state_code": "WA",
        "name": "Mount Prophet",
        "natural": "peak",
        "source": "USGS",
        "wikidata": "Q6923058"
      }
    },
    {
      "type": "node",
      "id": 356546285,
      "lat": 48.7687416,
      "lon": -121.034842,
      "timestamp": "2018-10-19T17:02:34Z",
      "version": 3,
      "changeset": 63684870,
      "user": "hofoen",
      "uid": 52797,
      "tags": {
        "ele": "596",
        "gnis:Cell": "Pumpkin Mountain",
        "gnis:Class": "Summit",
        "gnis:County": "Whatcom",
        "gnis:County_num": "73",
        "gnis:ST_alph": "WA",
        "gnis:ST_num": "53",
        "gnis:county_id": "073",
        "gnis:created": "09/10/1979",
        "gnis:feature_id": "1525193",
        "gnis:id": "1525193",
        "gnis:state_id": "53",
        "is_in:country": "USA",
        "is_in:county": "Whatcom",
        "is_in:state_code": "WA",
        "name": "Roland Point",
        "natural": "peak",
        "source": "USGS",
        "wikidata": "Q49069320"
      }
    },
    {
      "type": "node",
      "id": 356546365,
      "lat": 48.8195692,
      "lon": -121.548749,
      "timestamp": "2021-06-10T06:52:57Z",
      "version": 4,
      "changeset": 106133788,
      "user": "jake-low",
      "uid": 8794039,
      "tags": {
        "alt_name": "Cloudcap Peak",
        "ele": "2229",
        "gnis:Cell": "Mount Shuksan",
        "gnis:Class": "Summit",
        "gnis:County": "Whatcom",
        "gnis:County_num": "73",
        "gnis:ST_alph": "WA",
        "gnis:ST_num": "53",
        "gnis:county_id": "073",
        "gnis:created": "09/10/1979",
        "gnis:feature_id": "1525539",
        "gnis:id": "1525539",
        "gnis:state_id": "53",
        "is_in:country": "USA",
        "is_in:county": "Whatcom",
        "is_in:state_code": "WA",
        "name": "Seahpo Peak",
        "natural": "peak",
        "source": "USGS",
        "wikidata": "Q7440497"
      }
    },
    {
      "type": "node",
      "id": 356546813,
      "lat": 48.7065138,
      "lon": -121.355129,
      "timestamp": "2018-05-03T21:07:16Z",
      "version": 3,
      "changeset": 58660682,
      "user": "Edward",
      "uid": 364,
      "tags": {
        "ele": "2124",
        "gnis:Cell": "Mount Triumph",
        "gnis:Class": "Summit",
        "gnis:County": "Whatcom",
        "gnis:County_num": "73",
        "gnis:ST_alph": "WA",
        "gnis:ST_num": "53",
        "gnis:county_id": "073",
        "gnis:created": "09/10/1979",
        "gnis:feature_id": "1527387",
        "gnis:id": "1527387",
        "gnis:state_id": "53",
        "is_in:country": "USA",
        "is_in:county": "Whatcom",
        "is_in:state_code": "WA",
        "name": "Mount Triumph",
        "natural": "peak",
        "source": "USGS",
        "wikidata": "Q8529297"
      }
    },
    {
      "type": "node",
      "id": 356546936,
      "lat": 48.8585394,
      "lon": -121.3746078,
      "timestamp": "2020-08-29T02:45:04Z",
      "version": 4,
      "changeset": 90104460,
      "user": "ppjj Imports+NHD",
      "uid": 10878749,
      "tags": {
        "ele": "2067",
        "gnis:Cell": "Mount Blum",
        "gnis:Class": "Summit",
        "gnis:County": "Whatcom",
        "gnis:County_num": "73",
        "gnis:ST_alph": "WA",
        "gnis:ST_num": "53",
        "gnis:county_id": "073",
        "gnis:created": "09/10/1979",
        "gnis:feature_id": "1528017",
        "gnis:id": "1528017",
        "gnis:state_id": "53",
        "is_in:country": "USA",
        "is_in:county": "Whatcom",
        "is_in:state_code": "WA",
        "name": "Whatcom Peak",
        "natural": "peak",
        "source": "USGS",
        "wikidata": "Q14713941"
      }
    },
    {
      "type": "node",
      "id": 356547079,
      "lat": 48.4631786,
      "lon": -121.1651145,
      "timestamp": "2019-09-06T05:24:54Z",
      "version": 2,
      "changeset": 74157221,
      "user": "geodependent",
      "uid": 7672548,
      "tags": {
        "ele": "412",
        "fee": "yes",
        "gnis:county_id": "057",
        "gnis:created": "07/01/1990",
        "gnis:feature_id": "1528619",
        "gnis:state_id": "53",
        "name": "Mineral Park Campground",
        "operator": "National Forest Service",
        "tourism": "camp_site"
      }
    },
    {
      "type": "node",
      "id": 830774206,
      "lat": 48.4676137,
      "lon": -121.0590242,
      "timestamp": "2016-07-02T17:12:42Z",
      "version": 8,
      "changeset": 40444486,
      "user": "puzzlr",
      "uid": 572978,
      "tags": {
        "ele": "1643",
        "name": "Cascade Pass",
        "name:fr": "Col Cascade",
        "natural": "saddle"
      }
    },
    {
      "type": "node",
      "id": 917877780,
      "lat": 48.6888,
      "lon": -121.0951,
      "timestamp": "2015-04-21T00:18:05Z",
      "version": 2,
      "changeset": 30366844,
      "user": "talapus",
      "uid": 2812957,
      "tags": {
        "backcountry": "no",
        "caravans": "yes",
        "fee": "yes",
        "name": "Colonial Creek Campground",
        "operator": "North Cascades National Park",
        "tents": "yes",
        "tourism": "camp_site"
      }
    },
    {
      "type": "node",
      "id": 1350998598,
      "lat": 48.8557643,
      "lon": -121.0191019,
      "timestamp": "2015-04-21T05:19:41Z",
      "version": 2,
      "changeset": 30368675,
      "user": "talapus",
      "uid": 2812957,
      "tags": {
        "name": "Dry Creek",
        "operator": "North Cascades National Park",
        "tents": "4",
        "tourism": "camp_site"
      }
    },
    {
      "type": "node",
      "id": 1355499433,
      "lat": 48.6712069,
      "lon": -121.2610174,
      "timestamp": "2011-07-09T20:09:58Z",
      "version": 2,
      "changeset": 8677669,
      "user": "jjimmyb",
      "uid": 482894,
      "tags": {
        "caravans": "yes",
        "fee": "yes",
        "name": "Newhalem Creek Campground",
        "tents": "yes",
        "tourism": "camp_site"
      }
    },
    {
      "type": "node",
      "id": 1907973030,
      "lat": 48.887487,
      "lon": -121.5239248,
      "timestamp": "2020-09-15T02:14:03Z",
      "version": 4,
      "changeset": 90891097,
      "user": "ppjj",
      "uid": 6771650,
      "tags": {
        "backcountry": "yes",
        "horses": "no",
        "maxtents": "3",
        "name": "Boundary Camp",
        "operator": "North Cascades National Park",
        "tourism": "camp_site"
      }
    },
    {
      "type": "node",
      "id": 1907973046,
      "lat": 48.8829326,
      "lon": -121.5342917,
      "timestamp": "2020-09-15T02:14:03Z",
      "version": 4,
      "changeset": 90891097,
      "user": "ppjj",
      "uid": 6771650,
      "tags": {
        "ele": "1544",
        "name": "Hannegan Pass",
        "natural": "saddle"
      }
    },
    {
      "type": "node",
      "id": 1907973050,
      "lat": 48.8945213,
      "lon": -121.4827522,
      "timestamp": "2015-04-20T06:24:38Z",
      "version": 3,
      "changeset": 30347223,
      "user": "talapus",
      "uid": 2812957,
      "tags": {
        "backcountry": "yes",
        "horses": "no",
        "name": "Silesia",
        "operator": "North Cascades National Park",
        "tents": "2",
        "tourism": "camp_site"
      }
    },
    {
      "type": "node",
      "id": 1928163691,
      "lat": 48.9097043,
      "lon": -121.5921406,
      "timestamp": "2015-04-20T06:24:38Z",
      "version": 2,
      "changeset": 30347223,
      "user": "talapus",
      "uid": 2812957,
      "tags": {
        "backcountry": "no",
        "tourism": "camp_site"
      }
    },
    {
      "type": "node",
      "id": 1931439544,
      "lat": 48.7390136,
      "lon": -121.599737,
      "timestamp": "2021-01-02T04:39:20Z",
      "version": 2,
      "changeset": 96794361,
      "user": "Omnific",
      "uid": 1408522,
      "tags": {
        "access": "yes",
        "backcountry": "no",
        "caravans": "yes",
        "dog": "leashed",
        "drinking_water": "yes",
        "fee": "yes",
        "group_only": "no",
        "internet_access": "no",
        "name": "Shannon Creek Campground",
        "openfire": "yes",
        "operator": "USDA Forest Service",
        "power_supply": "no",
        "reservation": "recommended",
        "shower": "no",
        "toilets": "yes",
        "tourism": "camp_site",
        "website": "https://www.fs.usda.gov/recarea/mbs/recarea/?recid=17642"
      }
    },
    {
      "type": "node",
      "id": 1943591423,
      "lat": 48.7749174,
      "lon": -121.0588248,
      "timestamp": "2018-08-30T01:48:08Z",
      "version": 3,
      "changeset": 62123711,
      "user": "Alexander Halaszyn",
      "uid": 8754682,
      "tags": {
        "access": "permit",
        "backcountry": "no",
        "horse": "no",
        "name": "Big Beaver Boat Camp",
        "operator": "North Cascades National Park",
        "tents": "8",
        "tourism": "camp_site"
      }
    },
    {
      "type": "node",
      "id": 1943591425,
      "lat": 48.7524871,
      "lon": -121.0284963,
      "timestamp": "2015-04-21T00:18:04Z",
      "version": 2,
      "changeset": 30366844,
      "user": "talapus",
      "uid": 2812957,
      "tags": {
        "backcountry": "no",
        "name": "Cougar Island",
        "operator": "North Cascades National Park",
        "tents": "2",
        "tourism": "camp_site"
      }
    },
    {
      "type": "node",
      "id": 1943591428,
      "lat": 48.8350335,
      "lon": -121.0237541,
      "timestamp": "2017-12-28T19:11:10Z",
      "version": 3,
      "changeset": 54991513,
      "user": "Natfoot",
      "uid": 567792,
      "tags": {
        "access": "boat",
        "backcountry": "no",
        "internet_access": "no",
        "name": "Devil's Junction",
        "operator": "North Cascades National Park",
        "tents": "1",
        "tourism": "camp_site"
      }
    },
    {
      "type": "node",
      "id": 1943591429,
      "lat": 48.8359355,
      "lon": -121.0195,
      "timestamp": "2017-12-28T19:11:10Z",
      "version": 3,
      "changeset": 54991513,
      "user": "Natfoot",
      "uid": 567792,
      "tags": {
        "access": "foot",
        "backcountry": "yes",
        "horse": "yes",
        "name": "Devil's Creek",
        "operator": "North Cascades National Park",
        "tents": "4",
        "tourism": "camp_site"
      }
    },
    {
      "type": "node",
      "id": 1943591431,
      "lat": 48.872826,
      "lon": -121.0190023,
      "timestamp": "2015-04-21T05:19:41Z",
      "version": 2,
      "changeset": 30368675,
      "user": "talapus",
      "uid": 2812957,
      "tags": {
        "backcountry": "no",
        "name": "Lightning Creek Stock Camp",
        "operator": "North Cascades National Park",
        "tents": "2",
        "tourism": "camp_site"
      }
    },
    {
      "type": "node",
      "id": 1943591432,
      "lat": 48.8681324,
      "lon": -121.0175218,
      "timestamp": "2015-04-21T05:19:41Z",
      "version": 2,
      "changeset": 30368675,
      "user": "talapus",
      "uid": 2812957,
      "tags": {
        "name": "Lodgepole",
        "operator": "North Cascades National Park",
        "tents": "3",
        "tourism": "camp_site"
      }
    },
    {
      "type": "node",
      "id": 1943591433,
      "lat": 48.7738743,
      "lon": -121.0650716,
      "timestamp": "2015-04-20T06:53:49Z",
      "version": 2,
      "changeset": 30347223,
      "user": "talapus",
      "uid": 2812957,
      "tags": {
        "backcountry": "yes",
        "horse": "no",
        "name": "Pumpkin Mountain",
        "operator": "North Cascades National Park",
        "tents": "2",
        "tourism": "camp_site"
      }
    },
    {
      "type": "node",
      "id": 1943591434,
      "lat": 48.8485021,
      "lon": -121.0186069,
      "timestamp": "2015-04-21T05:19:41Z",
      "version": 2,
      "changeset": 30368675,
      "user": "talapus",
      "uid": 2812957,
      "tags": {
        "name": "Ten Mile Island",
        "operator": "North Cascades National Park",
        "tents": "3",
        "tourism": "camp_site"
      }
    },
    {
      "type": "node",
      "id": 1944866409,
      "lat": 48.7865203,
      "lon": -121.0303298,
      "timestamp": "2015-04-21T05:19:42Z",
      "version": 2,
      "changeset": 30368675,
      "user": "talapus",
      "uid": 2812957,
      "tags": {
        "backcountry": "no",
        "name": "May Creek Boat",
        "operator": "North Cascades National Park",
        "tents": "1",
        "tourism": "camp_site"
      }
    },
    {
      "type": "node",
      "id": 1944866418,
      "lat": 48.7767216,
      "lon": -121.0315564,
      "timestamp": "2015-04-21T05:19:41Z",
      "version": 2,
      "changeset": 30368675,
      "user": "talapus",
      "uid": 2812957,
      "tags": {
        "backcountry": "no",
        "name": "Spencer's",
        "operator": "North Cascades National Park",
        "tents": "2",
        "tourism": "camp_site"
      }
    },
    {
      "type": "node",
      "id": 1945438894,
      "lat": 48.7761062,
      "lon": -121.0638659,
      "timestamp": "2018-08-30T01:48:08Z",
      "version": 3,
      "changeset": 62123711,
      "user": "Alexander Halaszyn",
      "uid": 8754682,
      "tags": {
        "access": "permit",
        "horse": "designated",
        "name": "Big Beaver Stock Camp",
        "operator": "North Cascades National Park",
        "tourism": "camp_site"
      }
    },
    {
      "type": "node",
      "id": 1948280385,
      "lat": 48.9016807,
      "lon": -121.0111228,
      "timestamp": "2015-04-21T05:19:42Z",
      "version": 2,
      "changeset": 30368675,
      "user": "talapus",
      "uid": 2812957,
      "tags": {
        "backcountry": "yes",
        "horse": "no",
        "name": "Desolation",
        "operator": "North Cascades National Park",
        "tents": "1",
        "tourism": "camp_site"
      }
    },
    {
      "type": "node",
      "id": 1948291801,
      "lat": 48.9150239,
      "lon": -121.0741913,
      "timestamp": "2015-04-21T05:19:41Z",
      "version": 2,
      "changeset": 30368675,
      "user": "talapus",
      "uid": 2812957,
      "tags": {
        "backcountry": "no",
        "name": "Little Beaver",
        "operator": "North Cascades National Park",
        "tents": "5",
        "tourism": "camp_site"
      }
    },
    {
      "type": "node",
      "id": 1949295825,
      "lat": 48.8840126,
      "lon": -121.0384806,
      "timestamp": "2015-04-21T05:19:42Z",
      "version": 2,
      "changeset": 30368675,
      "user": "talapus",
      "uid": 2812957,
      "tags": {
        "backcountry": "no",
        "name": "Cat Island",
        "operator": "North Cascades National Park",
        "tents": "4",
        "tourism": "camp_site"
      }
    },
    {
      "type": "node",
      "id": 1949295830,
      "lat": 48.8770543,
      "lon": -121.0223152,
      "timestamp": "2015-04-21T05:19:42Z",
      "version": 2,
      "changeset": 30368675,
      "user": "talapus",
      "uid": 2812957,
      "tags": {
        "backcountry": "no",
        "name": "Lightning Creek Boat Camp",
        "operator": "North Cascades National Park",
        "tents": "6",
        "tourism": "camp_site"
      }
    },
    {
      "type": "node",
      "id": 1952828101,
      "lat": 48.673217,
      "lon": -121.2667539,
      "timestamp": "2012-10-08T16:53:53Z",
      "version": 1,
      "changeset": 13415123,
      "user": "Glassman",
      "uid": 447903,
      "tags": {
        "name": "Goodell Group Campground",
        "tourism": "camp_site"
      }
    },
    {
      "type": "node",
      "id": 1952828111,
      "lat": 48.670807,
      "lon": -121.2631043,
      "timestamp": "2012-10-08T16:53:53Z",
      "version": 1,
      "changeset": 13415123,
      "user": "Glassman",
      "uid": 447903,
      "tags": {
        "name": "Loop A",
        "tourism": "camp_site"
      }
    },
    {
      "type": "node",
      "id": 1952828113,
      "lat": 48.6695479,
      "lon": -121.2621238,
      "timestamp": "2012-10-08T16:53:53Z",
      "version": 1,
      "changeset": 13415123,
      "user": "Glassman",
      "uid": 447903,
      "tags": {
        "name": "Loop B",
        "tourism": "camp_site"
      }
    },
    {
      "type": "node",
      "id": 1952828115,
      "lat": 48.6696918,
      "lon": -121.2591279,
      "timestamp": "2012-10-08T16:53:53Z",
      "version": 1,
      "changeset": 13415123,
      "user": "Glassman",
      "uid": 447903,
      "tags": {
        "name": "Loop C",
        "tourism": "camp_site"
      }
    },
    {
      "type": "node",
      "id": 1952828332,
      "lat": 48.6685794,
      "lon": -121.2591422,
      "timestamp": "2012-10-16T16:30:59Z",
      "version": 2,
      "changeset": 13521273,
      "user": "Glassman",
      "uid": 447903,
      "tags": {
        "amenity": "drinking_water"
      }
    },
    {
      "type": "node",
      "id": 1957658120,
      "lat": 48.6779363,
      "lon": -121.2724886,
      "timestamp": "2012-10-16T17:50:00Z",
      "version": 2,
      "changeset": 13522169,
      "user": "Glassman",
      "uid": 447903,
      "tags": {
        "name": "Lower Goodell Crek Campground",
        "tourism": "camp_site"
      }
    },
    {
      "type": "node",
      "id": 1967550920,
      "lat": 48.6853286,
      "lon": -121.0933911,
      "timestamp": "2012-10-15T21:59:16Z",
      "version": 1,
      "changeset": 13512259,
      "user": "Glassman",
      "uid": 447903,
      "tags": {
        "amenity": "drinking_water"
      }
    },
    {
      "type": "node",
      "id": 1967550923,
      "lat": 48.6856595,
      "lon": -121.0947453,
      "timestamp": "2012-10-15T21:59:17Z",
      "version": 1,
      "changeset": 13512259,
      "user": "Glassman",
      "uid": 447903,
      "tags": {
        "amenity": "drinking_water"
      }
    },
    {
      "type": "node",
      "id": 1967550925,
      "lat": 48.6858727,
      "lon": -121.0930586,
      "timestamp": "2012-10-15T21:59:17Z",
      "version": 1,
      "changeset": 13512259,
      "user": "Glassman",
      "uid": 447903,
      "tags": {
        "amenity": "drinking_water"
      }
    },
    {
      "type": "node",
      "id": 1967550928,
      "lat": 48.6859331,
      "lon": -121.0961572,
      "timestamp": "2012-10-15T21:59:17Z",
      "version": 1,
      "changeset": 13512259,
      "user": "Glassman",
      "uid": 447903,
      "tags": {
        "amenity": "drinking_water"
      }
    },
    {
      "type": "node",
      "id": 1967550932,
      "lat": 48.6862322,
      "lon": -121.094114,
      "timestamp": "2012-10-15T21:59:17Z",
      "version": 1,
      "changeset": 13512259,
      "user": "Glassman",
      "uid": 447903,
      "tags": {
        "amenity": "drinking_water"
      }
    },
    {
      "type": "node",
      "id": 1967550940,
      "lat": 48.6862735,
      "lon": -121.0953958,
      "timestamp": "2012-10-15T21:59:17Z",
      "version": 1,
      "changeset": 13512259,
      "user": "Glassman",
      "uid": 447903,
      "tags": {
        "amenity": "drinking_water"
      }
    },
    {
      "type": "node",
      "id": 1967550942,
      "lat": 48.6865599,
      "lon": -121.0931357,
      "timestamp": "2012-10-15T21:59:17Z",
      "version": 1,
      "changeset": 13512259,
      "user": "Glassman",
      "uid": 447903,
      "tags": {
        "amenity": "drinking_water"
      }
    },
    {
      "type": "node",
      "id": 1967550946,
      "lat": 48.6869543,
      "lon": -121.0934827,
      "timestamp": "2012-10-15T21:59:17Z",
      "version": 1,
      "changeset": 13512259,
      "user": "Glassman",
      "uid": 447903,
      "tags": {
        "amenity": "drinking_water"
      }
    },
    {
      "type": "node",
      "id": 1967550948,
      "lat": 48.6869607,
      "lon": -121.0961813,
      "timestamp": "2012-10-15T21:59:17Z",
      "version": 1,
      "changeset": 13512259,
      "user": "Glassman",
      "uid": 447903,
      "tags": {
        "amenity": "drinking_water"
      }
    },
    {
      "type": "node",
      "id": 1967550950,
      "lat": 48.6871961,
      "lon": -121.094885,
      "timestamp": "2012-10-15T21:59:17Z",
      "version": 1,
      "changeset": 13512259,
      "user": "Glassman",
      "uid": 447903,
      "tags": {
        "amenity": "drinking_water"
      }
    },
    {
      "type": "node",
      "id": 1967550951,
      "lat": 48.6873297,
      "lon": -121.0940031,
      "timestamp": "2012-10-15T21:59:17Z",
      "version": 1,
      "changeset": 13512259,
      "user": "Glassman",
      "uid": 447903,
      "tags": {
        "amenity": "drinking_water"
      }
    },
    {
      "type": "node",
      "id": 1967550955,
      "lat": 48.687826,
      "lon": -121.0939983,
      "timestamp": "2012-10-15T21:59:17Z",
      "version": 1,
      "changeset": 13512259,
      "user": "Glassman",
      "uid": 447903,
      "tags": {
        "amenity": "drinking_water"
      }
    },
    {
      "type": "node",
      "id": 1967550963,
      "lat": 48.6886563,
      "lon": -121.0956175,
      "timestamp": "2012-10-15T21:59:18Z",
      "version": 1,
      "changeset": 13512259,
      "user": "Glassman",
      "uid": 447903,
      "tags": {
        "amenity": "drinking_water"
      }
    },
    {
      "type": "node",
      "id": 1967550978,
      "lat": 48.6896934,
      "lon": -121.095391,
      "timestamp": "2012-10-15T21:59:18Z",
      "version": 1,
      "changeset": 13512259,
      "user": "Glassman",
      "uid": 447903,
      "tags": {
        "amenity": "drinking_water"
      }
    },
    {
      "type": "node",
      "id": 1967550980,
      "lat": 48.6900618,
      "lon": -121.1010565,
      "timestamp": "2012-10-15T21:59:18Z",
      "version": 1,
      "changeset": 13512259,
      "user": "Glassman",
      "uid": 447903,
      "tags": {
        "amenity": "drinking_water"
      }
    },
    {
      "type": "node",
      "id": 1967550982,
      "lat": 48.6902688,
      "lon": -121.1024536,
      "timestamp": "2012-10-15T21:59:18Z",
      "version": 1,
      "changeset": 13512259,
      "user": "Glassman",
      "uid": 447903,
      "tags": {
        "amenity": "drinking_water"
      }
    },
    {
      "type": "node",
      "id": 1967551002,
      "lat": 48.6907412,
      "lon": -121.1009542,
      "timestamp": "2012-10-15T21:59:19Z",
      "version": 1,
      "changeset": 13512259,
      "user": "Glassman",
      "uid": 447903,
      "tags": {
        "amenity": "drinking_water"
      }
    },
    {
      "type": "node",
      "id": 1967551003,
      "lat": 48.6907412,
      "lon": -121.1026444,
      "timestamp": "2012-10-15T21:59:19Z",
      "version": 1,
      "changeset": 13512259,
      "user": "Glassman",
      "uid": 447903,
      "tags": {
        "amenity": "drinking_water"
      }
    },
    {
      "type": "node",
      "id": 1967551004,
      "lat": 48.6907636,
      "lon": -121.0987393,
      "timestamp": "2012-10-15T21:59:19Z",
      "version": 1,
      "changeset": 13512259,
      "user": "Glassman",
      "uid": 447903,
      "tags": {
        "amenity": "drinking_water"
      }
    },
    {
      "type": "node",
      "id": 1967551005,
      "lat": 48.6909391,
      "lon": -121.1019697,
      "timestamp": "2012-10-15T21:59:19Z",
      "version": 1,
      "changeset": 13512259,
      "user": "Glassman",
      "uid": 447903,
      "tags": {
        "amenity": "drinking_water"
      }
    },
    {
      "type": "node",
      "id": 1968585289,
      "lat": 48.6704291,
      "lon": -121.262467,
      "timestamp": "2012-10-16T16:30:54Z",
      "version": 1,
      "changeset": 13521273,
      "user": "Glassman",
      "uid": 447903,
      "tags": {
        "amenity": "drinking_water"
      }
    },
    {
      "type": "node",
      "id": 1968585299,
      "lat": 48.6705659,
      "lon": -121.2643994,
      "timestamp": "2012-10-16T16:30:54Z",
      "version": 1,
      "changeset": 13521273,
      "user": "Glassman",
      "uid": 447903,
      "tags": {
        "amenity": "shelter",
        "shelter_type": "picnic_shelter"
      }
    },
    {
      "type": "node",
      "id": 1968585324,
      "lat": 48.6707242,
      "lon": -121.2643532,
      "timestamp": "2012-10-16T16:30:55Z",
      "version": 1,
      "changeset": 13521273,
      "user": "Glassman",
      "uid": 447903,
      "tags": {
        "amenity": "drinking_water"
      }
    },
    {
      "type": "node",
      "id": 1968585359,
      "lat": 48.6710416,
      "lon": -121.25953,
      "timestamp": "2012-10-16T16:30:55Z",
      "version": 1,
      "changeset": 13521273,
      "user": "Glassman",
      "uid": 447903,
      "tags": {
        "amenity": "shelter",
        "shelter_type": "picnic_shelter"
      }
    },
    {
      "type": "node",
      "id": 1968585395,
      "lat": 48.6711404,
      "lon": -121.2591319,
      "timestamp": "2012-10-16T16:30:56Z",
      "version": 1,
      "changeset": 13521273,
      "user": "Glassman",
      "uid": 447903,
      "tags": {
        "amenity": "drinking_water"
      }
    },
    {
      "type": "node",
      "id": 1968585411,
      "lat": 48.6712181,
      "lon": -121.2634595,
      "timestamp": "2012-10-16T16:30:56Z",
      "version": 1,
      "changeset": 13521273,
      "user": "Glassman",
      "uid": 447903,
      "tags": {
        "amenity": "drinking_water"
      }
    },
    {
      "type": "node",
      "id": 1968585436,
      "lat": 48.6715786,
      "lon": -121.2599072,
      "timestamp": "2012-10-16T16:30:57Z",
      "version": 1,
      "changeset": 13521273,
      "user": "Glassman",
      "uid": 447903,
      "tags": {
        "amenity": "shelter",
        "shelter_type": "picnic_shelter"
      }
    },
    {
      "type": "node",
      "id": 1968686958,
      "lat": 48.6766341,
      "lon": -121.2712828,
      "timestamp": "2012-10-16T17:49:58Z",
      "version": 1,
      "changeset": 13522169,
      "user": "Glassman",
      "uid": 447903,
      "tags": {
        "amenity": "shelter",
        "shelter_type": "picnic_shelter"
      }
    },
    {
      "type": "node",
      "id": 1968687002,
      "lat": 48.6780205,
      "lon": -121.2724506,
      "timestamp": "2012-10-16T17:49:59Z",
      "version": 1,
      "changeset": 13522169,
      "user": "Glassman",
      "uid": 447903,
      "tags": {
        "amenity": "shelter",
        "shelter_type": "picnic_shelter"
      }
    },
    {
      "type": "node",
      "id": 3444324773,
      "lat": 48.6615311,
      "lon": -121.0450642,
      "timestamp": "2015-04-21T00:18:05Z",
      "version": 2,
      "changeset": 30366844,
      "user": "talapus",
      "uid": 2812957,
      "tags": {
        "backcountry": "yes",
        "horse": "no",
        "name": "Fourth of July Pass",
        "operator": "North Cascades National Park",
        "tents": "3",
        "tourism": "camp_site"
      }
    },
    {
      "type": "node",
      "id": 3444361679,
      "lat": 48.9185593,
      "lon": -121.4485871,
      "timestamp": "2015-04-20T06:24:38Z",
      "version": 2,
      "changeset": 30347223,
      "user": "talapus",
      "uid": 2812957,
      "tags": {
        "backcountry": "yes",
        "horse": "no",
        "name": "Copper Lake",
        "operator": "North Cascades National Park",
        "tents": "3",
        "tourism": "camp_site"
      }
    },
    {
      "type": "node",
      "id": 3444361690,
      "lat": 48.8996056,
      "lon": -121.4837569,
      "timestamp": "2015-04-20T06:24:38Z",
      "version": 2,
      "changeset": 30347223,
      "user": "talapus",
      "uid": 2812957,
      "tags": {
        "backcountry": "yes",
        "horse": "no",
        "name": "Egg Lake",
        "operator": "North Cascades National Park",
        "tents": "3",
        "tourism": "camp_site"
      }
    },
    {
      "type": "node",
      "id": 3466926506,
      "lat": 48.8808603,
      "lon": -121.4890368,
      "timestamp": "2015-04-20T06:24:37Z",
      "version": 2,
      "changeset": 30347223,
      "user": "talapus",
      "uid": 2812957,
      "tags": {
        "backcountry": "yes",
        "horse": "no",
        "name": "Copper Creek",
        "operator": "North Cascades National Park",
        "tents": "5",
        "tourism": "camp_site"
      }
    },
    {
      "type": "node",
      "id": 3466926555,
      "lat": 48.8979774,
      "lon": -121.4470275,
      "timestamp": "2015-04-20T06:24:38Z",
      "version": 2,
      "changeset": 30347223,
      "user": "talapus",
      "uid": 2812957,
      "tags": {
        "backcountry": "yes",
        "horse": "designated",
        "name": "US Cabin",
        "operator": "North Cascades National Park",
        "tents": "5",
        "tourism": "camp_site"
      }
    },
    {
      "type": "node",
      "id": 3467075050,
      "lat": 48.8826697,
      "lon": -121.3104065,
      "timestamp": "2015-04-20T06:24:28Z",
      "version": 1,
      "changeset": 30347223,
      "user": "talapus",
      "uid": 2812957,
      "tags": {
        "backcountry": "yes",
        "horse": "yes",
        "name": "Twin Rocks",
        "operator": "North Cascades National Park",
        "tents": "3",
        "tourism": "camp_site"
      }
    },
    {
      "type": "node",
      "id": 3467075277,
      "lat": 48.9216281,
      "lon": -121.1447748,
      "timestamp": "2019-02-17T12:18:30Z",
      "version": 2,
      "changeset": 67277926,
      "user": "b-jazz",
      "uid": 5800005,
      "tags": {
        "backcountry": "yes",
        "horse": "no",
        "name": "Perry Creek Shelter",
        "operator": "North Cascades National Park",
        "tents": "3",
        "tourism": "camp_site",
        "website": "https://www.nps.gov/noca/planyourvisit/upload/Backcountry-Camp-List-2013-public.pdf"
      }
    },
    {
      "type": "node",
      "id": 3467075544,
      "lat": 48.876009,
      "lon": -121.3639434,
      "timestamp": "2019-02-18T01:33:06Z",
      "version": 2,
      "changeset": 67297563,
      "user": "b-jazz-bot",
      "uid": 9451067,
      "tags": {
        "horse": "no",
        "name": "Whatcom",
        "operator": "North Cascades National Park",
        "tents": "3",
        "tourism": "camp_site",
        "website": "https://www.nps.gov/noca/planyourvisit/upload/Backcountry-Camp-List-2013-public.pdf"
      }
    },
    {
      "type": "node",
      "id": 3467075640,
      "lat": 48.8917843,
      "lon": -121.2683709,
      "timestamp": "2020-06-12T12:11:46Z",
      "version": 2,
      "changeset": 86566538,
      "user": "ChrissW-R1",
      "uid": 251543,
      "tags": {
        "backcountry": "yes",
        "horse": "no",
        "name": "Stillwell",
        "operator": "North Cascades National Park",
        "tents": "4",
        "tourism": "camp_site"
      }
    },
    {
      "type": "node",
      "id": 3467075820,
      "lat": 48.8790008,
      "lon": -121.4107855,
      "timestamp": "2019-02-17T12:18:18Z",
      "version": 2,
      "changeset": 67277923,
      "user": "b-jazz",
      "uid": 5800005,
      "tags": {
        "backcountry": "yes",
        "horse": "yes",
        "name": "Graybeal",
        "operator": "North Cascades National Park",
        "tents": "4",
        "tourism": "camp_site",
        "website": "https://www.nps.gov/noca/planyourvisit/upload/Backcountry-Camp-List-2013-public.pdf"
      }
    },
    {
      "type": "node",
      "id": 3467093946,
      "lat": 48.8788173,
      "lon": -121.2515481,
      "timestamp": "2015-04-20T06:53:46Z",
      "version": 1,
      "changeset": 30347223,
      "user": "talapus",
      "uid": 2812957,
      "tags": {
        "backcountry": "yes",
        "horse": "yes",
        "name": "Beaver Pass",
        "operator": "North Cascades National Park",
        "tents": "3",
        "tourism": "camp_site"
      }
    },
    {
      "type": "node",
      "id": 3467093979,
      "lat": 48.8079122,
      "lon": -121.1550959,
      "timestamp": "2015-04-20T06:53:47Z",
      "version": 1,
      "changeset": 30347223,
      "user": "talapus",
      "uid": 2812957,
      "tags": {
        "backcountry": "yes",
        "horse": "yes",
        "name": "39 Mile",
        "operator": "North Cascades National Park",
        "tents": "4",
        "tourism": "camp_site"
      }
    },
    {
      "type": "node",
      "id": 3468588914,
      "lat": 48.5073506,
      "lon": -120.9760156,
      "timestamp": "2015-04-21T00:18:00Z",
      "version": 1,
      "changeset": 30366844,
      "user": "talapus",
      "uid": 2812957,
      "tags": {
        "horse": "no",
        "name": "Thunder Basin Hiker",
        "operator": "North Cascades National Park",
        "tents": "2",
        "tourism": "camp_site"
      }
    },
    {
      "type": "node",
      "id": 3468588915,
      "lat": 48.668584,
      "lon": -121.0682503,
      "timestamp": "2015-04-21T00:18:01Z",
      "version": 1,
      "changeset": 30366844,
      "user": "talapus",
      "uid": 2812957,
      "tags": {
        "backcountry": "yes",
        "horse": "no",
        "name": "Neve",
        "operator": "North Cascades National Park",
        "tents": "3",
        "tourism": "camp_site"
      }
    },
    {
      "type": "node",
      "id": 3468588921,
      "lat": 48.6714464,
      "lon": -121.0710398,
      "timestamp": "2015-04-21T00:18:01Z",
      "version": 1,
      "changeset": 30366844,
      "user": "talapus",
      "uid": 2812957,
      "tags": {
        "horse": "no",
        "name": "Thunder",
        "operator": "North Cascades National Park",
        "tents": "3",
        "tourism": "camp_site"
      }
    },
    {
      "type": "node",
      "id": 3468588926,
      "lat": 48.5220907,
      "lon": -120.9868517,
      "timestamp": "2015-04-21T00:18:01Z",
      "version": 1,
      "changeset": 30366844,
      "user": "talapus",
      "uid": 2812957,
      "tags": {
        "horse": "yes",
        "name": "Thunder Basin Stock",
        "operator": "North Cascades National Park",
        "tents": "1",
        "tourism": "camp_site"
      }
    },
    {
      "type": "node",
      "id": 3468588927,
      "lat": 48.5843667,
      "lon": -121.0190908,
      "timestamp": "2015-04-21T00:18:01Z",
      "version": 1,
      "changeset": 30366844,
      "user": "talapus",
      "uid": 2812957,
      "tags": {
        "horse": "yes",
        "name": "Junction",
        "operator": "North Cascades National Park",
        "tents": "4",
        "tourism": "camp_site"
      }
    },
    {
      "type": "node",
      "id": 3468588929,
      "lat": 48.6021551,
      "lon": -121.048285,
      "timestamp": "2015-04-21T00:18:02Z",
      "version": 1,
      "changeset": 30366844,
      "user": "talapus",
      "uid": 2812957,
      "tags": {
        "horse": "no",
        "name": "Tricouni",
        "operator": "North Cascades National Park",
        "tents": "2",
        "tourism": "camp_site"
      }
    },
    {
      "type": "node",
      "id": 3468588933,
      "lat": 48.7113903,
      "lon": -121.1004368,
      "timestamp": "2015-04-21T00:18:02Z",
      "version": 1,
      "changeset": 30366844,
      "user": "talapus",
      "uid": 2812957,
      "tags": {
        "backcountry": "no",
        "name": "Hidden Cove",
        "operator": "North Cascades National Park",
        "tents": "1",
        "tourism": "camp_site"
      }
    },
    {
      "type": "node",
      "id": 3468588937,
      "lat": 48.461645,
      "lon": -121.0438851,
      "timestamp": "2017-08-06T05:57:33Z",
      "version": 3,
      "changeset": 50875370,
      "user": "Natfoot",
      "uid": 567792,
      "tags": {
        "backcountry": "yes",
        "horse": "no",
        "name": "Pelton Basin",
        "operator": "North Cascades National Park",
        "tents": "4",
        "tourism": "camp_site"
      }
    },
    {
      "type": "node",
      "id": 3468588938,
      "lat": 48.7175774,
      "lon": -121.0994498,
      "timestamp": "2015-04-21T00:18:03Z",
      "version": 1,
      "changeset": 30366844,
      "user": "talapus",
      "uid": 2812957,
      "tags": {
        "backcountry": "no",
        "name": "Buster Brown",
        "operator": "North Cascades National Park",
        "tents": "3",
        "tourism": "camp_site"
      }
    },
    {
      "type": "node",
      "id": 3468588940,
      "lat": 48.4706538,
      "lon": -120.9445683,
      "timestamp": "2015-04-21T00:18:03Z",
      "version": 1,
      "changeset": 30366844,
      "user": "talapus",
      "uid": 2812957,
      "tags": {
        "backcountry": "yes",
        "horse": "yes",
        "name": "Five Mile",
        "operator": "North Cascades National Park",
        "tents": "3",
        "tourism": "camp_site"
      }
    },
    {
      "type": "node",
      "id": 3468588941,
      "lat": 48.7089833,
      "lon": -121.1042134,
      "timestamp": "2015-04-21T00:18:03Z",
      "version": 1,
      "changeset": 30366844,
      "user": "talapus",
      "uid": 2812957,
      "tags": {
        "backcountry": "no",
        "name": "Thunder Point",
        "operator": "North Cascades National Park",
        "tents": "3",
        "tourism": "camp_site"
      }
    },
    {
      "type": "node",
      "id": 3468588942,
      "lat": 48.7393464,
      "lon": -121.0533802,
      "timestamp": "2015-04-21T00:18:03Z",
      "version": 1,
      "changeset": 30366844,
      "user": "talapus",
      "uid": 2812957,
      "tags": {
        "backcountry": "no",
        "name": "Green Point",
        "operator": "North Cascades National Park",
        "tents": "5",
        "tourism": "camp_site"
      }
    },
    {
      "type": "node",
      "id": 3468588944,
      "lat": 48.5424184,
      "lon": -121.0135547,
      "timestamp": "2015-04-21T00:18:04Z",
      "version": 1,
      "changeset": 30366844,
      "user": "talapus",
      "uid": 2812957,
      "tags": {
        "horse": "no",
        "name": "Skagit Queen",
        "operator": "North Cascades National Park",
        "tents": "3",
        "tourism": "camp_site"
      }
    },
    {
      "type": "node",
      "id": 3468588945,
      "lat": 48.6225287,
      "lon": -121.0568349,
      "timestamp": "2015-04-21T00:18:04Z",
      "version": 1,
      "changeset": 30366844,
      "user": "talapus",
      "uid": 2812957,
      "tags": {
        "horse": "yes",
        "name": "McAllister",
        "operator": "North Cascades National Park",
        "tents": "6",
        "tourism": "camp_site"
      }
    },
    {
      "type": "node",
      "id": 3468588947,
      "lat": 48.4795873,
      "lon": -121.0782496,
      "timestamp": "2015-10-01T00:43:18Z",
      "version": 3,
      "changeset": 34358589,
      "user": "Alan Trick",
      "uid": 1722904,
      "tags": {
        "backcountry": "yes",
        "horse": "no",
        "name": "Johannesburg Camp",
        "operator": "North Cascades National Park",
        "tents": "3",
        "tourism": "camp_site"
      }
    },
    {
      "type": "node",
      "id": 3468588948,
      "lat": 48.6833479,
      "lon": -120.9991781,
      "timestamp": "2015-04-21T00:18:04Z",
      "version": 1,
      "changeset": 30366844,
      "user": "talapus",
      "uid": 2812957,
      "tags": {
        "backcountry": "yes",
        "horse": "no",
        "name": "Panther",
        "operator": "North Cascades National Park",
        "tents": "2",
        "tourism": "camp_site"
      }
    },
    {
      "type": "node",
      "id": 3468588952,
      "lat": 48.4634262,
      "lon": -121.0181038,
      "timestamp": "2015-04-21T00:28:56Z",
      "version": 2,
      "changeset": 30366844,
      "user": "talapus",
      "uid": 2812957,
      "tags": {
        "backcountry": "yes",
        "horse": "no",
        "name": "Basin Creek",
        "operator": "North Cascades National Park",
        "tents": "3",
        "tourism": "camp_site"
      }
    },
    {
      "type": "node",
      "id": 3468946560,
      "lat": 48.7720575,
      "lon": -121.0361046,
      "timestamp": "2015-04-22T07:51:19Z",
      "version": 2,
      "changeset": 30397819,
      "user": "highpotential",
      "uid": 64134,
      "tags": {
        "backcountry": "no",
        "name": "McMillan",
        "operator": "North Cascades National Park",
        "tents": "3",
        "tourism": "camp_site"
      }
    },
    {
      "type": "node",
      "id": 3468946566,
      "lat": 48.8608475,
      "lon": -121.0216121,
      "timestamp": "2015-04-21T05:19:32Z",
      "version": 1,
      "changeset": 30368675,
      "user": "talapus",
      "uid": 2812957,
      "tags": {
        "name": "Ponderosa",
        "operator": "North Cascades National Park",
        "tents": "2",
        "tourism": "camp_site"
      }
    },
    {
      "type": "node",
      "id": 3468946583,
      "lat": 48.899892,
      "lon": -120.9805293,
      "timestamp": "2015-04-21T05:19:33Z",
      "version": 1,
      "changeset": 30368675,
      "user": "talapus",
      "uid": 2812957,
      "tags": {
        "backcountry": "yes",
        "horse": "yes",
        "name": "Deerlick",
        "operator": "North Cascades National Park",
        "tents": "2",
        "tourism": "camp_site"
      }
    },
    {
      "type": "node",
      "id": 3468946586,
      "lat": 48.7962907,
      "lon": -121.0387225,
      "timestamp": "2015-04-21T05:19:33Z",
      "version": 1,
      "changeset": 30368675,
      "user": "talapus",
      "uid": 2812957,
      "tags": {
        "backcountry": "no",
        "name": "Rainbow Point",
        "operator": "North Cascades National Park",
        "tents": "3",
        "tourism": "camp_site"
      }
    },
    {
      "type": "node",
      "id": 3468946816,
      "lat": 48.7283403,
      "lon": -121.0143251,
      "timestamp": "2015-04-21T05:19:33Z",
      "version": 1,
      "changeset": 30368675,
      "user": "talapus",
      "uid": 2812957,
      "tags": {
        "backcountry": "yes",
        "horse": "yes",
        "name": "Hidden Hand",
        "operator": "North Cascades National Park",
        "tents": "2",
        "tourism": "camp_site"
      }
    },
    {
      "type": "node",
      "id": 3468946836,
      "lat": 48.7281138,
      "lon": -121.0135955,
      "timestamp": "2015-04-21T05:19:34Z",
      "version": 1,
      "changeset": 30368675,
      "user": "talapus",
      "uid": 2812957,
      "tags": {
        "backcountry": "yes",
        "horse": "no",
        "name": "Ruby Pasture",
        "operator": "North Cascades National Park",
        "tents": "1",
        "tourism": "camp_site"
      }
    },
    {
      "type": "node",
      "id": 3468946916,
      "lat": 48.7879504,
      "lon": -121.0294098,
      "timestamp": "2015-04-21T05:19:35Z",
      "version": 1,
      "changeset": 30368675,
      "user": "talapus",
      "uid": 2812957,
      "tags": {
        "backcountry": "yes",
        "horse": "yes",
        "name": "May Creek Hiker",
        "operator": "North Cascades National Park",
        "tents": "2",
        "tourism": "camp_site"
      }
    },
    {
      "type": "node",
      "id": 3468946919,
      "lat": 48.7664571,
      "lon": -121.0280365,
      "timestamp": "2015-04-21T05:19:35Z",
      "version": 1,
      "changeset": 30368675,
      "user": "talapus",
      "uid": 2812957,
      "tags": {
        "backcountry": "no",
        "name": "Roland Point",
        "operator": "North Cascades National Park",
        "tents": "1",
        "tourism": "camp_site"
      }
    },
    {
      "type": "node",
      "id": 3468946987,
      "lat": 48.7730589,
      "lon": -121.0236301,
      "timestamp": "2021-06-02T21:42:52Z",
      "version": 3,
      "changeset": 105742286,
      "user": "Ken Poore",
      "uid": 3514724,
      "tags": {
        "amenity": "toilets",
        "backcountry": "yes",
        "name": "Roland Creek",
        "operator": "North Cascades National Park",
        "tents": "3",
        "tourism": "camp_site"
      }
    },
    {
      "type": "node",
      "id": 3474406156,
      "lat": 48.6815055,
      "lon": -121.3307361,
      "timestamp": "2015-04-24T03:08:54Z",
      "version": 1,
      "changeset": 30444418,
      "user": "talapus",
      "uid": 2812957,
      "tags": {
        "backcountry": "yes",
        "name": "Thornton Lake",
        "operator": "North Cascades National Park",
        "tents": "3",
        "tourism": "camp_site"
      }
    },
    {
      "type": "node",
      "id": 3474431500,
      "lat": 48.5565284,
      "lon": -121.2836417,
      "timestamp": "2015-04-24T04:01:28Z",
      "version": 1,
      "changeset": 30444581,
      "user": "talapus",
      "uid": 2812957,
      "tags": {
        "backcountry": "yes",
        "horse": "no",
        "name": "Monogram Lake",
        "operator": "North Cascades National Park",
        "tents": "2",
        "tourism": "camp_site"
      }
    },
    {
      "type": "node",
      "id": 3474434778,
      "lat": 48.7438107,
      "lon": -121.0984668,
      "timestamp": "2015-04-24T04:05:54Z",
      "version": 1,
      "changeset": 30444793,
      "user": "talapus",
      "uid": 2812957,
      "tags": {
        "backcountry": "yes",
        "horse": "no",
        "name": "Pierce Mountain",
        "operator": "North Cascades National Park",
        "tents": "1",
        "tourism": "camp_site"
      }
    },
    {
      "type": "node",
      "id": 3474434779,
      "lat": 48.7452575,
      "lon": -121.1283841,
      "timestamp": "2015-04-24T04:05:54Z",
      "version": 1,
      "changeset": 30444793,
      "user": "talapus",
      "uid": 2812957,
      "tags": {
        "backcountry": "yes",
        "horse": "no",
        "name": "Sourdough",
        "operator": "North Cascades National Park",
        "tents": "1",
        "tourism": "camp_site"
      }
    },
    {
      "type": "node",
      "id": 3474442184,
      "lat": 48.4954286,
      "lon": -121.205478,
      "timestamp": "2021-06-27T15:39:03Z",
      "version": 3,
      "changeset": 107041526,
      "user": "Glassman",
      "uid": 447903,
      "tags": {
        "historic": "yes",
        "internet_access": "no",
        "name": "Hidden Lake Lookout",
        "operator": "Friends of Hidden Lake Lookout",
        "ref:nrhp": "87001184",
        "start_date": "1932",
        "tourism": "alpine_hut",
        "website": "https://www.fs.usda.gov/recarea/mbs/recreation/hiking/recarea/?recid=17672",
        "wikimedia_commons": "Hidden_Peak_Fire_Lookout_at_sunset,_with_smokey_haze_from_nearby_fires.jpg"
      }
    },
    {
      "type": "node",
      "id": 4268449137,
      "lat": 48.7728412,
      "lon": -120.9562434,
      "timestamp": "2018-05-03T21:06:55Z",
      "version": 2,
      "changeset": 58660682,
      "user": "Edward",
      "uid": 364,
      "tags": {
        "ele": "2763",
        "name": "Jack Mountain",
        "natural": "peak",
        "wikidata": "Q3157278"
      }
    },
    {
      "type": "node",
      "id": 4319039013,
      "lat": 48.8290296,
      "lon": -121.6404209,
      "timestamp": "2016-07-25T04:42:21Z",
      "version": 1,
      "changeset": 41002413,
      "user": "Alan Trick",
      "uid": 1722904,
      "tags": {
        "backcountry": "yes",
        "fee": "no",
        "tourism": "camp_site"
      }
    },
    {
      "type": "node",
      "id": 4319044736,
      "lat": 48.83037,
      "lon": -121.6277878,
      "timestamp": "2016-07-25T04:54:29Z",
      "version": 1,
      "changeset": 41002505,
      "user": "Alan Trick",
      "uid": 1722904,
      "tags": {
        "backcountry": "yes",
        "note": "A bivy site, supports about 2 people",
        "tourism": "camp_site"
      }
    },
    {
      "type": "node",
      "id": 4319048323,
      "lat": 48.7156355,
      "lon": -121.1516175,
      "timestamp": "2016-07-25T05:15:54Z",
      "version": 1,
      "changeset": 41002726,
      "user": "VFisa",
      "uid": 3802289,
      "tags": {
        "name": "Gorge Campground",
        "tourism": "camp_site"
      }
    },
    {
      "type": "node",
      "id": 4319054587,
      "lat": 48.8318265,
      "lon": -121.6173519,
      "timestamp": "2016-07-25T05:24:00Z",
      "version": 1,
      "changeset": 41002817,
      "user": "Alan Trick",
      "uid": 1722904,
      "tags": {
        "backcountry": "yes",
        "tourism": "camp_site"
      }
    },
    {
      "type": "node",
      "id": 4319054776,
      "lat": 48.8313171,
      "lon": -121.6152234,
      "timestamp": "2016-07-25T05:24:02Z",
      "version": 1,
      "changeset": 41002817,
      "user": "Alan Trick",
      "uid": 1722904,
      "tags": {
        "backcountry": "yes",
        "tourism": "camp_site"
      }
    },
    {
      "type": "node",
      "id": 4348888400,
      "lat": 48.7205314,
      "lon": -121.1100443,
      "timestamp": "2016-08-13T18:23:00Z",
      "version": 1,
      "changeset": 41434328,
      "user": "vguzman",
      "uid": 103961,
      "tags": {
        "amenity": "shelter",
        "name": "Fawn Creek Shelter"
      }
    },
    {
      "type": "node",
      "id": 4348888401,
      "lat": 48.7227363,
      "lon": -121.1135373,
      "timestamp": "2016-08-13T18:23:00Z",
      "version": 1,
      "changeset": 41434328,
      "user": "vguzman",
      "uid": 103961,
      "tags": {
        "amenity": "shelter",
        "name": "Sourdough Creek Shelter"
      }
    },
    {
      "type": "node",
      "id": 4360819604,
      "lat": 48.6721717,
      "lon": -121.268872,
      "timestamp": "2016-08-22T01:16:57Z",
      "version": 1,
      "changeset": 41604343,
      "user": "wislander",
      "uid": 384146,
      "tags": {
        "amenity": "shelter",
        "shelter_type": "picnic_shelter"
      }
    },
    {
      "type": "node",
      "id": 4360829121,
      "lat": 48.4841376,
      "lon": -121.5999157,
      "timestamp": "2020-01-13T03:34:26Z",
      "version": 3,
      "changeset": 79494362,
      "user": "DunbarLoop",
      "uid": 2032374,
      "tags": {
        "addr:housenumber": "52804",
        "addr:street": "Rockport Park Road",
        "name": "Howard Miller Steelhead Park",
        "phone": "+1-360-853-8808",
        "source": "https://www.skagitcounty.net/Departments/ParksAndRecreation/parks/howardmiller.htm",
        "tourism": "camp_site",
        "website": "https://www.skagitcounty.net/Departments/ParksAndRecreation/parks/howardmiller.htm"
      }
    },
    {
      "type": "node",
      "id": 4525430411,
      "lat": 48.7783073,
      "lon": -121.5362248,
      "timestamp": "2019-04-21T21:05:12Z",
      "version": 2,
      "changeset": 69434923,
      "user": "yasobara",
      "uid": 1564381,
      "tags": {
        "name": "Sulphide Creek Camp",
        "operator": "North Cascades National Park",
        "tourism": "camp_site"
      }
    },
    {
      "type": "node",
      "id": 5311166661,
      "lat": 48.8076869,
      "lon": -121.1557539,
      "timestamp": "2017-12-30T00:16:26Z",
      "version": 1,
      "changeset": 55023757,
      "user": "Natfoot",
      "uid": 567792,
      "tags": {
        "amenity": "shelter",
        "name": "Tenmile Shelter"
      }
    },
    {
      "type": "node",
      "id": 5311166662,
      "lat": 48.8715553,
      "lon": -121.2509933,
      "timestamp": "2017-12-30T00:16:26Z",
      "version": 1,
      "changeset": 55023757,
      "user": "Natfoot",
      "uid": 567792,
      "tags": {
        "amenity": "shelter",
        "name": "Beaver Pass Shelter"
      }
    },
    {
      "type": "node",
      "id": 5311166663,
      "lat": 48.8767372,
      "lon": -121.2517314,
      "timestamp": "2017-12-30T00:16:26Z",
      "version": 1,
      "changeset": 55023757,
      "user": "Natfoot",
      "uid": 567792,
      "tags": {
        "amenity": "shelter"
      }
    },
    {
      "type": "node",
      "id": 5311166664,
      "lat": 48.8787371,
      "lon": -121.251585,
      "timestamp": "2017-12-30T00:16:26Z",
      "version": 1,
      "changeset": 55023757,
      "user": "Natfoot",
      "uid": 567792,
      "tags": {
        "amenity": "shelter"
      }
    },
    {
      "type": "node",
      "id": 5311166686,
      "lat": 48.8756786,
      "lon": -121.3611862,
      "timestamp": "2018-02-25T09:27:38Z",
      "version": 2,
      "changeset": 56655577,
      "user": "Alan Trick",
      "uid": 1722904,
      "tags": {
        "name": "Whatcom Pass",
        "natural": "saddle"
      }
    },
    {
      "type": "node",
      "id": 5316150442,
      "lat": 48.7397594,
      "lon": -121.010992,
      "timestamp": "2019-07-31T19:57:18Z",
      "version": 2,
      "changeset": 72871348,
      "user": "leefrance",
      "uid": 4003599,
      "tags": {
        "mountain_pass": "yes",
        "name": "Hidden Hand Pass",
        "natural": "saddle"
      }
    },
    {
      "type": "node",
      "id": 5389661054,
      "lat": 48.6732396,
      "lon": -121.2468019,
      "timestamp": "2021-06-26T01:13:47Z",
      "version": 2,
      "changeset": 106988037,
      "user": "gustafson",
      "uid": 328596,
      "tags": {
        "addr:city": "Rockport",
        "addr:housenumber": "502",
        "addr:street": "Newhalem St",
        "name": "Skagit General Store",
        "opening_hours": "12:00",
        "shop": "convenience"
      }
    },
    {
      "type": "node",
      "id": 5417226958,
      "lat": 48.5266405,
      "lon": -121.4175362,
      "timestamp": "2018-02-17T17:16:15Z",
      "version": 4,
      "changeset": 56445520,
      "user": "Glassman",
      "uid": 447903,
      "tags": {
        "addr:city": "Marblemount",
        "addr:housenumber": "60967",
        "addr:postcode": "98267",
        "addr:street": "Cascade River Road",
        "name": "Cascade Wagon Road Campground",
        "tourism": "camp_site"
      }
    },
    {
      "type": "node",
      "id": 5434584353,
      "lat": 48.5294557,
      "lon": -121.2758598,
      "timestamp": "2018-08-30T22:39:34Z",
      "version": 2,
      "changeset": 62155523,
      "user": "Doug Schumacher",
      "uid": 7587394,
      "tags": {
        "name": "Marble Creek Campground",
        "tourism": "camp_site"
      }
    },
    {
      "type": "node",
      "id": 6374812053,
      "lat": 48.7270367,
      "lon": -121.597473,
      "timestamp": "2021-01-02T04:50:32Z",
      "version": 3,
      "changeset": 96794486,
      "user": "Omnific",
      "uid": 1408522,
      "tags": {
        "access": "yes",
        "backcountry": "yes",
        "dog": "leashed",
        "drinking_water": "no",
        "fee": "no",
        "group_only": "no",
        "internet_access": "no",
        "name": "Noisy Creek Campsites",
        "openfire": "yes",
        "operator": "U.S. Forest Service",
        "power_supply": "no",
        "shower": "no",
        "tourism": "camp_site"
      }
    },
    {
      "type": "node",
      "id": 6724581234,
      "lat": 48.8344226,
      "lon": -121.2017399,
      "timestamp": "2019-08-19T17:14:13Z",
      "version": 1,
      "changeset": 73508327,
      "user": "Tony Cannistra",
      "uid": 4492029,
      "tags": {
        "name": "Luna",
        "operator": "North Cascades National Park",
        "tourism": "camp_site"
      }
    },
    {
      "type": "node",
      "id": 7830813689,
      "lat": 48.474647,
      "lon": -120.9479413,
      "timestamp": "2020-08-20T23:13:53Z",
      "version": 1,
      "changeset": 89714488,
      "user": "nickmichal",
      "uid": 8440779,
      "tags": {
        "backcountry": "yes",
        "name": "Buckner",
        "operator": "North Cascades National Park",
        "tourism": "camp_site"
      }
    },
    {
      "type": "node",
      "id": 7888296475,
      "lat": 48.6669872,
      "lon": -121.586188,
      "timestamp": "2021-01-02T04:53:06Z",
      "version": 2,
      "changeset": 96794509,
      "user": "Omnific",
      "uid": 1408522,
      "tags": {
        "access": "yes",
        "backcountry": "yes",
        "dog": "leashed",
        "drinking_water": "no",
        "fee": "no",
        "group_only": "no",
        "internet_access": "no",
        "name": "Watson Lakes Campsites",
        "openfire": "yes",
        "power_supply": "no",
        "shower": "no",
        "tourism": "camp_site"
      }
    },
    {
      "type": "node",
      "id": 7888296476,
      "lat": 48.6594237,
      "lon": -121.589782,
      "timestamp": "2021-01-02T04:53:06Z",
      "version": 2,
      "changeset": 96794509,
      "user": "Omnific",
      "uid": 1408522,
      "tags": {
        "access": "yes",
        "backcountry": "yes",
        "dog": "leashed",
        "drinking_water": "no",
        "fee": "no",
        "group_only": "no",
        "internet_access": "no",
        "name": "Upper Anderson Lake Campsites",
        "openfire": "yes",
        "power_supply": "no",
        "shower": "no",
        "tourism": "camp_site"
      }
    },
    {
      "type": "node",
      "id": 7918896673,
      "lat": 48.9194713,
      "lon": -121.5897971,
      "timestamp": "2020-09-18T03:52:46Z",
      "version": 1,
      "changeset": 91078888,
      "user": "ppjj",
      "uid": 6771650,
      "tags": {
        "ele": "1652",
        "name": "Mamie Pass",
        "natural": "saddle"
      }
    },
    {
      "type": "node",
      "id": 7924256661,
      "lat": 48.8803013,
      "lon": -121.2533676,
      "timestamp": "2020-09-19T21:19:17Z",
      "version": 1,
      "changeset": 91161514,
      "user": "ppjj",
      "uid": 6771650,
      "tags": {
        "ele": "1103",
        "name": "Beaver Pass",
        "natural": "saddle"
      }
    },
    {
      "type": "node",
      "id": 7948183623,
      "lat": 48.847886,
      "lon": -121.3713742,
      "timestamp": "2020-09-27T16:33:05Z",
      "version": 1,
      "changeset": 91590047,
      "user": "ppjj",
      "uid": 6771650,
      "tags": {
        "name": "Perfect Pass",
        "natural": "saddle"
      }
    },
    {
      "type": "way",
      "id": 186174442,
      "timestamp": "2012-10-16T17:42:16Z",
      "version": 1,
      "changeset": 13522076,
      "user": "Glassman",
      "uid": 447903,
      "center": {
        "lat": 48.6732193,
        "lon": -121.2468153
      },
      "nodes": [],
      "tags": {
        "addr:city": "Marblemount",
        "addr:interpolation": "Milepost 120",
        "addr:postcode": "98267",
        "addr:street": "North Cascades Highway 20",
        "building": "yes",
        "name": "Skagit General Store",
        "shop": "convenience"
      }
    },
    {
      "type": "way",
      "id": 244465497,
      "timestamp": "2021-06-26T17:29:38Z",
      "version": 8,
      "changeset": 107011590,
      "user": "gustafson",
      "uid": 328596,
      "center": {
        "lat": 48.5263482,
        "lon": -121.4344191
      },
      "nodes": [],
      "tags": {
        "addr:city": "Marblemount",
        "addr:housenumber": "60070",
        "addr:postcode": "98267",
        "addr:street": "State Route 20",
        "building": "retail",
        "building:levels": "1",
        "name": "Food Mart",
        "opening_hours": "Mo-Su 06:00-22:00",
        "roof:levels": "0",
        "roof:shape": "flat",
        "shop": "convenience"
      }
    },
    {
      "type": "way",
      "id": 244465505,
      "timestamp": "2016-08-22T01:41:33Z",
      "version": 2,
      "changeset": 41604472,
      "user": "wislander",
      "uid": 384146,
      "center": {
        "lat": 48.5270642,
        "lon": -121.4320474
      },
      "nodes": [],
      "tags": {
        "addr:city": "Marblemount",
        "addr:housenumber": "60103",
        "addr:street": "State Route 20",
        "building": "yes",
        "name": "Chom's",
        "shop": "convenience"
      }
    }
  ]
}