{
  "osm3s": {
    "timestamp_osm_date": "2022-01-11T23:59:59Z",
    "timestamp_osm_base": "2022-01-12T05:09:00Z",
    "copyright": "The data included in this document is from www.openstreetmap.org. The data is made available under ODbL."
  },
  "elements": [
    {
      "type": "node",
      "id": 15419779,
      "lat": 39.7463749,
      "lon": 16.4835335,
      "timestamp": "2020-04-11T15:53:48Z",
      "version": 4,
      "changeset": 83403098,
      "user": "procuste",
      "uid": 1211315,
      "tags": {
        "name": "Marina di Sibari",
        "place": "village",
        "population": "241"
      }
    },
    {
      "type": "node",
      "id": 26859765,
      "lat": 39.615833,
      "lon": 16.651389,
      "timestamp": "2009-07-29T16:29:02Z",
      "version": 2,
      "changeset": 1976783,
      "user": "vincivis",
      "uid": 38146,
      "tags": {
        "name": "Rossano",
        "tourism": "camp_site"
      }
    },
    {
      "type": "node",
      "id": 26859837,
      "lat": 39.6901438,
      "lon": 16.5229802,
      "timestamp": "2014-05-27T15:26:15Z",
      "version": 2,
      "changeset": 22583863,
      "user": "sergio7826",
      "uid": 411998,
      "tags": {
        "name": "Thurium",
        "tourism": "camp_site"
      }
    },
    {
      "type": "node",
      "id": 26864585,
      "lat": 39.8943654,
      "lon": 16.2157523,
      "timestamp": "2018-12-07T11:17:09Z",
      "version": 14,
      "changeset": 65265118,
      "user": "mdx76",
      "uid": 616103,
      "tags": {
        "ele": "2267",
        "name": "Serra Dolcedorme",
        "natural": "peak",
        "prominence": "1715",
        "wikidata": "Q3957956",
        "wikipedia": "it:Serra Dolcedorme"
      }
    },
    {
      "type": "node",
      "id": 67273894,
      "lat": 39.493005,
      "lon": 16.3849498,
      "timestamp": "2017-03-05T13:46:19Z",
      "version": 8,
      "changeset": 46596366,
      "user": "sbiribizio",
      "uid": 354284,
      "tags": {
        "gfoss_id": "6488",
        "name": "Acri",
        "place": "town",
        "population": "20858",
        "source": "geodati.gfoss.it",
        "wikidata": "Q53819",
        "wikipedia": "it:Acri (Italia)"
      }
    },
    {
      "type": "node",
      "id": 67273919,
      "lat": 39.7850225,
      "lon": 16.3159275,
      "timestamp": "2016-09-18T01:10:57Z",
      "version": 5,
      "changeset": 42238062,
      "user": "fayor",
      "uid": 743479,
      "tags": {
        "alt_name": "Cassano allo Ionio",
        "gfoss_id": "6514",
        "name": "Cassano all'Ionio",
        "place": "town",
        "population": "18495",
        "source": "geodati.gfoss.it"
      }
    },
    {
      "type": "node",
      "id": 67273925,
      "lat": 39.4124481,
      "lon": 16.8225645,
      "timestamp": "2016-08-28T18:58:15Z",
      "version": 3,
      "changeset": 41762146,
      "user": "fayor",
      "uid": 743479,
      "tags": {
        "gfoss_id": "6508",
        "name": "Campana",
        "place": "village",
        "population": "2643",
        "source": "geodati.gfoss.it"
      }
    },
    {
      "type": "node",
      "id": 67273943,
      "lat": 39.567602,
      "lon": 16.772801,
      "timestamp": "2016-09-09T00:49:40Z",
      "version": 3,
      "changeset": 42015514,
      "user": "fayor",
      "uid": 743479,
      "tags": {
        "gfoss_id": "6532",
        "name": "Crosia",
        "place": "village",
        "population": "9762",
        "source": "geodati.gfoss.it"
      }
    },
    {
      "type": "node",
      "id": 67273962,
      "lat": 39.517201,
      "lon": 16.726501,
      "timestamp": "2016-08-28T18:58:21Z",
      "version": 2,
      "changeset": 41762146,
      "user": "fayor",
      "uid": 743479,
      "tags": {
        "gfoss_id": "6531",
        "name": "Cropalati",
        "place": "village",
        "population": "1263",
        "source": "geodati.gfoss.it"
      }
    },
    {
      "type": "node",
      "id": 67274126,
      "lat": 39.446105,
      "lon": 16.287255,
      "timestamp": "2016-08-28T18:58:29Z",
      "version": 7,
      "changeset": 41762146,
      "user": "fayor",
      "uid": 743479,
      "tags": {
        "gfoss_id": "6555",
        "name": "Luzzi",
        "place": "village",
        "population": "9396",
        "source": "geodati.gfoss.it"
      }
    },
    {
      "type": "node",
      "id": 67274165,
      "lat": 39.575017,
      "lon": 16.6333385,
      "timestamp": "2021-04-26T14:05:05Z",
      "version": 12,
      "changeset": 103642612,
      "user": "dgitto",
      "uid": 554973,
      "tags": {
        "gfoss_id": "6593",
        "name": "Rossano",
        "place": "town",
        "population": "5194",
        "source": "geodati.gfoss.it",
        "wikidata": "Q53952",
        "wikipedia": "it:Rossano (Italia)"
      }
    },
    {
      "type": "node",
      "id": 67274183,
      "lat": 39.5831,
      "lon": 16.420193,
      "timestamp": "2016-09-05T17:45:38Z",
      "version": 3,
      "changeset": 41936940,
      "user": "FraPla",
      "uid": 354689,
      "tags": {
        "gfoss_id": "6598",
        "name": "San Cosmo Albanese",
        "name:aae": "Stighari",
        "place": "village",
        "population": "702",
        "source": "geodati.gfoss.it"
      }
    },
    {
      "type": "node",
      "id": 67274211,
      "lat": 39.900406,
      "lon": 16.43199,
      "timestamp": "2016-09-05T17:42:47Z",
      "version": 3,
      "changeset": 41936878,
      "user": "FraPla",
      "uid": 354689,
      "tags": {
        "gfoss_id": "6585",
        "name": "Plataci",
        "name:aae": "Pllatani",
        "place": "village",
        "population": "920",
        "source": "geodati.gfoss.it"
      }
    },
    {
      "type": "node",
      "id": 67274216,
      "lat": 39.487501,
      "lon": 16.815803,
      "timestamp": "2016-08-28T18:58:37Z",
      "version": 2,
      "changeset": 41762146,
      "user": "fayor",
      "uid": 743479,
      "tags": {
        "gfoss_id": "6584",
        "name": "Pietrapaola",
        "place": "village",
        "population": "1238",
        "source": "geodati.gfoss.it"
      }
    },
    {
      "type": "node",
      "id": 67274282,
      "lat": 39.6209,
      "lon": 16.27169,
      "timestamp": "2016-08-28T18:58:50Z",
      "version": 2,
      "changeset": 41762146,
      "user": "fayor",
      "uid": 743479,
      "tags": {
        "gfoss_id": "6630",
        "name": "Tarsia",
        "place": "village",
        "population": "2383",
        "source": "geodati.gfoss.it"
      }
    },
    {
      "type": "node",
      "id": 67274328,
      "lat": 39.889205,
      "lon": 16.330288,
      "timestamp": "2016-08-28T18:58:43Z",
      "version": 2,
      "changeset": 41762146,
      "user": "fayor",
      "uid": 743479,
      "tags": {
        "gfoss_id": "6605",
        "name": "San Lorenzo Bellizzi",
        "place": "village",
        "population": "904",
        "source": "geodati.gfoss.it"
      }
    },
    {
      "type": "node",
      "id": 67274410,
      "lat": 39.5058502,
      "lon": 16.7595486,
      "timestamp": "2016-08-28T18:58:15Z",
      "version": 3,
      "changeset": 41762146,
      "user": "fayor",
      "uid": 743479,
      "tags": {
        "gfoss_id": "6507",
        "name": "Caloveto",
        "place": "village",
        "population": "1432",
        "source": "geodati.gfoss.it"
      }
    },
    {
      "type": "node",
      "id": 67274418,
      "lat": 39.5606726,
      "lon": 16.8011583,
      "timestamp": "2018-11-18T10:32:34Z",
      "version": 3,
      "changeset": 64616302,
      "user": "deizenov",
      "uid": 8331873,
      "tags": {
        "gfoss_id": "6506",
        "name": "Calopezzati",
        "place": "village",
        "population": "1206",
        "source": "geodati.gfoss.it"
      }
    },
    {
      "type": "node",
      "id": 67274424,
      "lat": 39.419799,
      "lon": 16.749002,
      "timestamp": "2016-08-28T18:58:13Z",
      "version": 2,
      "changeset": 41762146,
      "user": "fayor",
      "uid": 743479,
      "tags": {
        "gfoss_id": "6503",
        "name": "Bocchigliero",
        "place": "village",
        "population": "1897",
        "source": "geodati.gfoss.it"
      }
    },
    {
      "type": "node",
      "id": 67274430,
      "lat": 39.846505,
      "lon": 16.455191,
      "timestamp": "2016-08-28T18:58:53Z",
      "version": 2,
      "changeset": 41762146,
      "user": "fayor",
      "uid": 743479,
      "tags": {
        "gfoss_id": "6639",
        "name": "Villapiana",
        "place": "village",
        "population": "4752",
        "source": "geodati.gfoss.it"
      }
    },
    {
      "type": "node",
      "id": 67274451,
      "lat": 39.656901,
      "lon": 16.339491,
      "timestamp": "2016-08-28T18:58:50Z",
      "version": 2,
      "changeset": 41762146,
      "user": "fayor",
      "uid": 743479,
      "tags": {
        "gfoss_id": "6631",
        "name": "Terranova da Sibari",
        "place": "village",
        "population": "5216",
        "source": "geodati.gfoss.it"
      }
    },
    {
      "type": "node",
      "id": 67274501,
      "lat": 39.828804,
      "lon": 16.312488,
      "timestamp": "2016-09-05T17:36:01Z",
      "version": 3,
      "changeset": 41936731,
      "user": "FraPla",
      "uid": 354689,
      "tags": {
        "gfoss_id": "6526",
        "name": "Civita",
        "name:aae": "Çifti",
        "place": "village",
        "population": "1125",
        "source": "geodati.gfoss.it"
      }
    },
    {
      "type": "node",
      "id": 67274511,
      "lat": 39.595173,
      "lon": 16.5175366,
      "timestamp": "2018-03-30T21:48:54Z",
      "version": 6,
      "changeset": 57674422,
      "user": "fayor",
      "uid": 743479,
      "tags": {
        "gfoss_id": "6529",
        "name": "Corigliano Calabro",
        "place": "village",
        "population": "5402",
        "source": "geodati.gfoss.it",
        "wikidata": "Q53870",
        "wikipedia": "it:Corigliano Calabro"
      }
    },
    {
      "type": "node",
      "id": 67274517,
      "lat": 39.836404,
      "lon": 16.261987,
      "timestamp": "2016-09-05T17:39:01Z",
      "version": 3,
      "changeset": 41936799,
      "user": "FraPla",
      "uid": 354689,
      "tags": {
        "gfoss_id": "6542",
        "name": "Frascineto",
        "name:aae": "Frasnita",
        "place": "village",
        "population": "2503",
        "source": "geodati.gfoss.it"
      }
    },
    {
      "type": "node",
      "id": 67274531,
      "lat": 39.8178465,
      "lon": 16.3866436,
      "timestamp": "2016-08-28T18:58:24Z",
      "version": 3,
      "changeset": 41762146,
      "user": "fayor",
      "uid": 743479,
      "tags": {
        "gfoss_id": "6541",
        "name": "Francavilla Marittima",
        "place": "village",
        "population": "3088",
        "source": "geodati.gfoss.it"
      }
    },
    {
      "type": "node",
      "id": 67274550,
      "lat": 39.860405,
      "lon": 16.382789,
      "timestamp": "2016-08-28T18:58:19Z",
      "version": 2,
      "changeset": 41762146,
      "user": "fayor",
      "uid": 743479,
      "tags": {
        "gfoss_id": "6521",
        "name": "Cerchiara di Calabria",
        "place": "village",
        "population": "2942",
        "source": "geodati.gfoss.it"
      }
    },
    {
      "type": "node",
      "id": 67274568,
      "lat": 39.5293945,
      "lon": 16.6815689,
      "timestamp": "2018-10-26T12:31:18Z",
      "version": 3,
      "changeset": 63898846,
      "user": "deizenov",
      "uid": 8331873,
      "tags": {
        "gfoss_id": "6574",
        "name": "Paludi",
        "place": "village",
        "population": "1929",
        "source": "geodati.gfoss.it"
      }
    },
    {
      "type": "node",
      "id": 67274640,
      "lat": 39.467201,
      "lon": 16.834804,
      "timestamp": "2016-08-28T18:58:30Z",
      "version": 2,
      "changeset": 41762146,
      "user": "fayor",
      "uid": 743479,
      "tags": {
        "gfoss_id": "6559",
        "name": "Mandatoriccio",
        "place": "village",
        "population": "3045",
        "source": "geodati.gfoss.it"
      }
    },
    {
      "type": "node",
      "id": 67274689,
      "lat": 39.448299,
      "lon": 16.610499,
      "timestamp": "2016-08-28T18:58:29Z",
      "version": 2,
      "changeset": 41762146,
      "user": "fayor",
      "uid": 743479,
      "tags": {
        "gfoss_id": "6553",
        "name": "Longobucco",
        "place": "village",
        "population": "4351",
        "source": "geodati.gfoss.it"
      }
    },
    {
      "type": "node",
      "id": 67274740,
      "lat": 39.569899,
      "lon": 16.361492,
      "timestamp": "2021-05-26T01:33:54Z",
      "version": 4,
      "changeset": 105320446,
      "user": "Fastbyte01",
      "uid": 3427222,
      "tags": {
        "gfoss_id": "6599",
        "name": "San Demetrio Corone",
        "name:sq": "Shën Mitri",
        "place": "village",
        "population": "3944",
        "source": "geodati.gfoss.it"
      }
    },
    {
      "type": "node",
      "id": 67274745,
      "lat": 39.5818179,
      "lon": 16.4541868,
      "timestamp": "2020-02-11T21:18:33Z",
      "version": 5,
      "changeset": 80870633,
      "user": "Giovanni Cerrigone",
      "uid": 8269646,
      "tags": {
        "gfoss_id": "6603",
        "name": "San Giorgio Albanese",
        "name:aae": "Mbuzati",
        "place": "village",
        "population": "1709",
        "source": "geodati.gfoss.it"
      }
    },
    {
      "type": "node",
      "id": 67274754,
      "lat": 39.668201,
      "lon": 16.29739,
      "timestamp": "2016-09-05T17:49:59Z",
      "version": 3,
      "changeset": 41937022,
      "user": "FraPla",
      "uid": 354689,
      "tags": {
        "gfoss_id": "6606",
        "name": "San Lorenzo del Vallo",
        "name:aae": "Shëllorenxi",
        "place": "village",
        "population": "3428",
        "source": "geodati.gfoss.it"
      }
    },
    {
      "type": "node",
      "id": 67274790,
      "lat": 39.398495,
      "lon": 16.287193,
      "timestamp": "2016-08-28T18:58:40Z",
      "version": 2,
      "changeset": 41762146,
      "user": "fayor",
      "uid": 743479,
      "tags": {
        "gfoss_id": "6591",
        "name": "Rose",
        "place": "village",
        "population": "4413",
        "source": "geodati.gfoss.it"
      }
    },
    {
      "type": "node",
      "id": 67274856,
      "lat": 39.5854,
      "lon": 16.432894,
      "timestamp": "2018-04-11T23:17:29Z",
      "version": 3,
      "changeset": 58020175,
      "user": "Fastbyte01",
      "uid": 3427222,
      "tags": {
        "gfoss_id": "6637",
        "is_in": "Cosenza, Calabria, Italy",
        "name": "Vaccarizzo Albanese",
        "name:sq": "Vakarici",
        "place": "village",
        "population": "1326",
        "source": "geodati.gfoss.it"
      }
    },
    {
      "type": "node",
      "id": 67274877,
      "lat": 39.8701066,
      "lon": 16.530667,
      "timestamp": "2016-09-09T00:49:53Z",
      "version": 4,
      "changeset": 42015514,
      "user": "fayor",
      "uid": 743479,
      "tags": {
        "gfoss_id": "6635",
        "name": "Trebisacce",
        "place": "village",
        "population": "9055",
        "source": "geodati.gfoss.it"
      }
    },
    {
      "type": "node",
      "id": 67274895,
      "lat": 39.668801,
      "lon": 16.31049,
      "timestamp": "2016-09-05T17:50:33Z",
      "version": 3,
      "changeset": 41937037,
      "user": "FraPla",
      "uid": 354689,
      "tags": {
        "gfoss_id": "6627",
        "name": "Spezzano Albanese",
        "name:aae": "Spixana",
        "place": "village",
        "population": "7036",
        "source": "geodati.gfoss.it"
      }
    },
    {
      "type": "node",
      "id": 67274934,
      "lat": 39.5470904,
      "lon": 16.3291171,
      "timestamp": "2016-09-05T17:47:36Z",
      "version": 4,
      "changeset": 41936978,
      "user": "FraPla",
      "uid": 354689,
      "tags": {
        "gfoss_id": "6618",
        "name": "Santa Sofia d'Epiro",
        "name:aae": "Shën Sofia",
        "place": "village",
        "population": "3131",
        "source": "geodati.gfoss.it"
      }
    },
    {
      "type": "node",
      "id": 388272308,
      "lat": 39.9076386,
      "lon": 16.1884934,
      "timestamp": "2017-03-05T13:46:21Z",
      "version": 9,
      "changeset": 46596366,
      "user": "sbiribizio",
      "uid": 354284,
      "tags": {
        "ele": "2248",
        "name": "Monte Pollino",
        "natural": "peak",
        "wikidata": "Q3861856",
        "wikipedia": "it:Monte Pollino"
      }
    },
    {
      "type": "node",
      "id": 471795846,
      "lat": 39.9041832,
      "lon": 16.2197396,
      "timestamp": "2017-03-30T14:07:24Z",
      "version": 5,
      "changeset": 47293459,
      "user": "vincemar",
      "uid": 2044578,
      "tags": {
        "ele": "1800",
        "name": "Sorgente di Acquafredda",
        "natural": "spring"
      }
    },
    {
      "type": "node",
      "id": 639923473,
      "lat": 39.5916212,
      "lon": 16.5227877,
      "timestamp": "2013-06-03T18:50:31Z",
      "version": 2,
      "changeset": 16411042,
      "user": "albertux",
      "uid": 118185,
      "tags": {
        "amenity": "drinking_water"
      }
    },
    {
      "type": "node",
      "id": 639923475,
      "lat": 39.5976865,
      "lon": 16.519513,
      "timestamp": "2020-07-16T09:34:37Z",
      "version": 2,
      "changeset": 88077892,
      "user": "FERDINANDO81",
      "uid": 11461616,
      "tags": {
        "amenity": "drinking_water"
      }
    },
    {
      "type": "node",
      "id": 639923480,
      "lat": 39.60582,
      "lon": 16.5189598,
      "timestamp": "2010-02-15T16:27:48Z",
      "version": 1,
      "changeset": 3884529,
      "user": "glaucos",
      "uid": 113023,
      "tags": {
        "amenity": "drinking_water"
      }
    },
    {
      "type": "node",
      "id": 639923484,
      "lat": 39.6272728,
      "lon": 16.5081489,
      "timestamp": "2020-07-17T15:32:59Z",
      "version": 2,
      "changeset": 88150353,
      "user": "FERDINANDO81",
      "uid": 11461616,
      "tags": {
        "amenity": "drinking_water"
      }
    },
    {
      "type": "node",
      "id": 1059765290,
      "lat": 39.5496364,
      "lon": 16.8483264,
      "timestamp": "2013-03-11T17:29:53Z",
      "version": 2,
      "changeset": 15330188,
      "user": "fair",
      "uid": 977303,
      "tags": {
        "name": "Irene",
        "phone": "+39 0983 90064",
        "tourism": "camp_site"
      }
    },
    {
      "type": "node",
      "id": 1211891621,
      "lat": 39.4635192,
      "lon": 16.1901811,
      "timestamp": "2011-03-21T13:38:39Z",
      "version": 1,
      "changeset": 7627329,
      "user": "Udini",
      "uid": 410505,
      "tags": {
        "name": "San Sosti",
        "place": "village"
      }
    },
    {
      "type": "node",
      "id": 1211891643,
      "lat": 39.4648013,
      "lon": 16.2001388,
      "timestamp": "2011-03-21T13:38:40Z",
      "version": 1,
      "changeset": 7627329,
      "user": "Udini",
      "uid": 410505,
      "tags": {
        "name": "Cozzo Carbonaro",
        "place": "village"
      }
    },
    {
      "type": "node",
      "id": 1411725451,
      "lat": 39.8998495,
      "lon": 16.2010484,
      "timestamp": "2020-03-01T19:46:40Z",
      "version": 7,
      "changeset": 81652882,
      "user": "mdx76",
      "uid": 616103,
      "tags": {
        "ele": "1974",
        "name": "Varco del Malavento (Sella Dolcedorme)",
        "natural": "saddle"
      }
    },
    {
      "type": "node",
      "id": 1417513774,
      "lat": 39.8959316,
      "lon": 16.2403906,
      "timestamp": "2016-08-12T21:40:37Z",
      "version": 2,
      "changeset": 41419340,
      "user": "mggm",
      "uid": 4087173,
      "tags": {
        "ele": "1480",
        "name": "Sorgente del Vascello",
        "natural": "spring"
      }
    },
    {
      "type": "node",
      "id": 1806194210,
      "lat": 39.3753141,
      "lon": 16.5351751,
      "timestamp": "2012-06-29T14:59:19Z",
      "version": 1,
      "changeset": 12057465,
      "user": "G04tb0y",
      "uid": 189399,
      "tags": {
        "name": "Cuponello",
        "place": "hamlet"
      }
    },
    {
      "type": "node",
      "id": 1806194212,
      "lat": 39.3716866,
      "lon": 16.6150869,
      "timestamp": "2017-03-05T13:46:31Z",
      "version": 4,
      "changeset": 46596366,
      "user": "sbiribizio",
      "uid": 354284,
      "tags": {
        "ele": "1689",
        "name": "Monte Pettinascura",
        "natural": "peak",
        "wikidata": "Q3861834",
        "wikipedia": "it:Monte Pettinascura"
      }
    },
    {
      "type": "node",
      "id": 1806573267,
      "lat": 39.4040856,
      "lon": 16.4758945,
      "timestamp": "2012-06-29T21:36:24Z",
      "version": 1,
      "changeset": 12061065,
      "user": "G04tb0y",
      "uid": 189399,
      "tags": {
        "name": "Li Brandi",
        "place": "hamlet"
      }
    },
    {
      "type": "node",
      "id": 1813104042,
      "lat": 39.4131716,
      "lon": 16.5430218,
      "timestamp": "2012-07-04T20:30:10Z",
      "version": 1,
      "changeset": 12114618,
      "user": "G04tb0y",
      "uid": 189399,
      "tags": {
        "name": "Cava di Melis",
        "place": "hamlet"
      }
    },
    {
      "type": "node",
      "id": 1842826817,
      "lat": 39.3760086,
      "lon": 16.4248192,
      "timestamp": "2012-07-29T14:33:51Z",
      "version": 1,
      "changeset": 12535761,
      "user": "G04tb0y",
      "uid": 189399,
      "tags": {
        "name": "Salerni",
        "place": "hamlet"
      }
    },
    {
      "type": "node",
      "id": 2056822321,
      "lat": 39.4124625,
      "lon": 16.8223516,
      "timestamp": "2012-12-08T23:07:14Z",
      "version": 1,
      "changeset": 14206855,
      "user": "Campanaelefante",
      "uid": 1121397,
      "tags": {
        "amenity": "drinking_water"
      }
    },
    {
      "type": "node",
      "id": 2056824315,
      "lat": 39.4138136,
      "lon": 16.8213726,
      "timestamp": "2012-12-08T23:08:32Z",
      "version": 1,
      "changeset": 14206855,
      "user": "Campanaelefante",
      "uid": 1121397,
      "tags": {
        "amenity": "drinking_water"
      }
    },
    {
      "type": "node",
      "id": 2056825444,
      "lat": 39.4128852,
      "lon": 16.8273995,
      "timestamp": "2012-12-08T23:09:13Z",
      "version": 1,
      "changeset": 14206855,
      "user": "Campanaelefante",
      "uid": 1121397,
      "tags": {
        "amenity": "drinking_water"
      }
    },
    {
      "type": "node",
      "id": 2056826635,
      "lat": 39.408438,
      "lon": 16.8286038,
      "timestamp": "2012-12-08T23:10:04Z",
      "version": 1,
      "changeset": 14206855,
      "user": "Campanaelefante",
      "uid": 1121397,
      "tags": {
        "amenity": "drinking_water"
      }
    },
    {
      "type": "node",
      "id": 2056827493,
      "lat": 39.4079945,
      "lon": 16.8295721,
      "timestamp": "2012-12-08T23:10:38Z",
      "version": 1,
      "changeset": 14206855,
      "user": "Campanaelefante",
      "uid": 1121397,
      "tags": {
        "amenity": "drinking_water"
      }
    },
    {
      "type": "node",
      "id": 2056830230,
      "lat": 39.4075738,
      "lon": 16.8307657,
      "timestamp": "2012-12-08T23:12:20Z",
      "version": 1,
      "changeset": 14206855,
      "user": "Campanaelefante",
      "uid": 1121397,
      "tags": {
        "amenity": "drinking_water"
      }
    },
    {
      "type": "node",
      "id": 2056830592,
      "lat": 39.4088214,
      "lon": 16.8266914,
      "timestamp": "2012-12-08T23:13:22Z",
      "version": 1,
      "changeset": 14206855,
      "user": "Campanaelefante",
      "uid": 1121397,
      "tags": {
        "amenity": "drinking_water"
      }
    },
    {
      "type": "node",
      "id": 2056831056,
      "lat": 39.4099736,
      "lon": 16.8257526,
      "timestamp": "2012-12-08T23:14:54Z",
      "version": 1,
      "changeset": 14206855,
      "user": "Campanaelefante",
      "uid": 1121397,
      "tags": {
        "amenity": "drinking_water"
      }
    },
    {
      "type": "node",
      "id": 2056833688,
      "lat": 39.4184738,
      "lon": 16.813908,
      "timestamp": "2012-12-08T23:16:23Z",
      "version": 1,
      "changeset": 14206855,
      "user": "Campanaelefante",
      "uid": 1121397,
      "tags": {
        "amenity": "drinking_water"
      }
    },
    {
      "type": "node",
      "id": 2056834194,
      "lat": 39.4142384,
      "lon": 16.8131221,
      "timestamp": "2012-12-08T23:17:39Z",
      "version": 1,
      "changeset": 14206855,
      "user": "Campanaelefante",
      "uid": 1121397,
      "tags": {
        "amenity": "drinking_water"
      }
    },
    {
      "type": "node",
      "id": 2056834966,
      "lat": 39.410929,
      "lon": 16.851188,
      "timestamp": "2012-12-08T23:20:12Z",
      "version": 1,
      "changeset": 14206855,
      "user": "Campanaelefante",
      "uid": 1121397,
      "tags": {
        "amenity": "drinking_water"
      }
    },
    {
      "type": "node",
      "id": 2056839084,
      "lat": 39.4123112,
      "lon": 16.8248917,
      "timestamp": "2012-12-08T23:22:49Z",
      "version": 1,
      "changeset": 14206855,
      "user": "Campanaelefante",
      "uid": 1121397,
      "tags": {
        "amenity": "drinking_water"
      }
    },
    {
      "type": "node",
      "id": 2056944712,
      "lat": 39.43064,
      "lon": 16.8120734,
      "timestamp": "2012-12-09T00:34:45Z",
      "version": 1,
      "changeset": 14206855,
      "user": "Campanaelefante",
      "uid": 1121397,
      "tags": {
        "tourism": "camp_site"
      }
    },
    {
      "type": "node",
      "id": 2348137844,
      "lat": 39.8742339,
      "lon": 16.2823759,
      "timestamp": "2017-03-30T15:13:48Z",
      "version": 2,
      "changeset": 47295403,
      "user": "vincemar",
      "uid": 2044578,
      "tags": {
        "name": "Sorgente Piano di Ratto",
        "natural": "spring"
      }
    },
    {
      "type": "node",
      "id": 2348218251,
      "lat": 39.8853344,
      "lon": 16.2608646,
      "timestamp": "2017-03-30T15:13:48Z",
      "version": 4,
      "changeset": 47295403,
      "user": "vincemar",
      "uid": 2044578,
      "tags": {
        "amenity": "drinking_water",
        "name": "Fontana del Principe - Piano di Badia"
      }
    },
    {
      "type": "node",
      "id": 2368309185,
      "lat": 39.4923713,
      "lon": 16.3801735,
      "timestamp": "2016-09-12T16:36:26Z",
      "version": 2,
      "changeset": 42105180,
      "user": "Garr Otto",
      "uid": 1572306,
      "tags": {
        "name": "Conad",
        "operator": "GMG",
        "shop": "supermarket"
      }
    },
    {
      "type": "node",
      "id": 3094199836,
      "lat": 39.7906388,
      "lon": 16.4786098,
      "timestamp": "2020-04-12T16:47:05Z",
      "version": 2,
      "changeset": 83432267,
      "user": "procuste",
      "uid": 1211315,
      "tags": {
        "name": "Villapiana Scalo",
        "place": "village"
      }
    },
    {
      "type": "node",
      "id": 3152366337,
      "lat": 39.8721411,
      "lon": 16.2677502,
      "timestamp": "2021-07-17T13:58:17Z",
      "version": 2,
      "changeset": 108161402,
      "user": "mcheck",
      "uid": 478872,
      "tags": {
        "ele": "1685",
        "name": "Passo del Principe",
        "natural": "saddle"
      }
    },
    {
      "type": "node",
      "id": 3624007510,
      "lat": 39.8453804,
      "lon": 16.4536914,
      "timestamp": "2018-12-10T18:56:08Z",
      "version": 3,
      "changeset": 65353620,
      "user": "barracuda-70",
      "uid": 2871504,
      "tags": {
        "amenity": "drinking_water",
        "name": "fontanella pubblica"
      }
    },
    {
      "type": "node",
      "id": 3624007516,
      "lat": 39.8498231,
      "lon": 16.452698,
      "timestamp": "2018-12-10T18:56:08Z",
      "version": 2,
      "changeset": 65353620,
      "user": "barracuda-70",
      "uid": 2871504,
      "tags": {
        "amenity": "drinking_water",
        "name": "fontanella pubblica"
      }
    },
    {
      "type": "node",
      "id": 3624007517,
      "lat": 39.8471224,
      "lon": 16.457997,
      "timestamp": "2015-06-30T23:12:41Z",
      "version": 2,
      "changeset": 32320660,
      "user": "mcheckimport",
      "uid": 893327,
      "tags": {
        "amenity": "drinking_water",
        "name": "fontanella pubblica"
      }
    },
    {
      "type": "node",
      "id": 3734069500,
      "lat": 39.503112,
      "lon": 16.2657188,
      "timestamp": "2015-09-21T16:35:57Z",
      "version": 3,
      "changeset": 34165683,
      "user": "danidoedel",
      "uid": 3164012,
      "tags": {
        "name": "EuroSpin",
        "shop": "supermarket"
      }
    },
    {
      "type": "node",
      "id": 3740293568,
      "lat": 39.5092806,
      "lon": 16.2851116,
      "timestamp": "2015-09-12T15:23:34Z",
      "version": 1,
      "changeset": 33982310,
      "user": "alex464655926",
      "uid": 3215319,
      "tags": {
        "name": "maxi 1",
        "shop": "supermarket"
      }
    },
    {
      "type": "node",
      "id": 3740293600,
      "lat": 39.5049971,
      "lon": 16.2852164,
      "timestamp": "2015-09-12T15:23:35Z",
      "version": 1,
      "changeset": 33982310,
      "user": "alex464655926",
      "uid": 3215319,
      "tags": {
        "name": "grotta Sant'Umile",
        "natural": "cave_entrance"
      }
    },
    {
      "type": "node",
      "id": 3778877479,
      "lat": 39.8917965,
      "lon": 16.1899981,
      "timestamp": "2021-05-26T09:06:43Z",
      "version": 2,
      "changeset": 105343401,
      "user": "lucadelu",
      "uid": 13591,
      "tags": {
        "ele": "1700",
        "name": "Varco del Pollinello",
        "natural": "saddle"
      }
    },
    {
      "type": "node",
      "id": 3899097135,
      "lat": 39.5703016,
      "lon": 16.3595212,
      "timestamp": "2018-04-19T02:10:44Z",
      "version": 4,
      "changeset": 58219676,
      "user": "Fastbyte01",
      "uid": 3427222,
      "tags": {
        "name": "Carrefour Market - Supermercato",
        "opening_hours": "Mo-Su 08:30-13:00, Tu-Sa 16:00-20:00",
        "shop": "supermarket",
        "wheelchair": "yes"
      }
    },
    {
      "type": "node",
      "id": 3903849454,
      "lat": 39.5864311,
      "lon": 16.431738,
      "timestamp": "2015-12-22T02:06:53Z",
      "version": 1,
      "changeset": 36097745,
      "user": "Fastbyte01",
      "uid": 3427222,
      "tags": {
        "name": "Minimarket Bua",
        "shop": "convenience"
      }
    },
    {
      "type": "node",
      "id": 3903858658,
      "lat": 39.5667251,
      "lon": 16.3642581,
      "timestamp": "2018-04-11T23:03:18Z",
      "version": 2,
      "changeset": 58020007,
      "user": "Fastbyte01",
      "uid": 3427222,
      "tags": {
        "amenity": "drinking_water"
      }
    },
    {
      "type": "node",
      "id": 3903858659,
      "lat": 39.5674157,
      "lon": 16.3682466,
      "timestamp": "2018-04-11T23:27:04Z",
      "version": 2,
      "changeset": 58020238,
      "user": "Fastbyte01",
      "uid": 3427222,
      "tags": {
        "amenity": "drinking_water"
      }
    },
    {
      "type": "node",
      "id": 3903859266,
      "lat": 39.5736895,
      "lon": 16.3645808,
      "timestamp": "2021-05-26T01:23:37Z",
      "version": 2,
      "changeset": 105319651,
      "user": "Fastbyte01",
      "uid": 3427222,
      "tags": {
        "name": "Supermarket di Sposato Giuseppe",
        "shop": "supermarket"
      }
    },
    {
      "type": "node",
      "id": 3907387731,
      "lat": 39.5670729,
      "lon": 16.3630718,
      "timestamp": "2018-04-11T23:03:18Z",
      "version": 2,
      "changeset": 58020007,
      "user": "Fastbyte01",
      "uid": 3427222,
      "tags": {
        "amenity": "drinking_water"
      }
    },
    {
      "type": "node",
      "id": 3907388113,
      "lat": 39.5444463,
      "lon": 16.3716966,
      "timestamp": "2015-12-23T23:29:13Z",
      "version": 1,
      "changeset": 36136610,
      "user": "Fastbyte01",
      "uid": 3427222,
      "tags": {
        "amenity": "drinking_water"
      }
    },
    {
      "type": "node",
      "id": 3907388140,
      "lat": 39.5091909,
      "lon": 16.3827312,
      "timestamp": "2019-10-09T15:26:11Z",
      "version": 2,
      "changeset": 75471208,
      "user": "Garr Otto",
      "uid": 1572306,
      "tags": {
        "name": "Simar - Supermercato",
        "shop": "supermarket"
      }
    },
    {
      "type": "node",
      "id": 4245096015,
      "lat": 39.8154937,
      "lon": 16.202772,
      "timestamp": "2016-10-27T15:18:18Z",
      "version": 4,
      "changeset": 43219768,
      "user": "calfarome",
      "uid": 2511706,
      "tags": {
        "gfoss_id": "6518",
        "name": "Castrovillari",
        "place": "town",
        "population": "22240",
        "source": "geodati.gfoss.it",
        "wikidata": "Q53857"
      }
    },
    {
      "type": "node",
      "id": 4246471171,
      "lat": 39.5112124,
      "lon": 16.1764098,
      "timestamp": "2016-06-16T12:32:15Z",
      "version": 1,
      "changeset": 40065607,
      "user": "Driver93",
      "uid": 3596908,
      "tags": {
        "name": "Sartano",
        "place": "village"
      }
    },
    {
      "type": "node",
      "id": 4281624311,
      "lat": 39.8218263,
      "lon": 16.1961125,
      "timestamp": "2016-07-04T08:31:19Z",
      "version": 1,
      "changeset": 40473461,
      "user": "mggm",
      "uid": 4087173,
      "tags": {
        "addr:city": "Castrovillari",
        "addr:postcode": "87012",
        "addr:street": "Via Polisportivo I maggio",
        "name": "Maxi Futura",
        "shop": "supermarket"
      }
    },
    {
      "type": "node",
      "id": 4286041442,
      "lat": 39.8196866,
      "lon": 16.2053645,
      "timestamp": "2020-10-26T21:41:56Z",
      "version": 3,
      "changeset": 93081755,
      "user": "EFL64",
      "uid": 4146309,
      "tags": {
        "addr:city": "Castrovillari",
        "addr:postcode": "87012",
        "addr:street": "Via Padre Pio da Pietrelcina",
        "name": "Pianeta Pulito",
        "shop": "supermarket"
      }
    },
    {
      "type": "node",
      "id": 4293362930,
      "lat": 39.8150607,
      "lon": 16.1995256,
      "timestamp": "2016-07-11T20:26:56Z",
      "version": 2,
      "changeset": 40663771,
      "user": "mcheckimport",
      "uid": 893327,
      "tags": {
        "name": "Pick Up",
        "shop": "supermarket"
      }
    },
    {
      "type": "node",
      "id": 4294259169,
      "lat": 39.8183943,
      "lon": 16.2162919,
      "timestamp": "2016-07-10T09:50:12Z",
      "version": 1,
      "changeset": 40626788,
      "user": "mggm",
      "uid": 4087173,
      "tags": {
        "addr:city": "Castrovillari",
        "addr:housenumber": "151",
        "addr:postcode": "87012",
        "addr:street": "Viale del Lavoro",
        "name": "Deter Shop",
        "shop": "supermarket"
      }
    },
    {
      "type": "node",
      "id": 4296560991,
      "lat": 39.8171246,
      "lon": 16.2122271,
      "timestamp": "2016-07-11T14:03:25Z",
      "version": 1,
      "changeset": 40651086,
      "user": "ezy65",
      "uid": 3957088,
      "tags": {
        "addr:city": "Castrovillari",
        "addr:postcode": "87012",
        "addr:street": "Viale del Lavoro",
        "name": "Supermercati dok",
        "shop": "supermarket"
      }
    },
    {
      "type": "node",
      "id": 4301046885,
      "lat": 39.8174361,
      "lon": 16.2033959,
      "timestamp": "2016-07-13T18:38:07Z",
      "version": 1,
      "changeset": 40721179,
      "user": "mggm",
      "uid": 4087173,
      "tags": {
        "addr:city": "Castrovillari",
        "addr:housenumber": "1",
        "addr:postcode": "87012",
        "addr:street": "Via Galeno",
        "name": "Magika Shop",
        "shop": "supermarket"
      }
    },
    {
      "type": "node",
      "id": 4303592290,
      "lat": 39.8180675,
      "lon": 16.2164836,
      "timestamp": "2020-07-21T14:31:40Z",
      "version": 2,
      "changeset": 88299497,
      "user": "damianeue",
      "uid": 10124288,
      "tags": {
        "addr:city": "Castrovillari",
        "addr:postcode": "87012",
        "addr:street": "Viale del Lavoro",
        "brand": "Conad",
        "brand:wikidata": "Q639075",
        "brand:wikipedia": "it:Conad",
        "name": "Conad",
        "shop": "supermarket"
      }
    },
    {
      "type": "node",
      "id": 4303617454,
      "lat": 39.8185426,
      "lon": 16.219418,
      "timestamp": "2020-07-21T14:31:40Z",
      "version": 2,
      "changeset": 88299497,
      "user": "damianeue",
      "uid": 10124288,
      "tags": {
        "addr:city": "Castrovillari",
        "addr:postcode": "87012",
        "addr:street": "Viale del Lavoro",
        "brand": "MD",
        "brand:wikidata": "Q3841263",
        "brand:wikipedia": "en:MD Discount",
        "name": "MD",
        "shop": "supermarket"
      }
    },
    {
      "type": "node",
      "id": 4313536975,
      "lat": 39.8098851,
      "lon": 16.2068119,
      "timestamp": "2016-07-20T20:56:06Z",
      "version": 1,
      "changeset": 40905885,
      "user": "mggm",
      "uid": 4087173,
      "tags": {
        "addr:city": "Castrovillari",
        "addr:housenumber": "341",
        "addr:postcode": "87012",
        "addr:street": "Corso Giuseppe Garibaldi",
        "name": "Euromarket",
        "shop": "supermarket"
      }
    },
    {
      "type": "node",
      "id": 4313848140,
      "lat": 39.8151289,
      "lon": 16.2068405,
      "timestamp": "2016-07-29T16:17:55Z",
      "version": 4,
      "changeset": 41112804,
      "user": "mcheckimport",
      "uid": 893327,
      "tags": {
        "addr:city": "Castrovillari",
        "addr:housenumber": "15",
        "addr:postcode": "87012",
        "addr:street": "Via Coscile",
        "name": "Simpatia Crai",
        "shop": "supermarket"
      }
    },
    {
      "type": "node",
      "id": 4336127292,
      "lat": 39.8272015,
      "lon": 16.2366631,
      "timestamp": "2016-08-04T21:06:14Z",
      "version": 1,
      "changeset": 41247509,
      "user": "ezy65",
      "uid": 3957088,
      "tags": {
        "name": "Sorgente Pietà 1",
        "natural": "spring"
      }
    },
    {
      "type": "node",
      "id": 4336145743,
      "lat": 39.8255494,
      "lon": 16.2359121,
      "timestamp": "2016-08-04T21:04:25Z",
      "version": 1,
      "changeset": 41247460,
      "user": "ezy65",
      "uid": 3957088,
      "tags": {
        "name": "Sorgente Pietà 2",
        "natural": "spring"
      }
    },
    {
      "type": "node",
      "id": 4336148961,
      "lat": 39.8250468,
      "lon": 16.2374517,
      "timestamp": "2016-08-04T21:07:50Z",
      "version": 1,
      "changeset": 41247543,
      "user": "ezy65",
      "uid": 3957088,
      "tags": {
        "name": "Sorgente Pietà 3",
        "natural": "spring"
      }
    },
    {
      "type": "node",
      "id": 4341627989,
      "lat": 39.6005311,
      "lon": 16.5676833,
      "timestamp": "2017-03-05T13:46:44Z",
      "version": 2,
      "changeset": 46596366,
      "user": "sbiribizio",
      "uid": 354284,
      "tags": {
        "name": "Piragineti",
        "place": "hamlet",
        "wikidata": "Q3905562",
        "wikipedia": "it:Piragineti"
      }
    },
    {
      "type": "node",
      "id": 4347368587,
      "lat": 39.8502353,
      "lon": 16.2071529,
      "timestamp": "2016-08-12T21:23:28Z",
      "version": 3,
      "changeset": 41419084,
      "user": "mggm",
      "uid": 4087173,
      "tags": {
        "name": "Fonte Santo Iorio - Località Colle Vaccaro",
        "natural": "spring"
      }
    },
    {
      "type": "node",
      "id": 4347376723,
      "lat": 39.845047,
      "lon": 16.2043302,
      "timestamp": "2021-07-17T15:13:49Z",
      "version": 4,
      "changeset": 108163965,
      "user": "mcheck",
      "uid": 478872,
      "tags": {
        "name": "Fonte Cornice",
        "natural": "spring"
      }
    },
    {
      "type": "node",
      "id": 4347398134,
      "lat": 39.8768897,
      "lon": 16.1888716,
      "timestamp": "2016-08-12T14:09:32Z",
      "version": 1,
      "changeset": 41411488,
      "user": "ezy65",
      "uid": 3957088,
      "tags": {
        "name": "Sarro - Località Murge di Gelsa",
        "natural": "spring"
      }
    },
    {
      "type": "node",
      "id": 4347408905,
      "lat": 39.8813727,
      "lon": 16.1821554,
      "timestamp": "2016-08-12T14:17:15Z",
      "version": 1,
      "changeset": 41411622,
      "user": "ezy65",
      "uid": 3957088,
      "tags": {
        "name": "Sambuco - Località Canale Cornale",
        "natural": "spring"
      }
    },
    {
      "type": "node",
      "id": 4347497461,
      "lat": 39.8234051,
      "lon": 16.2158252,
      "timestamp": "2016-08-12T15:16:59Z",
      "version": 1,
      "changeset": 41412622,
      "user": "ezy65",
      "uid": 3957088,
      "tags": {
        "name": "Bolinaro 3 - Via dei Platani",
        "natural": "spring"
      }
    },
    {
      "type": "node",
      "id": 4347499686,
      "lat": 39.8233474,
      "lon": 16.2153934,
      "timestamp": "2016-08-12T15:19:07Z",
      "version": 1,
      "changeset": 41412664,
      "user": "ezy65",
      "uid": 3957088,
      "tags": {
        "name": "Bolinaro 1 - Via dei Platani",
        "natural": "spring"
      }
    },
    {
      "type": "node",
      "id": 4347501789,
      "lat": 39.8236214,
      "lon": 16.2153505,
      "timestamp": "2016-08-12T15:20:14Z",
      "version": 1,
      "changeset": 41412688,
      "user": "ezy65",
      "uid": 3957088,
      "tags": {
        "name": "Bolinaro 2 - Via dei Platani",
        "natural": "spring"
      }
    },
    {
      "type": "node",
      "id": 4347558302,
      "lat": 39.7336181,
      "lon": 16.2570531,
      "timestamp": "2016-08-12T16:08:50Z",
      "version": 1,
      "changeset": 41413447,
      "user": "mggm",
      "uid": 4087173,
      "tags": {
        "name": "Bidone - Località Cammarata",
        "natural": "spring"
      }
    },
    {
      "type": "node",
      "id": 4347576635,
      "lat": 39.7289636,
      "lon": 16.2684192,
      "timestamp": "2016-08-12T16:24:16Z",
      "version": 1,
      "changeset": 41413733,
      "user": "mggm",
      "uid": 4087173,
      "tags": {
        "name": "Grancia - Località Cammarata",
        "natural": "spring"
      }
    },
    {
      "type": "node",
      "id": 4347576636,
      "lat": 39.7723549,
      "lon": 16.2400306,
      "timestamp": "2016-08-12T16:24:16Z",
      "version": 1,
      "changeset": 41413733,
      "user": "mggm",
      "uid": 4087173,
      "tags": {
        "name": "Scaraporci - Località Scaraporci",
        "natural": "spring"
      }
    },
    {
      "type": "node",
      "id": 4347576729,
      "lat": 39.7753338,
      "lon": 16.2316925,
      "timestamp": "2016-08-12T16:31:05Z",
      "version": 1,
      "changeset": 41413834,
      "user": "mggm",
      "uid": 4087173,
      "tags": {
        "name": "Trecavalli - Località Magnapoco",
        "natural": "spring"
      }
    },
    {
      "type": "node",
      "id": 4347591603,
      "lat": 39.7812538,
      "lon": 16.2259107,
      "timestamp": "2016-08-12T16:42:07Z",
      "version": 1,
      "changeset": 41414015,
      "user": "mggm",
      "uid": 4087173,
      "tags": {
        "name": "S. Venere 1 - Località S. Venere",
        "natural": "spring"
      }
    },
    {
      "type": "node",
      "id": 4347591604,
      "lat": 39.7809365,
      "lon": 16.226188,
      "timestamp": "2016-08-12T16:42:07Z",
      "version": 1,
      "changeset": 41414015,
      "user": "mggm",
      "uid": 4087173,
      "tags": {
        "name": "S. Venere 2 - Località S. Venere",
        "natural": "spring"
      }
    },
    {
      "type": "node",
      "id": 4347591605,
      "lat": 39.7808323,
      "lon": 16.226681,
      "timestamp": "2016-08-12T16:42:07Z",
      "version": 1,
      "changeset": 41414015,
      "user": "mggm",
      "uid": 4087173,
      "tags": {
        "name": "S. Venere 3 - Località S. Venere",
        "natural": "spring"
      }
    },
    {
      "type": "node",
      "id": 4347597783,
      "lat": 39.7926932,
      "lon": 16.2209988,
      "timestamp": "2016-08-12T16:47:10Z",
      "version": 1,
      "changeset": 41414111,
      "user": "mggm",
      "uid": 4087173,
      "tags": {
        "name": "Galevoto 1 - Località Masseria Galevoto",
        "natural": "spring"
      }
    },
    {
      "type": "node",
      "id": 4347597784,
      "lat": 39.7912121,
      "lon": 16.2202467,
      "timestamp": "2016-08-12T16:47:10Z",
      "version": 1,
      "changeset": 41414111,
      "user": "mggm",
      "uid": 4087173,
      "tags": {
        "name": "Galevoto 2 - Località Masseria Galevoto",
        "natural": "spring"
      }
    },
    {
      "type": "node",
      "id": 4347597785,
      "lat": 39.7879324,
      "lon": 16.2226887,
      "timestamp": "2016-08-12T16:47:10Z",
      "version": 1,
      "changeset": 41414111,
      "user": "mggm",
      "uid": 4087173,
      "tags": {
        "name": "Galevoto 3 - Località Masseria Galevoto",
        "natural": "spring"
      }
    },
    {
      "type": "node",
      "id": 4347618841,
      "lat": 39.7958149,
      "lon": 16.2191807,
      "timestamp": "2016-08-12T16:55:49Z",
      "version": 1,
      "changeset": 41414270,
      "user": "mggm",
      "uid": 4087173,
      "tags": {
        "name": "Piano delle Rose 1 - Località Piano delle Rose",
        "natural": "spring"
      }
    },
    {
      "type": "node",
      "id": 4347618842,
      "lat": 39.7953246,
      "lon": 16.2184946,
      "timestamp": "2016-08-12T16:55:49Z",
      "version": 1,
      "changeset": 41414270,
      "user": "mggm",
      "uid": 4087173,
      "tags": {
        "name": "Piano delle Rose 2 - Località Piano delle Rose",
        "natural": "spring"
      }
    },
    {
      "type": "node",
      "id": 4347629417,
      "lat": 39.8035043,
      "lon": 16.2099069,
      "timestamp": "2016-08-12T17:03:06Z",
      "version": 1,
      "changeset": 41414406,
      "user": "mggm",
      "uid": 4087173,
      "tags": {
        "name": "Bello Luogo - Località Bello Luogo",
        "natural": "spring"
      }
    },
    {
      "type": "node",
      "id": 4347630174,
      "lat": 39.8051204,
      "lon": 16.2133761,
      "timestamp": "2016-08-12T17:07:24Z",
      "version": 1,
      "changeset": 41414482,
      "user": "mggm",
      "uid": 4087173,
      "tags": {
        "name": "Santa Annunziata - Località Santa Annunziata",
        "natural": "spring"
      }
    },
    {
      "type": "node",
      "id": 4347635936,
      "lat": 39.8051006,
      "lon": 16.2078663,
      "timestamp": "2016-08-12T17:09:40Z",
      "version": 1,
      "changeset": 41414521,
      "user": "mggm",
      "uid": 4087173,
      "tags": {
        "name": "Coscile - Località Calandrino",
        "natural": "spring"
      }
    },
    {
      "type": "node",
      "id": 4347647900,
      "lat": 39.8020276,
      "lon": 16.2205206,
      "timestamp": "2016-08-12T17:12:21Z",
      "version": 1,
      "changeset": 41414572,
      "user": "mggm",
      "uid": 4087173,
      "tags": {
        "name": "Boccarelli - Località San Rocco",
        "natural": "spring"
      }
    },
    {
      "type": "node",
      "id": 4347662741,
      "lat": 39.8001332,
      "lon": 16.226176,
      "timestamp": "2016-08-12T17:14:23Z",
      "version": 1,
      "changeset": 41414605,
      "user": "mggm",
      "uid": 4087173,
      "tags": {
        "name": "Pozzo Casalnuovo - Località Piano delle Rose",
        "natural": "spring"
      }
    },
    {
      "type": "node",
      "id": 4347669771,
      "lat": 39.8055434,
      "lon": 16.2216694,
      "timestamp": "2016-08-12T17:16:10Z",
      "version": 1,
      "changeset": 41414630,
      "user": "mggm",
      "uid": 4087173,
      "tags": {
        "name": "Calandrino 2 - Località Calandrino",
        "natural": "spring"
      }
    },
    {
      "type": "node",
      "id": 4347678288,
      "lat": 39.8069106,
      "lon": 16.2262296,
      "timestamp": "2016-08-12T17:18:13Z",
      "version": 1,
      "changeset": 41414668,
      "user": "mggm",
      "uid": 4087173,
      "tags": {
        "name": "Fonte Calandrino - Località Calandrino",
        "natural": "spring"
      }
    },
    {
      "type": "node",
      "id": 4347686853,
      "lat": 39.813119,
      "lon": 16.2006502,
      "timestamp": "2016-08-12T17:21:42Z",
      "version": 1,
      "changeset": 41414728,
      "user": "mggm",
      "uid": 4087173,
      "tags": {
        "name": "Trentacapilli - Via Cavalieri di Malta",
        "natural": "spring"
      }
    },
    {
      "type": "node",
      "id": 4347689873,
      "lat": 39.8136824,
      "lon": 16.1983249,
      "timestamp": "2016-08-12T17:26:45Z",
      "version": 1,
      "changeset": 41414806,
      "user": "mggm",
      "uid": 4087173,
      "tags": {
        "name": "S. Giovanni 1 - Via S. Giovanni Vecchio",
        "natural": "spring"
      }
    },
    {
      "type": "node",
      "id": 4347689874,
      "lat": 39.8134941,
      "lon": 16.1977528,
      "timestamp": "2016-08-12T17:26:45Z",
      "version": 1,
      "changeset": 41414806,
      "user": "mggm",
      "uid": 4087173,
      "tags": {
        "name": "S. Giovanni 2 - Via S. Giovanni Vecchio",
        "natural": "spring"
      }
    },
    {
      "type": "node",
      "id": 4347694228,
      "lat": 39.8095158,
      "lon": 16.2138808,
      "timestamp": "2016-08-12T17:30:41Z",
      "version": 1,
      "changeset": 41414863,
      "user": "mggm",
      "uid": 4087173,
      "tags": {
        "name": "Acqua del Tufo - Località Alona",
        "natural": "spring"
      }
    },
    {
      "type": "node",
      "id": 4347702718,
      "lat": 39.8127802,
      "lon": 16.2119605,
      "timestamp": "2016-08-12T17:39:11Z",
      "version": 1,
      "changeset": 41415014,
      "user": "mggm",
      "uid": 4087173,
      "tags": {
        "name": "Acqua Piangente 1 e 2 - Località Alona",
        "natural": "spring"
      }
    },
    {
      "type": "node",
      "id": 4347708032,
      "lat": 39.8148908,
      "lon": 16.2092559,
      "timestamp": "2016-08-12T17:46:13Z",
      "version": 1,
      "changeset": 41415134,
      "user": "mggm",
      "uid": 4087173,
      "tags": {
        "name": "Alona 3 - Località Alona",
        "natural": "spring"
      }
    },
    {
      "type": "node",
      "id": 4347710464,
      "lat": 39.8149805,
      "lon": 16.2096435,
      "timestamp": "2016-08-12T17:44:02Z",
      "version": 1,
      "changeset": 41415098,
      "user": "mggm",
      "uid": 4087173,
      "tags": {
        "name": "Alona 1 - Località Alona",
        "natural": "spring"
      }
    },
    {
      "type": "node",
      "id": 4347711265,
      "lat": 39.8146899,
      "lon": 16.2101432,
      "timestamp": "2016-08-12T17:45:23Z",
      "version": 1,
      "changeset": 41415122,
      "user": "mggm",
      "uid": 4087173,
      "tags": {
        "name": "Alona 2 - Località Alona",
        "natural": "spring"
      }
    },
    {
      "type": "node",
      "id": 4347713462,
      "lat": 39.8157302,
      "lon": 16.2092559,
      "timestamp": "2016-08-12T17:47:55Z",
      "version": 1,
      "changeset": 41415164,
      "user": "mggm",
      "uid": 4087173,
      "tags": {
        "name": "Pantano - Località Ponte Salerni",
        "natural": "spring"
      }
    },
    {
      "type": "node",
      "id": 4347715823,
      "lat": 39.8187217,
      "lon": 16.2053238,
      "timestamp": "2016-08-12T17:49:53Z",
      "version": 1,
      "changeset": 41415205,
      "user": "mggm",
      "uid": 4087173,
      "tags": {
        "name": "S. Nicola - Torrente S. Nicola",
        "natural": "spring"
      }
    },
    {
      "type": "node",
      "id": 4347719805,
      "lat": 39.815318,
      "lon": 16.2312069,
      "timestamp": "2016-08-12T17:53:19Z",
      "version": 1,
      "changeset": 41415255,
      "user": "mggm",
      "uid": 4087173,
      "tags": {
        "name": "Virtù 1 - Località Virtù",
        "natural": "spring"
      }
    },
    {
      "type": "node",
      "id": 4347719806,
      "lat": 39.8151532,
      "lon": 16.23243,
      "timestamp": "2016-08-12T17:53:19Z",
      "version": 1,
      "changeset": 41415255,
      "user": "mggm",
      "uid": 4087173,
      "tags": {
        "name": "Virtù 2 - Località Virtù",
        "natural": "spring"
      }
    },
    {
      "type": "node",
      "id": 4347834034,
      "lat": 39.816106,
      "lon": 16.2243177,
      "timestamp": "2016-08-12T19:55:53Z",
      "version": 1,
      "changeset": 41417640,
      "user": "mggm",
      "uid": 4087173,
      "tags": {
        "name": "Mulianni 1 - Località Mulianni",
        "natural": "spring"
      }
    },
    {
      "type": "node",
      "id": 4347834035,
      "lat": 39.8154828,
      "lon": 16.223781,
      "timestamp": "2016-08-12T19:55:54Z",
      "version": 1,
      "changeset": 41417640,
      "user": "mggm",
      "uid": 4087173,
      "tags": {
        "name": "Mulianni 2 - Località Mulianni",
        "natural": "spring"
      }
    },
    {
      "type": "node",
      "id": 4347834036,
      "lat": 39.8133816,
      "lon": 16.2233848,
      "timestamp": "2016-08-12T19:55:54Z",
      "version": 1,
      "changeset": 41417640,
      "user": "mggm",
      "uid": 4087173,
      "tags": {
        "name": "Mulianni 3 - Località Mulianni",
        "natural": "spring"
      }
    },
    {
      "type": "node",
      "id": 4347848812,
      "lat": 39.8078054,
      "lon": 16.2554485,
      "timestamp": "2016-08-12T20:00:58Z",
      "version": 1,
      "changeset": 41417767,
      "user": "mggm",
      "uid": 4087173,
      "tags": {
        "name": "Trapanata - Località Trapanata",
        "natural": "spring"
      }
    },
    {
      "type": "node",
      "id": 4347871659,
      "lat": 39.8074472,
      "lon": 16.2616148,
      "timestamp": "2016-08-12T20:09:30Z",
      "version": 1,
      "changeset": 41417924,
      "user": "mggm",
      "uid": 4087173,
      "tags": {
        "name": "Carpanzacchio - Località Trapanata",
        "natural": "spring"
      }
    },
    {
      "type": "node",
      "id": 4347871660,
      "lat": 39.8098555,
      "lon": 16.2649233,
      "timestamp": "2016-08-12T20:09:30Z",
      "version": 1,
      "changeset": 41417924,
      "user": "mggm",
      "uid": 4087173,
      "tags": {
        "name": "Fonte Salituri - Località Santa Croce",
        "natural": "spring"
      }
    },
    {
      "type": "node",
      "id": 4347875322,
      "lat": 39.8174466,
      "lon": 16.2589583,
      "timestamp": "2016-08-12T20:13:15Z",
      "version": 1,
      "changeset": 41417996,
      "user": "mggm",
      "uid": 4087173,
      "tags": {
        "name": "Fonte Bellusci - Località S. Leonardo",
        "natural": "spring"
      }
    },
    {
      "type": "node",
      "id": 4347881825,
      "lat": 39.8164771,
      "lon": 16.2572464,
      "timestamp": "2016-08-12T20:19:32Z",
      "version": 1,
      "changeset": 41418101,
      "user": "mggm",
      "uid": 4087173,
      "tags": {
        "name": "S. Leonardo 2 - Località S. Leonardo",
        "natural": "spring"
      }
    },
    {
      "type": "node",
      "id": 4347881826,
      "lat": 39.8222153,
      "lon": 16.253453,
      "timestamp": "2016-08-12T20:19:32Z",
      "version": 1,
      "changeset": 41418101,
      "user": "mggm",
      "uid": 4087173,
      "tags": {
        "name": "Sorgente Giardino - Località Fosso S. Leonardo",
        "natural": "spring"
      }
    },
    {
      "type": "node",
      "id": 4347885548,
      "lat": 39.8235193,
      "lon": 16.2528951,
      "timestamp": "2016-08-12T20:24:41Z",
      "version": 1,
      "changeset": 41418194,
      "user": "mggm",
      "uid": 4087173,
      "tags": {
        "name": "Gruttalacqua 2 - Località Fosso S. Leonardo",
        "natural": "spring"
      }
    },
    {
      "type": "node",
      "id": 4347885549,
      "lat": 39.8238302,
      "lon": 16.2527586,
      "timestamp": "2016-08-12T20:24:41Z",
      "version": 1,
      "changeset": 41418194,
      "user": "mggm",
      "uid": 4087173,
      "tags": {
        "name": "Gruttalacqua 1 - Località Fosso S. Leonardo",
        "natural": "spring"
      }
    },
    {
      "type": "node",
      "id": 4347889892,
      "lat": 39.8301671,
      "lon": 16.2550181,
      "timestamp": "2016-08-12T20:30:01Z",
      "version": 1,
      "changeset": 41418283,
      "user": "mggm",
      "uid": 4087173,
      "tags": {
        "name": "S. Leonardo - Località Fosso S. Leonardo",
        "natural": "spring"
      }
    },
    {
      "type": "node",
      "id": 4347889893,
      "lat": 39.8091414,
      "lon": 16.2105669,
      "timestamp": "2016-08-12T20:30:01Z",
      "version": 1,
      "changeset": 41418283,
      "user": "mggm",
      "uid": 4087173,
      "tags": {
        "name": "Acqua delle Canne - Protoconvento",
        "natural": "spring"
      }
    },
    {
      "type": "node",
      "id": 4347903591,
      "lat": 39.8262332,
      "lon": 16.2254479,
      "timestamp": "2016-08-12T20:43:01Z",
      "version": 1,
      "changeset": 41418502,
      "user": "mggm",
      "uid": 4087173,
      "tags": {
        "name": "Petraro 1 - Località Petraro",
        "natural": "spring"
      }
    },
    {
      "type": "node",
      "id": 4347903592,
      "lat": 39.8263922,
      "lon": 16.2266014,
      "timestamp": "2016-08-12T20:43:01Z",
      "version": 1,
      "changeset": 41418502,
      "user": "mggm",
      "uid": 4087173,
      "tags": {
        "name": "Petraro 2 - Località Petraro",
        "natural": "spring"
      }
    },
    {
      "type": "node",
      "id": 4347903593,
      "lat": 39.8265694,
      "lon": 16.2278911,
      "timestamp": "2016-08-12T20:43:01Z",
      "version": 1,
      "changeset": 41418502,
      "user": "mggm",
      "uid": 4087173,
      "tags": {
        "name": "Petraro 3 - Località Petraro",
        "natural": "spring"
      }
    },
    {
      "type": "node",
      "id": 4347903594,
      "lat": 39.8260488,
      "lon": 16.2286819,
      "timestamp": "2016-08-12T20:43:01Z",
      "version": 1,
      "changeset": 41418502,
      "user": "mggm",
      "uid": 4087173,
      "tags": {
        "name": "Petraro 4 - Località Petraro",
        "natural": "spring"
      }
    },
    {
      "type": "node",
      "id": 4347903595,
      "lat": 39.8266164,
      "lon": 16.2291102,
      "timestamp": "2016-08-12T20:43:01Z",
      "version": 1,
      "changeset": 41418502,
      "user": "mggm",
      "uid": 4087173,
      "tags": {
        "name": "Petraro 5 - Località Petraro",
        "natural": "spring"
      }
    },
    {
      "type": "node",
      "id": 4347903596,
      "lat": 39.8262476,
      "lon": 16.2293691,
      "timestamp": "2016-08-12T20:43:01Z",
      "version": 1,
      "changeset": 41418502,
      "user": "mggm",
      "uid": 4087173,
      "tags": {
        "name": "Petraro 6 - Località Petraro",
        "natural": "spring"
      }
    },
    {
      "type": "node",
      "id": 4347903597,
      "lat": 39.8261862,
      "lon": 16.229548,
      "timestamp": "2016-08-12T20:43:01Z",
      "version": 1,
      "changeset": 41418502,
      "user": "mggm",
      "uid": 4087173,
      "tags": {
        "name": "Petraro 7 - Località Petraro",
        "natural": "spring"
      }
    },
    {
      "type": "node",
      "id": 4347903598,
      "lat": 39.8263814,
      "lon": 16.2297127,
      "timestamp": "2016-08-12T20:43:01Z",
      "version": 1,
      "changeset": 41418502,
      "user": "mggm",
      "uid": 4087173,
      "tags": {
        "name": "Petraro 8 - Località Petraro",
        "natural": "spring"
      }
    },
    {
      "type": "node",
      "id": 4347903599,
      "lat": 39.8265874,
      "lon": 16.2299198,
      "timestamp": "2016-08-12T20:43:01Z",
      "version": 1,
      "changeset": 41418502,
      "user": "mggm",
      "uid": 4087173,
      "tags": {
        "name": "Petraro 9 - Località Petraro",
        "natural": "spring"
      }
    },
    {
      "type": "node",
      "id": 4347903600,
      "lat": 39.826673,
      "lon": 16.2300961,
      "timestamp": "2016-08-12T20:43:01Z",
      "version": 1,
      "changeset": 41418502,
      "user": "mggm",
      "uid": 4087173,
      "tags": {
        "name": "Petraro 10 - Località Petraro",
        "natural": "spring"
      }
    },
    {
      "type": "node",
      "id": 4347903601,
      "lat": 39.8266778,
      "lon": 16.2303058,
      "timestamp": "2016-08-12T20:43:01Z",
      "version": 1,
      "changeset": 41418502,
      "user": "mggm",
      "uid": 4087173,
      "tags": {
        "name": "Petraro 11 - Località Petraro",
        "natural": "spring"
      }
    },
    {
      "type": "node",
      "id": 4347903602,
      "lat": 39.8267393,
      "lon": 16.2304376,
      "timestamp": "2016-08-12T20:43:02Z",
      "version": 1,
      "changeset": 41418502,
      "user": "mggm",
      "uid": 4087173,
      "tags": {
        "name": "Petraro 12 - Località Petraro",
        "natural": "spring"
      }
    },
    {
      "type": "node",
      "id": 4347912108,
      "lat": 39.8261847,
      "lon": 16.2205955,
      "timestamp": "2016-08-12T20:55:38Z",
      "version": 1,
      "changeset": 41418692,
      "user": "mggm",
      "uid": 4087173,
      "tags": {
        "name": "Torre dei Monaci 2 - Località Torre dei Monaci",
        "natural": "spring"
      }
    },
    {
      "type": "node",
      "id": 4347912109,
      "lat": 39.8259046,
      "lon": 16.2207864,
      "timestamp": "2016-08-12T20:55:38Z",
      "version": 1,
      "changeset": 41418692,
      "user": "mggm",
      "uid": 4087173,
      "tags": {
        "name": "Torre dei Monaci 1 - Località Torre dei Monaci",
        "natural": "spring"
      }
    },
    {
      "type": "node",
      "id": 4347912110,
      "lat": 39.8252643,
      "lon": 16.2230248,
      "timestamp": "2016-08-12T20:55:38Z",
      "version": 1,
      "changeset": 41418692,
      "user": "mggm",
      "uid": 4087173,
      "tags": {
        "name": "Torre dei Monaci 3 - Località Torre dei Monaci",
        "natural": "spring"
      }
    },
    {
      "type": "node",
      "id": 4347912111,
      "lat": 39.8254074,
      "lon": 16.2232857,
      "timestamp": "2016-08-12T20:55:38Z",
      "version": 1,
      "changeset": 41418692,
      "user": "mggm",
      "uid": 4087173,
      "tags": {
        "name": "Torre dei Monaci 4 - Località Torre dei Monaci",
        "natural": "spring"
      }
    },
    {
      "type": "node",
      "id": 4347917722,
      "lat": 39.8250154,
      "lon": 16.2185544,
      "timestamp": "2016-08-12T21:00:54Z",
      "version": 1,
      "changeset": 41418781,
      "user": "mggm",
      "uid": 4087173,
      "tags": {
        "name": "Ciminito 2 - Via Madonna dell'Idria",
        "natural": "spring"
      }
    },
    {
      "type": "node",
      "id": 4347917723,
      "lat": 39.8251703,
      "lon": 16.2190649,
      "timestamp": "2016-08-12T21:00:54Z",
      "version": 1,
      "changeset": 41418781,
      "user": "mggm",
      "uid": 4087173,
      "tags": {
        "name": "Ciminito 1 - Via Madonna dell'Idria",
        "natural": "spring"
      }
    },
    {
      "type": "node",
      "id": 4347917724,
      "lat": 39.8240009,
      "lon": 16.2203306,
      "timestamp": "2016-08-12T21:00:54Z",
      "version": 1,
      "changeset": 41418781,
      "user": "mggm",
      "uid": 4087173,
      "tags": {
        "name": "Ciminito 3 - Via Madonna dell'Idria",
        "natural": "spring"
      }
    },
    {
      "type": "node",
      "id": 4347921351,
      "lat": 39.8247828,
      "lon": 16.2174287,
      "timestamp": "2016-08-12T21:08:27Z",
      "version": 1,
      "changeset": 41418885,
      "user": "mggm",
      "uid": 4087173,
      "tags": {
        "name": "Acqua del Mare 4 - Località Bolinaro",
        "natural": "spring"
      }
    },
    {
      "type": "node",
      "id": 4347921352,
      "lat": 39.8248157,
      "lon": 16.2180994,
      "timestamp": "2016-08-12T21:08:27Z",
      "version": 1,
      "changeset": 41418885,
      "user": "mggm",
      "uid": 4087173,
      "tags": {
        "name": "Acqua del Mare 5 - Località Bolinaro",
        "natural": "spring"
      }
    },
    {
      "type": "node",
      "id": 4347921353,
      "lat": 39.8247472,
      "lon": 16.2168473,
      "timestamp": "2016-08-12T21:08:27Z",
      "version": 1,
      "changeset": 41418885,
      "user": "mggm",
      "uid": 4087173,
      "tags": {
        "name": "Acqua del Mare 2 - Località Bolinaro",
        "natural": "spring"
      }
    },
    {
      "type": "node",
      "id": 4347921354,
      "lat": 39.8248376,
      "lon": 16.217047,
      "timestamp": "2016-08-12T21:08:27Z",
      "version": 1,
      "changeset": 41418885,
      "user": "mggm",
      "uid": 4087173,
      "tags": {
        "name": "Acqua del Mare 3 - Località Bolinaro",
        "natural": "spring"
      }
    },
    {
      "type": "node",
      "id": 4347921355,
      "lat": 39.8243253,
      "lon": 16.217047,
      "timestamp": "2016-08-12T21:08:27Z",
      "version": 1,
      "changeset": 41418885,
      "user": "mggm",
      "uid": 4087173,
      "tags": {
        "name": "Acqua del Mare 1 - Località Bolinaro",
        "natural": "spring"
      }
    },
    {
      "type": "node",
      "id": 4347921356,
      "lat": 39.8244299,
      "lon": 16.2180573,
      "timestamp": "2016-08-12T21:08:27Z",
      "version": 1,
      "changeset": 41418885,
      "user": "mggm",
      "uid": 4087173,
      "tags": {
        "name": "Acqua del Mare 6 - Località Bolinaro",
        "natural": "spring"
      }
    },
    {
      "type": "node",
      "id": 4347927422,
      "lat": 39.7811588,
      "lon": 16.2849657,
      "timestamp": "2016-08-12T21:17:52Z",
      "version": 1,
      "changeset": 41419011,
      "user": "mggm",
      "uid": 4087173,
      "tags": {
        "name": "Maroglio  - Località Maroglio",
        "natural": "spring"
      }
    },
    {
      "type": "node",
      "id": 4347941682,
      "lat": 39.8925406,
      "lon": 16.2547506,
      "timestamp": "2017-08-06T20:39:06Z",
      "version": 2,
      "changeset": 50895992,
      "user": "mdx76",
      "uid": 616103,
      "tags": {
        "name": "Giannandrea",
        "natural": "spring"
      }
    },
    {
      "type": "node",
      "id": 4347941683,
      "lat": 39.8986026,
      "lon": 16.2534874,
      "timestamp": "2016-08-12T21:40:37Z",
      "version": 1,
      "changeset": 41419340,
      "user": "mggm",
      "uid": 4087173,
      "tags": {
        "name": "Fonte del Vascello - Località Fagosa",
        "natural": "spring"
      }
    },
    {
      "type": "node",
      "id": 4347950795,
      "lat": 39.9018631,
      "lon": 16.2347232,
      "timestamp": "2018-12-31T16:57:46Z",
      "version": 5,
      "changeset": 65917533,
      "user": "mdx76",
      "uid": 616103,
      "tags": {
        "name": "Fonte Sciogliaturo - Piano di Fossa",
        "natural": "spring"
      }
    },
    {
      "type": "node",
      "id": 4365635924,
      "lat": 39.5001974,
      "lon": 16.2744614,
      "timestamp": "2016-08-25T02:40:14Z",
      "version": 1,
      "changeset": 41677315,
      "user": "fayor",
      "uid": 743479,
      "tags": {
        "name": "Bisignano",
        "place": "town",
        "population": "10203"
      }
    },
    {
      "type": "node",
      "id": 4401867871,
      "lat": 39.7271199,
      "lon": 16.509518,
      "timestamp": "2017-03-05T13:46:45Z",
      "version": 2,
      "changeset": 46596366,
      "user": "sbiribizio",
      "uid": 354284,
      "tags": {
        "name": "Laghi di Sibari",
        "place": "village",
        "wikidata": "Q3825607",
        "wikipedia": "it:Laghi di Sibari"
      }
    },
    {
      "type": "node",
      "id": 4401867872,
      "lat": 39.7478168,
      "lon": 16.4513504,
      "timestamp": "2017-03-05T13:46:45Z",
      "version": 3,
      "changeset": 46596366,
      "user": "sbiribizio",
      "uid": 354284,
      "tags": {
        "name": "Sibari",
        "place": "village",
        "population": "2027",
        "wikidata": "Q7506929",
        "wikipedia": "it:Sibari"
      }
    },
    {
      "type": "node",
      "id": 4406284763,
      "lat": 39.7304505,
      "lon": 16.3559657,
      "timestamp": "2020-04-04T20:44:46Z",
      "version": 2,
      "changeset": 83082929,
      "user": "Edward",
      "uid": 364,
      "tags": {
        "name": "Doria",
        "place": "village",
        "population": "1173",
        "wikidata": "Q18429759"
      }
    },
    {
      "type": "node",
      "id": 4406284766,
      "lat": 39.7795519,
      "lon": 16.3376033,
      "timestamp": "2017-03-05T13:46:45Z",
      "version": 3,
      "changeset": 46596366,
      "user": "sbiribizio",
      "uid": 354284,
      "tags": {
        "name": "Lauropoli",
        "place": "village",
        "population": "5750",
        "wikidata": "Q3827968",
        "wikipedia": "it:Lauropoli"
      }
    },
    {
      "type": "node",
      "id": 4450927793,
      "lat": 39.5257902,
      "lon": 16.4637174,
      "timestamp": "2017-03-05T13:46:46Z",
      "version": 2,
      "changeset": 46596366,
      "user": "sbiribizio",
      "uid": 354284,
      "tags": {
        "name": "San Giacomo d'Acri",
        "place": "village",
        "wikidata": "Q2792402",
        "wikipedia": "it:San Giacomo d'Acri"
      }
    },
    {
      "type": "node",
      "id": 4453956388,
      "lat": 39.6851576,
      "lon": 16.2381497,
      "timestamp": "2017-03-05T13:46:46Z",
      "version": 2,
      "changeset": 46596366,
      "user": "sbiribizio",
      "uid": 354284,
      "tags": {
        "name": "Fedula",
        "place": "hamlet",
        "wikidata": "Q18429773",
        "wikipedia": "it:Fedula"
      }
    },
    {
      "type": "node",
      "id": 4500623789,
      "lat": 39.7270359,
      "lon": 16.4960613,
      "timestamp": "2016-11-14T15:49:55Z",
      "version": 1,
      "changeset": 43643332,
      "user": "Masala2",
      "uid": 3792744,
      "tags": {
        "amenity": "drinking_water"
      }
    },
    {
      "type": "node",
      "id": 4504666002,
      "lat": 39.8285318,
      "lon": 16.3142124,
      "timestamp": "2017-04-23T15:47:58Z",
      "version": 2,
      "changeset": 48063527,
      "user": "FraPla",
      "uid": 354689,
      "tags": {
        "amenity": "drinking_water"
      }
    },
    {
      "type": "node",
      "id": 4530792674,
      "lat": 39.8434579,
      "lon": 16.20002,
      "timestamp": "2018-03-13T10:42:47Z",
      "version": 4,
      "changeset": 57140899,
      "user": "Cascafico",
      "uid": 361003,
      "tags": {
        "addr:city": "Castrovillari",
        "addr:postcode": "87012",
        "ele": "500",
        "fee": "no",
        "name": "Grotte S. Giorgio",
        "natural": "cave_entrance"
      }
    },
    {
      "type": "node",
      "id": 4530798649,
      "lat": 39.8645828,
      "lon": 16.2129209,
      "timestamp": "2018-04-18T22:37:40Z",
      "version": 5,
      "changeset": 58217682,
      "user": "mdx76",
      "uid": 616103,
      "tags": {
        "addr:city": "Castrovillari",
        "addr:postcode": "87012",
        "ele": "856",
        "name": "Grotta delle Sirene",
        "natural": "cave_entrance"
      }
    },
    {
      "type": "node",
      "id": 4580297346,
      "lat": 39.8966859,
      "lon": 16.2123331,
      "timestamp": "2017-07-29T22:00:43Z",
      "version": 3,
      "changeset": 50681448,
      "user": "mdx76",
      "uid": 616103,
      "tags": {
        "ele": "2140",
        "name": "Passo di Vallepiana",
        "natural": "saddle"
      }
    },
    {
      "type": "node",
      "id": 4694869359,
      "lat": 39.8165223,
      "lon": 16.2103925,
      "timestamp": "2017-02-20T08:05:12Z",
      "version": 1,
      "changeset": 46236395,
      "user": "mggm",
      "uid": 4087173,
      "tags": {
        "addr:city": "Castrovillari",
        "addr:housenumber": "6/8",
        "addr:postcode": "87012",
        "addr:street": "Via Mirko Massacra",
        "name": "Gusto Sano",
        "organic": "only",
        "shop": "supermarket"
      }
    },
    {
      "type": "node",
      "id": 4811664194,
      "lat": 39.8269453,
      "lon": 16.3143654,
      "timestamp": "2017-04-23T15:40:23Z",
      "version": 2,
      "changeset": 48063527,
      "user": "FraPla",
      "uid": 354689,
      "tags": {
        "name": "Crai",
        "shop": "supermarket"
      }
    },
    {
      "type": "node",
      "id": 4811674330,
      "lat": 39.8291661,
      "lon": 16.3110231,
      "timestamp": "2017-04-23T15:30:52Z",
      "version": 1,
      "changeset": 48063527,
      "user": "FraPla",
      "uid": 354689,
      "tags": {
        "amenity": "drinking_water"
      }
    },
    {
      "type": "node",
      "id": 4867817860,
      "lat": 39.634408,
      "lon": 16.5211428,
      "timestamp": "2017-05-22T20:47:53Z",
      "version": 2,
      "changeset": 48899166,
      "user": "Boerde",
      "uid": 2471531,
      "tags": {
        "name": "Lidl",
        "opening_hours": "Mo-Sa 08:00-21:00; Su 08:30-21:00",
        "shop": "supermarket"
      }
    },
    {
      "type": "node",
      "id": 4867818009,
      "lat": 39.5677973,
      "lon": 16.6280427,
      "timestamp": "2017-05-21T11:51:48Z",
      "version": 1,
      "changeset": 48860673,
      "user": "Boerde",
      "uid": 2471531,
      "tags": {
        "amenity": "drinking_water",
        "name": "Acquedotto Sorgente del Fallistro"
      }
    },
    {
      "type": "node",
      "id": 4867818055,
      "lat": 39.673309,
      "lon": 16.5045786,
      "timestamp": "2021-09-12T04:52:11Z",
      "version": 2,
      "changeset": 111082565,
      "user": "geohobbes",
      "uid": 1581137,
      "tags": {
        "air_conditioning": "yes",
        "building:levels": "1",
        "level": "0",
        "name": "Ipercoop",
        "operator": "AZ S.p.A.",
        "phone": "0983 899800",
        "shop": "supermarket",
        "stroller": "yes",
        "wheelchair": "yes"
      }
    },
    {
      "type": "node",
      "id": 4867818074,
      "lat": 39.6817945,
      "lon": 16.5227288,
      "timestamp": "2017-05-21T11:51:51Z",
      "version": 1,
      "changeset": 48860673,
      "user": "Boerde",
      "uid": 2471531,
      "tags": {
        "name": "Mini Market",
        "shop": "convenience"
      }
    },
    {
      "type": "node",
      "id": 4867931082,
      "lat": 39.682693,
      "lon": 16.5217316,
      "timestamp": "2017-05-21T13:10:51Z",
      "version": 1,
      "changeset": 48861971,
      "user": "dgitto",
      "uid": 554973,
      "tags": {
        "name": "Salice",
        "place": "hamlet"
      }
    },
    {
      "type": "node",
      "id": 4867931083,
      "lat": 39.6265898,
      "lon": 16.5119684,
      "timestamp": "2018-03-30T21:48:54Z",
      "version": 2,
      "changeset": 57674422,
      "user": "fayor",
      "uid": 743479,
      "tags": {
        "name": "Corigliano Scalo",
        "place": "town",
        "population": "15136"
      }
    },
    {
      "type": "node",
      "id": 4867931084,
      "lat": 39.6516114,
      "lon": 16.5403891,
      "timestamp": "2018-03-30T21:48:54Z",
      "version": 2,
      "changeset": 57674422,
      "user": "fayor",
      "uid": 743479,
      "tags": {
        "name": "Schiavonea",
        "place": "village",
        "population": "7743"
      }
    },
    {
      "type": "node",
      "id": 4916804922,
      "lat": 39.425742,
      "lon": 16.5375549,
      "timestamp": "2017-06-15T14:02:30Z",
      "version": 1,
      "changeset": 49564738,
      "user": "Joni Helminen",
      "uid": 5226373,
      "tags": {
        "amenity": "drinking_water"
      }
    },
    {
      "type": "node",
      "id": 4922291661,
      "lat": 39.7807134,
      "lon": 16.4857887,
      "timestamp": "2017-06-18T14:29:47Z",
      "version": 1,
      "changeset": 49636499,
      "user": "Feu",
      "uid": 446587,
      "tags": {
        "amenity": "drinking_water"
      }
    },
    {
      "type": "node",
      "id": 4922291662,
      "lat": 39.7797776,
      "lon": 16.4801587,
      "timestamp": "2017-06-18T14:29:47Z",
      "version": 1,
      "changeset": 49636499,
      "user": "Feu",
      "uid": 446587,
      "tags": {
        "amenity": "drinking_water"
      }
    },
    {
      "type": "node",
      "id": 4922291663,
      "lat": 39.7805898,
      "lon": 16.4847426,
      "timestamp": "2017-06-18T14:29:47Z",
      "version": 1,
      "changeset": 49636499,
      "user": "Feu",
      "uid": 446587,
      "tags": {
        "amenity": "drinking_water"
      }
    },
    {
      "type": "node",
      "id": 4922291664,
      "lat": 39.7804991,
      "lon": 16.484005,
      "timestamp": "2017-06-18T14:29:47Z",
      "version": 1,
      "changeset": 49636499,
      "user": "Feu",
      "uid": 446587,
      "tags": {
        "amenity": "drinking_water"
      }
    },
    {
      "type": "node",
      "id": 4922291665,
      "lat": 39.7804228,
      "lon": 16.4831494,
      "timestamp": "2017-06-18T14:29:47Z",
      "version": 1,
      "changeset": 49636499,
      "user": "Feu",
      "uid": 446587,
      "tags": {
        "amenity": "drinking_water"
      }
    },
    {
      "type": "node",
      "id": 4922291666,
      "lat": 39.7803156,
      "lon": 16.4822428,
      "timestamp": "2017-06-18T14:29:47Z",
      "version": 1,
      "changeset": 49636499,
      "user": "Feu",
      "uid": 446587,
      "tags": {
        "amenity": "drinking_water"
      }
    },
    {
      "type": "node",
      "id": 4922291667,
      "lat": 39.7800744,
      "lon": 16.4815481,
      "timestamp": "2017-06-18T14:29:47Z",
      "version": 1,
      "changeset": 49636499,
      "user": "Feu",
      "uid": 446587,
      "tags": {
        "amenity": "drinking_water"
      }
    },
    {
      "type": "node",
      "id": 4922291668,
      "lat": 39.7798415,
      "lon": 16.481009,
      "timestamp": "2017-06-18T14:29:47Z",
      "version": 1,
      "changeset": 49636499,
      "user": "Feu",
      "uid": 446587,
      "tags": {
        "amenity": "drinking_water"
      }
    },
    {
      "type": "node",
      "id": 4922291669,
      "lat": 39.7797982,
      "lon": 16.4804994,
      "timestamp": "2017-06-18T14:29:47Z",
      "version": 1,
      "changeset": 49636499,
      "user": "Feu",
      "uid": 446587,
      "tags": {
        "amenity": "drinking_water"
      }
    },
    {
      "type": "node",
      "id": 4922291670,
      "lat": 39.7797518,
      "lon": 16.4798275,
      "timestamp": "2017-06-18T14:29:47Z",
      "version": 1,
      "changeset": 49636499,
      "user": "Feu",
      "uid": 446587,
      "tags": {
        "amenity": "drinking_water"
      }
    },
    {
      "type": "node",
      "id": 4940244395,
      "lat": 39.8574895,
      "lon": 16.302512,
      "timestamp": "2017-06-28T11:19:23Z",
      "version": 1,
      "changeset": 49885452,
      "user": "mdx76",
      "uid": 616103,
      "tags": {
        "natural": "spring"
      }
    },
    {
      "type": "node",
      "id": 5011808607,
      "lat": 39.8722068,
      "lon": 16.2407585,
      "timestamp": "2017-09-05T12:12:27Z",
      "version": 2,
      "changeset": 51748432,
      "user": "mdx76",
      "uid": 616103,
      "tags": {
        "name": "Grotta della Manfriana",
        "natural": "cave_entrance"
      }
    },
    {
      "type": "node",
      "id": 5011808608,
      "lat": 39.8705235,
      "lon": 16.2948871,
      "timestamp": "2017-08-03T12:34:20Z",
      "version": 1,
      "changeset": 50807777,
      "user": "mdx76",
      "uid": 616103,
      "tags": {
        "name": "Fonte Vrumara",
        "natural": "spring"
      }
    },
    {
      "type": "node",
      "id": 5011811550,
      "lat": 39.8453245,
      "lon": 16.2748163,
      "timestamp": "2017-08-03T12:34:20Z",
      "version": 1,
      "changeset": 50807777,
      "user": "mdx76",
      "uid": 616103,
      "tags": {
        "name": "Rifugio della Giumenta",
        "tourism": "alpine_hut"
      }
    },
    {
      "type": "node",
      "id": 5011811553,
      "lat": 39.8818528,
      "lon": 16.2645074,
      "timestamp": "2017-08-03T12:34:20Z",
      "version": 1,
      "changeset": 50807777,
      "user": "mdx76",
      "uid": 616103,
      "tags": {
        "name": "Fonte della Melma",
        "natural": "spring"
      }
    },
    {
      "type": "node",
      "id": 5011811554,
      "lat": 39.8866116,
      "lon": 16.25414,
      "timestamp": "2017-08-03T12:34:20Z",
      "version": 1,
      "changeset": 50807777,
      "user": "mdx76",
      "uid": 616103,
      "tags": {
        "name": "Fonte Tavola del Brigante",
        "natural": "spring"
      }
    },
    {
      "type": "node",
      "id": 5012004219,
      "lat": 39.8764178,
      "lon": 16.255201,
      "timestamp": "2018-09-27T15:27:08Z",
      "version": 2,
      "changeset": 62981361,
      "user": "mdx76",
      "uid": 616103,
      "tags": {
        "ele": "1787",
        "name": "passo marcellino",
        "natural": "saddle"
      }
    },
    {
      "type": "node",
      "id": 5015582098,
      "lat": 39.8690997,
      "lon": 16.2066229,
      "timestamp": "2017-08-04T23:22:21Z",
      "version": 1,
      "changeset": 50852085,
      "user": "mdx76",
      "uid": 616103,
      "tags": {
        "name": "Grotta del Tiglio",
        "natural": "cave_entrance"
      }
    },
    {
      "type": "node",
      "id": 5017813295,
      "lat": 39.8894979,
      "lon": 16.2308555,
      "timestamp": "2017-08-06T10:41:20Z",
      "version": 1,
      "changeset": 50881127,
      "user": "mdx76",
      "uid": 616103,
      "tags": {
        "name": "Passo del Vascello",
        "natural": "saddle"
      }
    },
    {
      "type": "node",
      "id": 5018009094,
      "lat": 39.8937697,
      "lon": 16.2913625,
      "timestamp": "2017-08-06T12:34:17Z",
      "version": 1,
      "changeset": 50883788,
      "user": "mdx76",
      "uid": 616103,
      "tags": {
        "name": "Fonte di Colle Cocciale",
        "natural": "spring"
      }
    },
    {
      "type": "node",
      "id": 5018009230,
      "lat": 39.8899764,
      "lon": 16.3034056,
      "timestamp": "2017-08-06T12:34:18Z",
      "version": 1,
      "changeset": 50883788,
      "user": "mdx76",
      "uid": 616103,
      "tags": {
        "name": "Grotta della Marsilia",
        "natural": "cave_entrance"
      }
    },
    {
      "type": "node",
      "id": 5018009278,
      "lat": 39.8884974,
      "lon": 16.3114318,
      "timestamp": "2017-08-06T12:34:19Z",
      "version": 1,
      "changeset": 50883788,
      "user": "mdx76",
      "uid": 616103,
      "tags": {
        "name": "Passo di Barile",
        "natural": "saddle"
      }
    },
    {
      "type": "node",
      "id": 5018009527,
      "lat": 39.8576346,
      "lon": 16.2561641,
      "timestamp": "2017-09-02T18:27:50Z",
      "version": 2,
      "changeset": 51676755,
      "user": "mdx76",
      "uid": 616103,
      "tags": {
        "name": "Grotta Marcellino",
        "natural": "cave_entrance"
      }
    },
    {
      "type": "node",
      "id": 5018010128,
      "lat": 39.9000685,
      "lon": 16.2575192,
      "timestamp": "2017-08-06T12:34:24Z",
      "version": 1,
      "changeset": 50883788,
      "user": "mdx76",
      "uid": 616103,
      "tags": {
        "name": "Fonte Acquasalata",
        "natural": "spring"
      }
    },
    {
      "type": "node",
      "id": 5018010129,
      "lat": 39.908711,
      "lon": 16.277323,
      "timestamp": "2017-08-06T12:34:24Z",
      "version": 1,
      "changeset": 50883788,
      "user": "mdx76",
      "uid": 616103,
      "tags": {
        "name": "Fontana Pagliarini",
        "natural": "spring"
      }
    },
    {
      "type": "node",
      "id": 5018137328,
      "lat": 39.8388962,
      "lon": 16.2734909,
      "timestamp": "2017-08-06T14:11:13Z",
      "version": 1,
      "changeset": 50886268,
      "user": "mdx76",
      "uid": 616103,
      "tags": {
        "name": "Grotta Nera",
        "natural": "cave_entrance"
      }
    },
    {
      "type": "node",
      "id": 5018137331,
      "lat": 39.8449841,
      "lon": 16.3155327,
      "timestamp": "2017-08-06T14:11:14Z",
      "version": 1,
      "changeset": 50886268,
      "user": "mdx76",
      "uid": 616103,
      "tags": {
        "name": "Grotta di Baffi",
        "natural": "cave_entrance"
      }
    },
    {
      "type": "node",
      "id": 5018137409,
      "lat": 39.8786068,
      "lon": 16.190453,
      "timestamp": "2017-08-06T14:11:15Z",
      "version": 1,
      "changeset": 50886268,
      "user": "mdx76",
      "uid": 616103,
      "tags": {
        "name": "Sorgente Sarro",
        "natural": "spring"
      }
    },
    {
      "type": "node",
      "id": 5018227189,
      "lat": 39.8450896,
      "lon": 16.3079189,
      "timestamp": "2017-08-06T15:25:16Z",
      "version": 1,
      "changeset": 50888048,
      "user": "mdx76",
      "uid": 616103,
      "tags": {
        "name": "Sorgente Acqua Chiara",
        "natural": "spring"
      }
    },
    {
      "type": "node",
      "id": 5018227190,
      "lat": 39.8357827,
      "lon": 16.3082256,
      "timestamp": "2017-08-06T15:25:16Z",
      "version": 1,
      "changeset": 50888048,
      "user": "mdx76",
      "uid": 616103,
      "tags": {
        "name": "Sorgente Acqua Fresca",
        "natural": "spring"
      }
    },
    {
      "type": "node",
      "id": 5018227192,
      "lat": 39.8947794,
      "lon": 16.2764588,
      "timestamp": "2017-08-06T15:25:16Z",
      "version": 1,
      "changeset": 50888048,
      "user": "mdx76",
      "uid": 616103,
      "tags": {
        "name": "Sorgente di Ambrogio",
        "natural": "spring"
      }
    },
    {
      "type": "node",
      "id": 5018227218,
      "lat": 39.8988541,
      "lon": 16.2726428,
      "timestamp": "2017-08-06T15:25:16Z",
      "version": 1,
      "changeset": 50888048,
      "user": "mdx76",
      "uid": 616103,
      "tags": {
        "name": "Sorgente Fuggia",
        "natural": "spring"
      }
    },
    {
      "type": "node",
      "id": 5018227678,
      "lat": 39.8603047,
      "lon": 16.2258079,
      "timestamp": "2017-08-06T15:25:22Z",
      "version": 1,
      "changeset": 50888048,
      "user": "mdx76",
      "uid": 616103,
      "tags": {
        "name": "Grotta Carbone",
        "natural": "cave_entrance"
      }
    },
    {
      "type": "node",
      "id": 5018228147,
      "lat": 39.8421189,
      "lon": 16.2620197,
      "timestamp": "2017-09-15T07:11:58Z",
      "version": 2,
      "changeset": 52059595,
      "user": "mdx76",
      "uid": 616103,
      "tags": {
        "name": "Grotta del Pozzo",
        "natural": "cave_entrance"
      }
    },
    {
      "type": "node",
      "id": 5018690095,
      "lat": 39.8610097,
      "lon": 16.2609513,
      "timestamp": "2017-08-06T20:39:05Z",
      "version": 1,
      "changeset": 50895992,
      "user": "mdx76",
      "uid": 616103,
      "tags": {
        "name": "Grotta della Manca",
        "natural": "cave_entrance"
      }
    },
    {
      "type": "node",
      "id": 5018756964,
      "lat": 39.8626003,
      "lon": 16.2992718,
      "timestamp": "2017-08-06T21:36:55Z",
      "version": 1,
      "changeset": 50896844,
      "user": "mdx76",
      "uid": 616103,
      "tags": {
        "name": "Fonte del Vaccato",
        "natural": "spring"
      }
    },
    {
      "type": "node",
      "id": 5025252563,
      "lat": 39.8321325,
      "lon": 16.2952842,
      "timestamp": "2017-09-15T07:11:58Z",
      "version": 2,
      "changeset": 52059595,
      "user": "mdx76",
      "uid": 616103,
      "tags": {
        "name": "Ausi",
        "natural": "cave_entrance"
      }
    },
    {
      "type": "node",
      "id": 5025252598,
      "lat": 39.8829802,
      "lon": 16.273141,
      "timestamp": "2017-08-09T22:11:28Z",
      "version": 1,
      "changeset": 50985310,
      "user": "mdx76",
      "uid": 616103,
      "tags": {
        "name": "Sorgenti di Galluccio",
        "natural": "spring"
      }
    },
    {
      "type": "node",
      "id": 5054719987,
      "lat": 39.6043718,
      "lon": 16.7783429,
      "timestamp": "2017-08-23T21:05:02Z",
      "version": 1,
      "changeset": 51388836,
      "user": "Karthoo",
      "uid": 3232636,
      "tags": {
        "name": "Mirto",
        "place": "village"
      }
    },
    {
      "type": "node",
      "id": 5064063615,
      "lat": 39.8511938,
      "lon": 16.2599896,
      "timestamp": "2017-08-28T12:05:26Z",
      "version": 1,
      "changeset": 51507057,
      "user": "mdx76",
      "uid": 616103,
      "tags": {
        "name": "Grotte Cagliman",
        "natural": "cave_entrance"
      }
    },
    {
      "type": "node",
      "id": 5064063616,
      "lat": 39.8512103,
      "lon": 16.2608587,
      "timestamp": "2017-08-28T12:05:26Z",
      "version": 1,
      "changeset": 51507057,
      "user": "mdx76",
      "uid": 616103,
      "tags": {
        "name": "Grotte Cagliman",
        "natural": "cave_entrance"
      }
    },
    {
      "type": "node",
      "id": 5064341438,
      "lat": 39.9086133,
      "lon": 16.2841951,
      "timestamp": "2017-08-28T14:53:51Z",
      "version": 1,
      "changeset": 51512241,
      "user": "mdx76",
      "uid": 616103,
      "tags": {
        "name": "Grotta del Brigante",
        "natural": "cave_entrance"
      }
    },
    {
      "type": "node",
      "id": 5064341439,
      "lat": 39.9074693,
      "lon": 16.2845385,
      "timestamp": "2017-08-28T14:53:51Z",
      "version": 1,
      "changeset": 51512241,
      "user": "mdx76",
      "uid": 616103,
      "tags": {
        "name": "Grotta di Tozze",
        "natural": "cave_entrance"
      }
    },
    {
      "type": "node",
      "id": 5065213458,
      "lat": 39.8544671,
      "lon": 16.2786168,
      "timestamp": "2017-08-28T23:38:37Z",
      "version": 1,
      "changeset": 51524349,
      "user": "mdx76",
      "uid": 616103,
      "tags": {
        "natural": "cave_entrance"
      }
    },
    {
      "type": "node",
      "id": 5082289832,
      "lat": 39.8388047,
      "lon": 16.3166579,
      "timestamp": "2017-09-05T19:09:52Z",
      "version": 1,
      "changeset": 51760144,
      "user": "mdx76",
      "uid": 616103,
      "tags": {
        "name": "Grotta di Lucio",
        "natural": "cave_entrance"
      }
    },
    {
      "type": "node",
      "id": 5098923121,
      "lat": 39.7282898,
      "lon": 16.5099859,
      "timestamp": "2017-09-11T19:42:37Z",
      "version": 1,
      "changeset": 51952852,
      "user": "Anastasia Bondarenko",
      "uid": 4615380,
      "tags": {
        "name": "Supermercato Md",
        "name:it": "Supermercato Md",
        "shop": "supermarket"
      }
    },
    {
      "type": "node",
      "id": 5235267165,
      "lat": 39.80949,
      "lon": 16.489175,
      "timestamp": "2017-11-17T18:53:12Z",
      "version": 1,
      "changeset": 53883121,
      "user": "Ale_Zena_IT",
      "uid": 22290,
      "tags": {
        "name": "Conad city",
        "shop": "supermarket"
      }
    },
    {
      "type": "node",
      "id": 5517351638,
      "lat": 39.5932384,
      "lon": 16.5936255,
      "timestamp": "2018-03-30T21:48:53Z",
      "version": 1,
      "changeset": 57674422,
      "user": "fayor",
      "uid": 743479,
      "tags": {
        "name": "Petraro",
        "place": "village",
        "population": "243"
      }
    },
    {
      "type": "node",
      "id": 5517351639,
      "lat": 39.657249,
      "lon": 16.5098119,
      "timestamp": "2020-04-09T16:03:29Z",
      "version": 2,
      "changeset": 83316981,
      "user": "procuste",
      "uid": 1211315,
      "tags": {
        "name": "Torricella Superiore",
        "place": "hamlet",
        "population": "404"
      }
    },
    {
      "type": "node",
      "id": 5517351640,
      "lat": 39.7037365,
      "lon": 16.4113855,
      "timestamp": "2018-03-30T21:48:53Z",
      "version": 1,
      "changeset": 57674422,
      "user": "fayor",
      "uid": 743479,
      "tags": {
        "name": "Apollinara",
        "place": "village",
        "population": "846"
      }
    },
    {
      "type": "node",
      "id": 5517351641,
      "lat": 39.6660028,
      "lon": 16.4310433,
      "timestamp": "2020-04-09T15:22:27Z",
      "version": 2,
      "changeset": 83316981,
      "user": "procuste",
      "uid": 1211315,
      "tags": {
        "name": "San Nico",
        "place": "village",
        "population": "1026"
      }
    },
    {
      "type": "node",
      "id": 5517351642,
      "lat": 39.6645792,
      "lon": 16.4493857,
      "timestamp": "2021-01-26T13:41:27Z",
      "version": 2,
      "changeset": 98167411,
      "user": "DnaX",
      "uid": 69259,
      "tags": {
        "name": "Cantinella",
        "place": "village",
        "population": "1227",
        "wikidata": "Q18429629"
      }
    },
    {
      "type": "node",
      "id": 5517351643,
      "lat": 39.6435424,
      "lon": 16.484068,
      "timestamp": "2018-03-30T21:48:53Z",
      "version": 1,
      "changeset": 57674422,
      "user": "fayor",
      "uid": 743479,
      "tags": {
        "name": "Villaggio Frasso",
        "place": "village",
        "population": "444"
      }
    },
    {
      "type": "node",
      "id": 5517351644,
      "lat": 39.6412891,
      "lon": 16.5616321,
      "timestamp": "2018-03-30T21:48:53Z",
      "version": 1,
      "changeset": 57674422,
      "user": "fayor",
      "uid": 743479,
      "tags": {
        "name": "Fabrizio",
        "place": "village",
        "population": "2172"
      }
    },
    {
      "type": "node",
      "id": 5517351645,
      "lat": 39.6081967,
      "lon": 16.5726866,
      "timestamp": "2021-03-26T15:55:50Z",
      "version": 2,
      "changeset": 101802428,
      "user": "GFS",
      "uid": 362065,
      "tags": {
        "name": "Piragineti",
        "place": "village",
        "population": "982"
      }
    },
    {
      "type": "node",
      "id": 5517351646,
      "lat": 39.6008607,
      "lon": 16.6684484,
      "timestamp": "2018-03-30T21:48:53Z",
      "version": 1,
      "changeset": 57674422,
      "user": "fayor",
      "uid": 743479,
      "tags": {
        "name": "Amica",
        "place": "village",
        "population": "1403"
      }
    },
    {
      "type": "node",
      "id": 5517351647,
      "lat": 39.599538,
      "lon": 16.6329574,
      "timestamp": "2018-03-30T21:48:53Z",
      "version": 1,
      "changeset": 57674422,
      "user": "fayor",
      "uid": 743479,
      "tags": {
        "name": "Rossano Scalo",
        "place": "town",
        "population": "23824"
      }
    },
    {
      "type": "node",
      "id": 5542794618,
      "lat": 39.4992909,
      "lon": 16.388502,
      "timestamp": "2019-10-09T16:28:13Z",
      "version": 2,
      "changeset": 75473796,
      "user": "Garr Otto",
      "uid": 1572306,
      "tags": {
        "brand": "MD",
        "brand:wikidata": "Q3841263",
        "brand:wikipedia": "en:MD Discount",
        "name": "MD",
        "shop": "supermarket"
      }
    },
    {
      "type": "node",
      "id": 5546522554,
      "lat": 39.5715994,
      "lon": 16.3641233,
      "timestamp": "2021-06-07T20:11:26Z",
      "version": 3,
      "changeset": 105993370,
      "user": "Fastbyte01",
      "uid": 3427222,
      "tags": {
        "name": "Conad City",
        "opening_hours": "Tu-Sa 09:00-13:00; Mo off, Su 09:00-13:00, Tu-Sa 16:00-20:00",
        "shop": "supermarket",
        "wheelchair": "no"
      }
    },
    {
      "type": "node",
      "id": 5546522560,
      "lat": 39.5686741,
      "lon": 16.3590588,
      "timestamp": "2021-05-24T12:33:44Z",
      "version": 4,
      "changeset": 105226608,
      "user": "Fastbyte01",
      "uid": 3427222,
      "tags": {
        "name": "Salumeria Del Corso",
        "opening_hours": "Tu-Su 08:30-13:00, Tu-Sa 16:00-20:00",
        "shop": "supermarket",
        "wheelchair": "no"
      }
    },
    {
      "type": "node",
      "id": 5546522564,
      "lat": 39.5678884,
      "lon": 16.360526,
      "timestamp": "2018-04-11T23:03:17Z",
      "version": 1,
      "changeset": 58020007,
      "user": "Fastbyte01",
      "uid": 3427222,
      "tags": {
        "amenity": "drinking_water"
      }
    },
    {
      "type": "node",
      "id": 5546556348,
      "lat": 39.5737673,
      "lon": 16.4318995,
      "timestamp": "2018-04-11T23:17:29Z",
      "version": 1,
      "changeset": 58020175,
      "user": "Fastbyte01",
      "uid": 3427222,
      "tags": {
        "amenity": "drinking_water"
      }
    },
    {
      "type": "node",
      "id": 5611339283,
      "lat": 39.4719489,
      "lon": 16.372112,
      "timestamp": "2018-05-11T10:22:02Z",
      "version": 2,
      "changeset": 58874171,
      "user": "carlo leonetti",
      "uid": 8255260,
      "tags": {
        "name": "flli Ferraro",
        "shop": "supermarket"
      }
    },
    {
      "type": "node",
      "id": 5611885978,
      "lat": 39.4851733,
      "lon": 16.3911218,
      "timestamp": "2018-05-11T15:50:55Z",
      "version": 1,
      "changeset": 58882615,
      "user": "Garr Otto",
      "uid": 1572306,
      "tags": {
        "amenity": "drinking_water"
      }
    },
    {
      "type": "node",
      "id": 5666630999,
      "lat": 39.4177453,
      "lon": 16.751967,
      "timestamp": "2018-06-05T12:17:00Z",
      "version": 2,
      "changeset": 59567902,
      "user": "bruno castelfi",
      "uid": 8367045,
      "tags": {
        "amenity": "drinking_water"
      }
    },
    {
      "type": "node",
      "id": 5666634770,
      "lat": 39.4175743,
      "lon": 16.7525746,
      "timestamp": "2018-06-05T12:18:52Z",
      "version": 2,
      "changeset": 59567964,
      "user": "bruno castelfi",
      "uid": 8367045,
      "tags": {
        "amenity": "drinking_water"
      }
    },
    {
      "type": "node",
      "id": 5666635086,
      "lat": 39.4176654,
      "lon": 16.7510255,
      "timestamp": "2019-09-03T08:21:29Z",
      "version": 3,
      "changeset": 74026788,
      "user": "bruno castelfi",
      "uid": 8367045,
      "tags": {
        "amenity": "drinking_water"
      }
    },
    {
      "type": "node",
      "id": 5666637577,
      "lat": 39.4159902,
      "lon": 16.748055,
      "timestamp": "2018-06-05T12:18:52Z",
      "version": 1,
      "changeset": 59567964,
      "user": "bruno castelfi",
      "uid": 8367045,
      "tags": {
        "amenity": "drinking_water"
      }
    },
    {
      "type": "node",
      "id": 5667098002,
      "lat": 39.4888607,
      "lon": 16.3731195,
      "timestamp": "2018-06-05T15:35:11Z",
      "version": 1,
      "changeset": 59573271,
      "user": "Garr Otto",
      "uid": 1572306,
      "tags": {
        "amenity": "drinking_water"
      }
    },