{
  "osm3s": {
    "timestamp_osm_date": "2021-11-10T23:59:59Z",
    "timestamp_osm_base": "2021-11-11T05:59:58Z",
    "copyright": "The data included in this document is from www.openstreetmap.org. The data is made available under ODbL."
  },
  "elements": [
    {
      "type": "node",
      "id": 313877360,
      "lat": -43.3172677,
      "lon": 171.492138,
      "timestamp": "2017-08-07T09:52:11Z",
      "version": 4,
      "changeset": 50911876,
      "user": "lcmortensen",
      "uid": 341519,
      "tags": {
        "ele": "1240",
        "name": "Peak Hill",
        "natural": "peak",
        "wikidata": "Q31688563"
      }
    },
    {
      "type": "node",
      "id": 514253716,
      "lat": -43.5025836,
      "lon": 170.9248589,
      "timestamp": "2020-12-07T00:14:26Z",
      "version": 3,
      "changeset": 95385074,
      "user": "pizzaiolo",
      "uid": 1772368,
      "tags": {
        "ele": "2180",
        "name": "Mount Potts",
        "natural": "peak",
        "wikidata": "Q31682405"
      }
    },
    {
      "type": "node",
      "id": 515811618,
      "lat": -43.5478217,
      "lon": 170.8928853,
      "timestamp": "2021-10-25T22:42:18Z",
      "version": 3,
      "changeset": 112969636,
      "user": "Binnette",
      "uid": 918586,
      "tags": {
        "ele": "611",
        "name": "Mount Sunday",
        "natural": "peak",
        "wikidata": "Q31683747"
      }
    },
    {
      "type": "node",
      "id": 564653010,
      "lat": -43.1080027,
      "lon": 171.0067464,
      "timestamp": "2021-08-15T02:07:29Z",
      "version": 7,
      "changeset": 109686570,
      "user": "petenz",
      "uid": 38928,
      "tags": {
        "amenity": "shelter",
        "description": "historic",
        "ele": "380",
        "name": "Historic Price Flat Hut",
        "ref:doc": "100062481",
        "tourism": "wilderness_hut"
      }
    },
    {
      "type": "node",
      "id": 600822071,
      "lat": -43.393598,
      "lon": 171.5373384,
      "timestamp": "2018-06-02T04:04:23Z",
      "version": 3,
      "changeset": 59476595,
      "user": "gaddman",
      "uid": 365177,
      "tags": {
        "name": "Kowhai Flat",
        "operator": "Department of Conservation",
        "tourism": "camp_site"
      }
    },
    {
      "type": "node",
      "id": 913324130,
      "lat": -43.2220198,
      "lon": 170.9716738,
      "timestamp": "2021-09-26T01:34:09Z",
      "version": 3,
      "changeset": 111704976,
      "user": "kylenz_linz",
      "uid": 8389777,
      "tags": {
        "direction": "347",
        "ele": "1229;1239",
        "mountain_pass": "yes",
        "name": "Whitcombe Pass",
        "natural": "saddle",
        "ref:linz:topo50_id": "3338535"
      }
    },
    {
      "type": "node",
      "id": 1123053130,
      "lat": -43.3589113,
      "lon": 171.2890032,
      "timestamp": "2021-05-28T05:00:47Z",
      "version": 3,
      "changeset": 105461288,
      "user": "kylenz",
      "uid": 10140394,
      "tags": {
        "name": "Mother Millers Spring",
        "natural": "spring",
        "source": "LINZ",
        "temperature": "cold"
      }
    },
    {
      "type": "node",
      "id": 1123061409,
      "lat": -43.1644208,
      "lon": 170.9851686,
      "timestamp": "2011-01-27T04:59:59Z",
      "version": 1,
      "changeset": 7100312,
      "user": "LINZ Data Upload",
      "uid": 252775,
      "tags": {
        "LINZ:source_version": "V16",
        "attribution": "http://wiki.osm.org/wiki/Attribution#LINZ",
        "name": "Cave Camp",
        "natural": "cave_entrance",
        "source_ref": "http://www.linz.govt.nz/topography/topo-maps/"
      }
    },
    {
      "type": "node",
      "id": 1225158588,
      "lat": -43.1659926,
      "lon": 171.0898734,
      "timestamp": "2021-05-07T02:29:54Z",
      "version": 3,
      "changeset": 104281423,
      "user": "kylenz",
      "uid": 10140394,
      "tags": {
        "amenity": "shelter",
        "name": "West Mathias Bivouac",
        "ref:doc": "100060745",
        "shelter_type": "lean_to",
        "source": "LINZ"
      }
    },
    {
      "type": "node",
      "id": 1225158663,
      "lat": -43.3492881,
      "lon": 170.91991,
      "timestamp": "2021-05-07T02:29:54Z",
      "version": 3,
      "changeset": 104281423,
      "user": "kylenz",
      "uid": 10140394,
      "tags": {
        "amenity": "shelter",
        "name": "Lawrence Bivouac",
        "ref:doc": "100060522",
        "shelter_type": "lean_to",
        "source": "LINZ"
      }
    },
    {
      "type": "node",
      "id": 1225158887,
      "lat": -43.0769603,
      "lon": 171.0916357,
      "timestamp": "2021-05-07T00:32:33Z",
      "version": 4,
      "changeset": 104279072,
      "user": "kylenz",
      "uid": 10140394,
      "tags": {
        "amenity": "shelter",
        "direction": "163",
        "name": "Frew Bivouac",
        "ref:doc": "100054136",
        "shelter_type": "lean_to",
        "source": "LINZ"
      }
    },
    {
      "type": "node",
      "id": 1225158918,
      "lat": -43.1719939,
      "lon": 170.9508014,
      "timestamp": "2021-05-07T00:20:28Z",
      "version": 3,
      "changeset": 104278844,
      "user": "kylenz",
      "uid": 10140394,
      "tags": {
        "amenity": "shelter",
        "material": "rock",
        "name": "Rock shelters",
        "source": "LINZ"
      }
    },
    {
      "type": "node",
      "id": 1225216295,
      "lat": -43.372258,
      "lon": 171.1327164,
      "timestamp": "2021-09-24T06:19:49Z",
      "version": 3,
      "changeset": 111629145,
      "user": "kylenz_linz",
      "uid": 8389777,
      "tags": {
        "source": "LINZ",
        "tourism": "wilderness_hut"
      }
    },
    {
      "type": "node",
      "id": 1225264121,
      "lat": -43.420778,
      "lon": 171.0289042,
      "timestamp": "2021-09-24T06:19:49Z",
      "version": 4,
      "changeset": 111629145,
      "user": "kylenz_linz",
      "uid": 8389777,
      "tags": {
        "name": "Top Hut",
        "operator": "Department of Conservation",
        "ref:doc": "100040277",
        "source": "LINZ",
        "tourism": "wilderness_hut"
      }
    },
    {
      "type": "node",
      "id": 1225326357,
      "lat": -43.4553833,
      "lon": 171.4591497,
      "timestamp": "2021-09-19T07:48:11Z",
      "version": 3,
      "changeset": 111397426,
      "user": "kylenz_linz",
      "uid": 8389777,
      "tags": {
        "name": "Tribulation Hut",
        "operator": "Department of Conservation",
        "ref:doc": "100084247",
        "source": "LINZ",
        "tourism": "alpine_hut"
      }
    },
    {
      "type": "node",
      "id": 1926299159,
      "lat": -43.4288156,
      "lon": 171.3671081,
      "timestamp": "2020-03-29T05:21:32Z",
      "version": 5,
      "changeset": 82769384,
      "user": "Sarvihepo",
      "uid": 2057798,
      "tags": {
        "capacity": "8",
        "drinking_water": "yes",
        "fee": "no",
        "fireplace": "yes",
        "mattress": "yes",
        "name": "Comyns Hut",
        "operator": "Department of Conservation",
        "ref:doc": "100030125",
        "reservation": "no",
        "toilets": "yes",
        "tourism": "wilderness_hut",
        "website": "https://www.doc.govt.nz/parks-and-recreation/places-to-go/canterbury/places/hakatere-conservation-park/things-to-do/huts/comyns-hut/"
      }
    },
    {
      "type": "node",
      "id": 2118534738,
      "lat": -43.0781466,
      "lon": 171.0936634,
      "timestamp": "2021-09-26T01:34:09Z",
      "version": 2,
      "changeset": 111704976,
      "user": "kylenz_linz",
      "uid": 8389777,
      "tags": {
        "direction": "101",
        "ele": "1308",
        "name": "Frew Saddle",
        "natural": "saddle",
        "ref:linz:topo50_id": "3338774",
        "source": "survey"
      }
    },
    {
      "type": "node",
      "id": 2265015097,
      "lat": -43.3829192,
      "lon": 171.3702498,
      "timestamp": "2020-04-01T09:16:21Z",
      "version": 6,
      "changeset": 82913418,
      "user": "Sarvihepo",
      "uid": 2057798,
      "tags": {
        "capacity": "3",
        "drinking_water": "yes",
        "fee": "no",
        "mattress": "yes",
        "name": "A Frame Hut",
        "operator": "Department of Conservation",
        "ref:doc": "100030126",
        "reservation": "no",
        "toilets": "yes",
        "tourism": "wilderness_hut",
        "website": "https://www.doc.govt.nz/parks-and-recreation/places-to-go/canterbury/places/hakatere-conservation-park/things-to-do/huts/a-frame-hut/"
      }
    },
    {
      "type": "node",
      "id": 2480507050,
      "lat": -43.1313947,
      "lon": 170.8765366,
      "timestamp": "2018-09-25T00:02:47Z",
      "version": 4,
      "changeset": 62897695,
      "user": "petenz",
      "uid": 38928,
      "tags": {
        "name": "Top Waitaha Hut",
        "ref:doc": "100054672",
        "tourism": "wilderness_hut"
      }
    },
    {
      "type": "node",
      "id": 4053975436,
      "lat": -43.3701797,
      "lon": 171.5345883,
      "timestamp": "2018-11-02T06:38:58Z",
      "version": 3,
      "changeset": 64102283,
      "user": "lcmortensen",
      "uid": 341519,
      "tags": {
        "name": "Lake Coleridge",
        "name:mi": "Whakamatau",
        "place": "hamlet"
      }
    },
    {
      "type": "node",
      "id": 4933587821,
      "lat": -43.2393552,
      "lon": 170.8910853,
      "timestamp": "2020-12-07T00:14:20Z",
      "version": 2,
      "changeset": 95385074,
      "user": "pizzaiolo",
      "uid": 1772368,
      "tags": {
        "ele": "2107",
        "name": "Mount Roberts",
        "natural": "peak",
        "source": "LINZ_NZ_Topo50_Gridless_Maps",
        "wikidata": "Q31680994"
      }
    },
    {
      "type": "node",
      "id": 4933600218,
      "lat": -43.1221644,
      "lon": 171.1872884,
      "timestamp": "2017-08-07T09:52:07Z",
      "version": 2,
      "changeset": 50911876,
      "user": "lcmortensen",
      "uid": 341519,
      "tags": {
        "ele": "2300",
        "name": "Mount Williams",
        "natural": "peak",
        "source": "LINZ_NZ_Topo50_Gridless_Maps",
        "wikidata": "Q31682151"
      }
    },
    {
      "type": "node",
      "id": 4933602323,
      "lat": -43.2132879,
      "lon": 170.9210008,
      "timestamp": "2020-12-07T00:14:21Z",
      "version": 2,
      "changeset": 95385074,
      "user": "pizzaiolo",
      "uid": 1772368,
      "tags": {
        "ele": "2440",
        "name": "Erewhon Peak",
        "natural": "peak",
        "source": "LINZ_NZ_Topo50_Gridless_Maps",
        "wikidata": "Q31681040"
      }
    },
    {
      "type": "node",
      "id": 4933602324,
      "lat": -43.2160934,
      "lon": 170.9128061,
      "timestamp": "2018-09-27T00:11:03Z",
      "version": 2,
      "changeset": 62961504,
      "user": "lcmortensen",
      "uid": 341519,
      "tags": {
        "ele": "2650",
        "name": "Mount Whitcombe",
        "natural": "peak",
        "source": "LINZ_NZ_Topo50_Gridless_Maps",
        "wikidata": "Q31655829"
      }
    },
    {
      "type": "node",
      "id": 4933602327,
      "lat": -43.118844,
      "lon": 171.1083671,
      "timestamp": "2020-12-07T00:14:23Z",
      "version": 2,
      "changeset": 95385074,
      "user": "pizzaiolo",
      "uid": 1772368,
      "tags": {
        "ele": "2090",
        "name": "Comyns Peak",
        "natural": "peak",
        "source": "LINZ_NZ_Topo50_Gridless_Maps",
        "wikidata": "Q31681913"
      }
    },
    {
      "type": "node",
      "id": 4933602329,
      "lat": -43.1010767,
      "lon": 171.0845104,
      "timestamp": "2020-12-07T00:14:23Z",
      "version": 2,
      "changeset": 95385074,
      "user": "pizzaiolo",
      "uid": 1772368,
      "tags": {
        "ele": "1947",
        "name": "Vincent Peak",
        "natural": "peak",
        "source": "LINZ_NZ_Topo50_Gridless_Maps",
        "wikidata": "Q31681791"
      }
    },
    {
      "type": "node",
      "id": 4933602330,
      "lat": -43.1140479,
      "lon": 171.0639111,
      "timestamp": "2020-12-07T00:14:23Z",
      "version": 2,
      "changeset": 95385074,
      "user": "pizzaiolo",
      "uid": 1772368,
      "tags": {
        "ele": "1967",
        "name": "Mount Split Open",
        "natural": "peak",
        "source": "LINZ_NZ_Topo50_Gridless_Maps",
        "wikidata": "Q31681867"
      }
    },
    {
      "type": "node",
      "id": 4933602332,
      "lat": -43.1637875,
      "lon": 171.047129,
      "timestamp": "2021-03-15T06:23:09Z",
      "version": 2,
      "changeset": 101024907,
      "user": "lcmortensen",
      "uid": 341519,
      "tags": {
        "ele": "2249",
        "name": "Mount Warner",
        "natural": "peak",
        "source": "LINZ_NZ_Topo50_Gridless_Maps",
        "wikidata": "Q31657205"
      }
    },
    {
      "type": "node",
      "id": 4933602334,
      "lat": -43.1116043,
      "lon": 171.1035648,
      "timestamp": "2021-03-15T06:23:09Z",
      "version": 2,
      "changeset": 101024907,
      "user": "lcmortensen",
      "uid": 341519,
      "tags": {
        "ele": "2119",
        "name": "Mount Marion",
        "natural": "peak",
        "source": "LINZ_NZ_Topo50_Gridless_Maps",
        "wikidata": "Q30508332"
      }
    },
    {
      "type": "node",
      "id": 4933602335,
      "lat": -43.1233547,
      "lon": 171.1234304,
      "timestamp": "2020-12-07T00:14:25Z",
      "version": 2,
      "changeset": 95385074,
      "user": "pizzaiolo",
      "uid": 1772368,
      "tags": {
        "ele": "2132",
        "name": "Urquhart Peak",
        "natural": "peak",
        "source": "LINZ_NZ_Topo50_Gridless_Maps",
        "wikidata": "Q31682135"
      }
    },
    {
      "type": "node",
      "id": 4933602336,
      "lat": -43.1917248,
      "lon": 171.0434812,
      "timestamp": "2020-12-07T00:14:24Z",
      "version": 2,
      "changeset": 95385074,
      "user": "pizzaiolo",
      "uid": 1772368,
      "tags": {
        "ele": "1990",
        "name": "Observation Cone",
        "natural": "peak",
        "source": "LINZ_NZ_Topo50_Gridless_Maps",
        "wikidata": "Q31682009"
      }
    },
    {
      "type": "node",
      "id": 4933976695,
      "lat": -43.0823972,
      "lon": 171.1337335,
      "timestamp": "2020-12-07T00:14:22Z",
      "version": 2,
      "changeset": 95385074,
      "user": "pizzaiolo",
      "uid": 1772368,
      "tags": {
        "ele": "2065",
        "name": "Gerard Peak",
        "natural": "peak",
        "source": "LINZ_NZ_Topo50_Gridless_Maps",
        "wikidata": "Q31681604"
      }
    },
    {
      "type": "node",
      "id": 4933976701,
      "lat": -43.0889305,
      "lon": 171.1450481,
      "timestamp": "2019-05-03T04:33:43Z",
      "version": 2,
      "changeset": 69826768,
      "user": "pizzaiolo",
      "uid": 1772368,
      "tags": {
        "ele": "2042",
        "name": "Mount Tregear",
        "natural": "peak",
        "source": "LINZ_NZ_Topo50_Gridless_Maps",
        "wikidata": "Q6924186"
      }
    },
    {
      "type": "node",
      "id": 4933976712,
      "lat": -43.0957071,
      "lon": 171.1134577,
      "timestamp": "2021-09-26T01:34:09Z",
      "version": 2,
      "changeset": 111704976,
      "user": "kylenz_linz",
      "uid": 8389777,
      "tags": {
        "direction": "79",
        "ele": "1458",
        "name": "Mathias Pass",
        "natural": "saddle",
        "ref:linz:topo50_id": "3338784",
        "source": "LINZ_NZ_Topo50_Gridless_Maps"
      }
    },
    {
      "type": "node",
      "id": 4933976719,
      "lat": -43.0796185,
      "lon": 171.1544036,
      "timestamp": "2020-12-07T00:14:22Z",
      "version": 2,
      "changeset": 95385074,
      "user": "pizzaiolo",
      "uid": 1772368,
      "tags": {
        "ele": "2130",
        "name": "Mount Notman",
        "natural": "peak",
        "source": "LINZ_NZ_Topo50_Gridless_Maps",
        "wikidata": "Q31681620"
      }
    },
    {
      "type": "node",
      "id": 4939779276,
      "lat": -43.4887639,
      "lon": 171.5274785,
      "timestamp": "2020-12-07T00:14:51Z",
      "version": 2,
      "changeset": 95385074,
      "user": "pizzaiolo",
      "uid": 1772368,
      "tags": {
        "ele": "2081",
        "name": "South Peak",
        "natural": "peak",
        "source": "LINZ_NZ_Topo50_Gridless_Maps",
        "wikidata": "Q31688281"
      }
    },
    {
      "type": "node",
      "id": 4939787766,
      "lat": -43.4714859,
      "lon": 171.5260623,
      "timestamp": "2019-08-31T01:21:47Z",
      "version": 4,
      "changeset": 73940779,
      "user": "EliotB",
      "uid": 87274,
      "tags": {
        "alt_name:mi": "Huirapa",
        "ele": "2185",
        "name": "Mount Hutt",
        "name:en": "Mount Hutt",
        "name:mi": "ÅŒpuke",
        "natural": "peak",
        "source": "LINZ_NZ_Topo50_Gridless_Maps",
        "wikidata": "Q692322"
      }
    },
    {
      "type": "node",
      "id": 4939787769,
      "lat": -43.4232863,
      "lon": 171.4344015,
      "timestamp": "2020-12-07T00:14:52Z",
      "version": 2,
      "changeset": 95385074,
      "user": "pizzaiolo",
      "uid": 1772368,
      "tags": {
        "ele": "1873",
        "name": "Shingle Hill",
        "natural": "peak",
        "source": "LINZ_NZ_Topo50_Gridless_Maps",
        "wikidata": "Q31688453"
      }
    },
    {
      "type": "node",
      "id": 4939787771,
      "lat": -43.423598,
      "lon": 171.5276501,
      "timestamp": "2020-12-07T00:14:52Z",
      "version": 2,
      "changeset": 95385074,
      "user": "pizzaiolo",
      "uid": 1772368,
      "tags": {
        "ele": "1876",
        "name": "Steepface Hill",
        "natural": "peak",
        "source": "LINZ_NZ_Topo50_Gridless_Maps",
        "wikidata": "Q31688481"
      }
    },
    {
      "type": "node",
      "id": 4941383691,
      "lat": -43.5297941,
      "lon": 171.1931538,
      "timestamp": "2020-12-07T00:14:27Z",
      "version": 2,
      "changeset": 95385074,
      "user": "pizzaiolo",
      "uid": 1772368,
      "tags": {
        "ele": "802",
        "name": "Isolated Hill",
        "natural": "peak",
        "source": "LINZ_NZ_Topo50_Gridless_Maps",
        "wikidata": "Q31682784"
      }
    },
    {
      "type": "node",
      "id": 4941389907,
      "lat": -43.3011653,
      "lon": 171.0146452,
      "timestamp": "2020-12-07T00:14:27Z",
      "version": 2,
      "changeset": 95385074,
      "user": "pizzaiolo",
      "uid": 1772368,
      "tags": {
        "ele": "2441",
        "name": "Bastion Peaks",
        "natural": "peak",
        "source": "LINZ_NZ_Topo50_Gridless_Maps",
        "wikidata": "Q31683081"
      }
    },
    {
      "type": "node",
      "id": 4941389909,
      "lat": -43.3420671,
      "lon": 171.0206963,
      "timestamp": "2020-12-07T00:14:29Z",
      "version": 2,
      "changeset": 95385074,
      "user": "pizzaiolo",
      "uid": 1772368,
      "tags": {
        "ele": "2448",
        "name": "Tent Peak",
        "natural": "peak",
        "source": "LINZ_NZ_Topo50_Gridless_Maps",
        "wikidata": "Q31683263"
      }
    },
    {
      "type": "node",
      "id": 4941389911,
      "lat": -43.323119,
      "lon": 170.9118201,
      "timestamp": "2020-12-07T00:14:31Z",
      "version": 2,
      "changeset": 95385074,
      "user": "pizzaiolo",
      "uid": 1772368,
      "tags": {
        "ele": "2191",
        "name": "Jollie Sisters",
        "natural": "peak",
        "source": "LINZ_NZ_Topo50_Gridless_Maps",
        "wikidata": "Q31683616"
      }
    },
    {
      "type": "node",
      "id": 4941389912,
      "lat": -43.3341686,
      "lon": 171.0203959,
      "timestamp": "2020-12-07T00:14:29Z",
      "version": 2,
      "changeset": 95385074,
      "user": "pizzaiolo",
      "uid": 1772368,
      "tags": {
        "ele": "2408",
        "name": "Prop Peak",
        "natural": "peak",
        "source": "LINZ_NZ_Topo50_Gridless_Maps",
        "wikidata": "Q31683237"
      }
    },
    {
      "type": "node",
      "id": 4941389919,
      "lat": -43.3517729,
      "lon": 170.870793,
      "timestamp": "2020-12-07T00:14:30Z",
      "version": 2,
      "changeset": 95385074,
      "user": "pizzaiolo",
      "uid": 1772368,
      "tags": {
        "ele": "2394",
        "name": "Outlaw Peak",
        "natural": "peak",
        "source": "LINZ_NZ_Topo50_Gridless_Maps",
        "wikidata": "Q31683304"
      }
    },
    {
      "type": "node",
      "id": 4941390724,
      "lat": -43.3408186,
      "lon": 170.9979082,
      "timestamp": "2020-12-07T00:14:29Z",
      "version": 2,
      "changeset": 95385074,
      "user": "pizzaiolo",
      "uid": 1772368,
      "tags": {
        "ele": "2564",
        "name": "The Twins",
        "natural": "peak",
        "source": "LINZ_NZ_Topo50_Gridless_Maps",
        "wikidata": "Q31683250"
      }
    },
    {
      "type": "node",
      "id": 4941390725,
      "lat": -43.3783234,
      "lon": 170.9547354,
      "timestamp": "2020-12-07T00:14:26Z",
      "version": 3,
      "changeset": 95385074,
      "user": "pizzaiolo",
      "uid": 1772368,
      "tags": {
        "ele": "2298",
        "name": "Hakatere Peak",
        "name:mi": "Hakatere",
        "natural": "peak",
        "source": "LINZ_NZ_Topo50_Gridless_Maps",
        "wikidata": "Q31682604"
      }
    },
    {
      "type": "node",
      "id": 4941390726,
      "lat": -43.3121596,
      "lon": 171.0031868,
      "timestamp": "2020-12-07T00:14:28Z",
      "version": 2,
      "changeset": 95385074,
      "user": "pizzaiolo",
      "uid": 1772368,
      "tags": {
        "ele": "2628",
        "name": "North Peak",
        "natural": "peak",
        "source": "LINZ_NZ_Topo50_Gridless_Maps",
        "wikidata": "Q31683147"
      }
    },
    {
      "type": "node",
      "id": 4941390728,
      "lat": -43.3705872,
      "lon": 170.9612156,
      "timestamp": "2020-12-07T00:14:27Z",
      "version": 2,
      "changeset": 95385074,
      "user": "pizzaiolo",
      "uid": 1772368,
      "tags": {
        "ele": "2359",
        "name": "Ashburton Peak",
        "natural": "peak",
        "source": "LINZ_NZ_Topo50_Gridless_Maps",
        "wikidata": "Q31682619"
      }
    },
    {
      "type": "node",
      "id": 4941390731,
      "lat": -43.304009,
      "lon": 171.0016848,
      "timestamp": "2020-12-07T00:14:28Z",
      "version": 2,
      "changeset": 95385074,
      "user": "pizzaiolo",
      "uid": 1772368,
      "tags": {
        "ele": "2539",
        "name": "The Steeple",
        "natural": "peak",
        "source": "LINZ_NZ_Topo50_Gridless_Maps",
        "wikidata": "Q31683114"
      }
    },
    {
      "type": "node",
      "id": 4941424343,
      "lat": -43.1886872,
      "lon": 170.9145604,
      "timestamp": "2020-12-07T00:14:21Z",
      "version": 2,
      "changeset": 95385074,
      "user": "pizzaiolo",
      "uid": 1772368,
      "tags": {
        "ele": "2444",
        "name": "The Red Lion",
        "natural": "peak",
        "source": "LINZ_NZ_Topo50_Gridless_Maps",
        "wikidata": "Q31681055"
      }
    },
    {
      "type": "node",
      "id": 5402620628,
      "lat": -43.2218866,
      "lon": 171.4574292,
      "timestamp": "2020-03-29T05:38:57Z",
      "version": 2,
      "changeset": 82769511,
      "user": "Sarvihepo",
      "uid": 2057798,
      "tags": {
        "amenity": "drinking_water",
        "name": "Water tap"
      }
    },
    {
      "type": "node",
      "id": 5643442821,
      "lat": -43.5602125,
      "lon": 171.5225931,
      "timestamp": "2018-05-26T09:26:48Z",
      "version": 1,
      "changeset": 59290068,
      "user": "Josias Bristot Moretto",
      "uid": 8285553,
      "tags": {
        "tourism": "camp_site"
      }
    },
    {
      "type": "node",
      "id": 5811639172,
      "lat": -43.2413992,
      "lon": 171.536834,
      "timestamp": "2020-12-07T00:14:47Z",
      "version": 2,
      "changeset": 95385074,
      "user": "pizzaiolo",
      "uid": 1772368,
      "tags": {
        "ele": "1050",
        "name": "Little Mt Ida",
        "natural": "peak",
        "wikidata": "Q31687513"
      }
    },
    {
      "type": "node",
      "id": 5811696455,
      "lat": -43.2627031,
      "lon": 171.5510928,
      "timestamp": "2020-12-07T00:14:48Z",
      "version": 2,
      "changeset": 95385074,
      "user": "pizzaiolo",
      "uid": 1772368,
      "tags": {
        "ele": "1109",
        "name": "Mt Hennah",
        "natural": "peak",
        "wikidata": "Q31687526"
      }
    },
    {
      "type": "node",
      "id": 5814086635,
      "lat": -43.1728614,
      "lon": 171.4837629,
      "timestamp": "2021-09-26T01:34:09Z",
      "version": 2,
      "changeset": 111704976,
      "user": "kylenz_linz",
      "uid": 8389777,
      "tags": {
        "direction": "67",
        "ele": "991",
        "name": "Gargarus Saddle",
        "natural": "saddle",
        "ref:linz:topo50_id": "3338543"
      }
    },
    {
      "type": "node",
      "id": 5814086637,
      "lat": -43.1651398,
      "lon": 171.5231866,
      "timestamp": "2020-12-07T00:14:49Z",
      "version": 2,
      "changeset": 95385074,
      "user": "pizzaiolo",
      "uid": 1772368,
      "tags": {
        "ele": "1382",
        "name": "Mt Fitzwilliam",
        "natural": "peak",
        "wikidata": "Q31687869"
      }
    },
    {
      "type": "node",
      "id": 6134512775,
      "lat": -43.5473591,
      "lon": 170.9075293,
      "timestamp": "2018-12-13T08:07:56Z",
      "version": 1,
      "changeset": 65433309,
      "user": "Sama Magham",
      "uid": 3782180,
      "tags": {
        "name": "Freedom Camping for Self Contained Vehicles",
        "tourism": "camp_site"
      }
    },
    {
      "type": "node",
      "id": 6240909312,
      "lat": -43.4212118,
      "lon": 170.8850832,
      "timestamp": "2019-01-28T04:23:36Z",
      "version": 1,
      "changeset": 66693352,
      "user": "gaddman",
      "uid": 365177,
      "tags": {
        "name": "Lawrence Hut",
        "operator": "Department of Conservation",
        "ref:doc": "100062416",
        "tourism": "wilderness_hut"
      }
    },
    {
      "type": "node",
      "id": 6241210931,
      "lat": -43.1871409,
      "lon": 171.1314221,
      "timestamp": "2019-01-28T08:34:12Z",
      "version": 1,
      "changeset": 66697935,
      "user": "gaddman",
      "uid": 365177,
      "tags": {
        "name": "Mathias Hut",
        "operator": "Department of Conservation",
        "ref:doc": "100060746",
        "tourism": "wilderness_hut"
      }
    },
    {
      "type": "node",
      "id": 6241210933,
      "lat": -43.2597173,
      "lon": 171.0309403,
      "timestamp": "2019-01-28T08:34:13Z",
      "version": 1,
      "changeset": 66697935,
      "user": "gaddman",
      "uid": 365177,
      "tags": {
        "name": "Evans Hut",
        "operator": "Department of Conservation",
        "ref:doc": "100062414",
        "tourism": "wilderness_hut"
      }
    },
    {
      "type": "node",
      "id": 6257406934,
      "lat": -43.2991246,
      "lon": 170.909715,
      "timestamp": "2019-02-04T08:41:41Z",
      "version": 1,
      "changeset": 66896390,
      "user": "gaddman",
      "uid": 365177,
      "tags": {
        "name": "Lyell Hut",
        "operator": "Department of Conservation",
        "ref:doc": "100060748",
        "tourism": "wilderness_hut"
      }
    },
    {
      "type": "node",
      "id": 6260548771,
      "lat": -43.13096,
      "lon": 170.9636231,
      "timestamp": "2019-02-05T19:45:49Z",
      "version": 1,
      "changeset": 66942165,
      "user": "gaddman",
      "uid": 365177,
      "tags": {
        "name": "Price Basin Hut",
        "operator": "Department of Conservation",
        "ref:doc": "100072395",
        "tourism": "wilderness_hut"
      }
    },
    {
      "type": "node",
      "id": 6260548772,
      "lat": -43.0898504,
      "lon": 170.8894097,
      "timestamp": "2019-02-05T19:45:49Z",
      "version": 1,
      "changeset": 66942165,
      "user": "gaddman",
      "uid": 365177,
      "tags": {
        "name": "Top Tuke Hut",
        "operator": "Department of Conservation",
        "ref:doc": "100072394",
        "tourism": "wilderness_hut"
      }
    },
    {
      "type": "node",
      "id": 6260944882,
      "lat": -43.4854702,
      "lon": 171.4425234,
      "timestamp": "2019-02-06T01:09:52Z",
      "version": 1,
      "changeset": 66949396,
      "user": "gaddman",
      "uid": 365177,
      "tags": {
        "name": "Cookies Hut",
        "operator": "Department of Conservation",
        "ref:doc": "100101767",
        "tourism": "wilderness_hut"
      }
    },
    {
      "type": "node",
      "id": 6260946089,
      "lat": -43.1291508,
      "lon": 171.260659,
      "timestamp": "2019-02-06T01:09:52Z",
      "version": 1,
      "changeset": 66949396,
      "user": "gaddman",
      "uid": 365177,
      "tags": {
        "name": "Moa Stream Hut",
        "operator": "Department of Conservation",
        "ref:doc": "100034519",
        "tourism": "wilderness_hut"
      }
    },
    {
      "type": "node",
      "id": 6330212614,
      "lat": -43.4284448,
      "lon": 171.4672981,
      "timestamp": "2019-03-11T06:44:31Z",
      "version": 1,
      "changeset": 68011073,
      "user": "ShakyIsles",
      "uid": 1968467,
      "tags": {
        "name": "Redcliff Saddle",
        "natural": "saddle"
      }
    },
    {
      "type": "node",
      "id": 6332418875,
      "lat": -43.4440867,
      "lon": 171.292308,
      "timestamp": "2020-03-29T05:21:32Z",
      "version": 3,
      "changeset": 82769384,
      "user": "Sarvihepo",
      "uid": 2057798,
      "tags": {
        "ele": "1485",
        "name": "Clent Hills Saddle",
        "natural": "saddle"
      }
    },
    {
      "type": "node",
      "id": 6334528264,
      "lat": -43.3295883,
      "lon": 171.2441224,
      "timestamp": "2020-12-07T00:14:19Z",
      "version": 2,
      "changeset": 95385074,
      "user": "pizzaiolo",
      "uid": 1772368,
      "tags": {
        "ele": "1612",
        "name": "Mt O'Connor",
        "natural": "peak",
        "wikidata": "Q31680478"
      }
    },
    {
      "type": "node",
      "id": 6335084663,
      "lat": -43.3591912,
      "lon": 171.3680997,
      "timestamp": "2019-03-13T09:44:18Z",
      "version": 1,
      "changeset": 68093082,
      "user": "ShakyIsles",
      "uid": 1968467,
      "tags": {
        "ele": "1130",
        "name": "Turtons Saddle",
        "natural": "saddle"
      }
    },
    {
      "type": "node",
      "id": 6565796648,
      "lat": -43.0866277,
      "lon": 171.2566342,
      "timestamp": "2021-09-26T01:34:09Z",
      "version": 2,
      "changeset": 111704976,
      "user": "kylenz_linz",
      "uid": 8389777,
      "tags": {
        "direction": "33",
        "ele": "1078",
        "name": "Moa Saddle",
        "name:mi": "Moa",
        "natural": "saddle",
        "ref:linz:topo50_id": "3338800"
      }
    },
    {
      "type": "node",
      "id": 6565796649,
      "lat": -43.1018824,
      "lon": 171.2945789,
      "timestamp": "2020-12-07T00:14:50Z",
      "version": 2,
      "changeset": 95385074,
      "user": "pizzaiolo",
      "uid": 1772368,
      "tags": {
        "ele": "1655",
        "name": "Moa Hill",
        "name:mi": "Moa",
        "natural": "peak",
        "wikidata": "Q31687916"
      }
    },
    {
      "type": "node",
      "id": 7662597988,
      "lat": -43.1277941,
      "lon": 171.3706567,
      "timestamp": "2020-06-29T01:51:59Z",
      "version": 1,
      "changeset": 87264981,
      "user": "shekk",
      "uid": 4516038,
      "tags": {
        "tourism": "wilderness_hut"
      }
    },
    {
      "type": "node",
      "id": 8403799411,
      "lat": -43.0798101,
      "lon": 171.5331562,
      "timestamp": "2021-09-26T01:34:09Z",
      "version": 2,
      "changeset": 111704976,
      "user": "kylenz_linz",
      "uid": 8389777,
      "tags": {
        "direction": "50",
        "ele": "1588",
        "name": "Bruce Saddle",
        "natural": "saddle",
        "ref:linz:topo50_id": "3338553"
      }
    },
    {
      "type": "node",
      "id": 8410084985,
      "lat": -43.0918891,
      "lon": 171.5493057,
      "timestamp": "2021-03-15T07:25:39Z",
      "version": 2,
      "changeset": 101029380,
      "user": "lcmortensen",
      "uid": 341519,
      "tags": {
        "ele": "2066",
        "name": "Packard Peak",
        "natural": "peak",
        "wikidata": "Q31687858"
      }
    },
    {
      "type": "node",
      "id": 8410084986,
      "lat": -43.1039191,
      "lon": 171.5132106,
      "timestamp": "2021-03-15T07:25:40Z",
      "version": 2,
      "changeset": 101029380,
      "user": "lcmortensen",
      "uid": 341519,
      "tags": {
        "ele": "2042",
        "name": "Thesis Peak",
        "natural": "peak",
        "wikidata": "Q31687881"
      }
    },
    {
      "type": "node",
      "id": 8424848818,
      "lat": -43.2984174,
      "lon": 171.0558973,
      "timestamp": "2021-02-15T19:00:19Z",
      "version": 2,
      "changeset": 99328675,
      "user": "ralley",
      "uid": 670820,
      "tags": {
        "fee": "yes",
        "name": "Banfield Hut",
        "name:en": "Banfield Hut",
        "operator": "Canterbury Mountaineering Club",
        "tourism": "wilderness_hut"
      }
    },
    {
      "type": "node",
      "id": 9123364454,
      "lat": -43.3547504,
      "lon": 170.8748675,
      "timestamp": "2021-09-26T01:34:09Z",
      "version": 1,
      "changeset": 111704976,
      "user": "kylenz_linz",
      "uid": 8389777,
      "tags": {
        "direction": "50",
        "ele": "2088",
        "name": "Bandolero Col",
        "natural": "saddle",
        "ref:linz:topo50_id": "3338515"
      }
    },
    {
      "type": "node",
      "id": 9123364455,
      "lat": -43.3589341,
      "lon": 170.8737574,
      "timestamp": "2021-09-26T01:34:09Z",
      "version": 1,
      "changeset": 111704976,
      "user": "kylenz_linz",
      "uid": 8389777,
      "tags": {
        "direction": "96",
        "ele": "2014",
        "name": "Musterers Col",
        "natural": "saddle",
        "ref:linz:topo50_id": "3338514"
      }
    },
    {
      "type": "node",
      "id": 9123364456,
      "lat": -43.3285312,
      "lon": 170.9076611,
      "timestamp": "2021-09-26T01:34:09Z",
      "version": 1,
      "changeset": 111704976,
      "user": "kylenz_linz",
      "uid": 8389777,
      "tags": {
        "direction": "358",
        "name": "Ambrose Saddle",
        "natural": "saddle",
        "ref:linz:topo50_id": "3338608"
      }
    },
    {
      "type": "node",
      "id": 9123364457,
      "lat": -43.3154668,
      "lon": 170.932763,
      "timestamp": "2021-09-26T01:34:09Z",
      "version": 1,
      "changeset": 111704976,
      "user": "kylenz_linz",
      "uid": 8389777,
      "tags": {
        "direction": "358",
        "ele": "1870",
        "name": "Butler Saddle",
        "natural": "saddle",
        "ref:linz:topo50_id": "3338527"
      }
    },
    {
      "type": "node",
      "id": 9123364458,
      "lat": -43.3143121,
      "lon": 170.9447138,
      "timestamp": "2021-09-26T01:34:09Z",
      "version": 1,
      "changeset": 111704976,
      "user": "kylenz_linz",
      "uid": 8389777,
      "tags": {
        "direction": "335",
        "ele": "1979",
        "name": "Chowbok Col",
        "natural": "saddle",
        "ref:linz:topo50_id": "3338528"
      }
    },
    {
      "type": "node",
      "id": 9123364459,
      "lat": -43.3127207,
      "lon": 170.9996645,
      "timestamp": "2021-09-26T01:34:09Z",
      "version": 1,
      "changeset": 111704976,
      "user": "kylenz_linz",
      "uid": 8389777,
      "tags": {
        "direction": "341",
        "ele": "2330",
        "name": "Lawrence Col",
        "natural": "saddle",
        "ref:linz:topo50_id": "3338530"
      }
    },
    {
      "type": "node",
      "id": 9123364460,
      "lat": -43.3064341,
      "lon": 171.0056872,
      "timestamp": "2021-09-26T01:34:09Z",
      "version": 1,
      "changeset": 111704976,
      "user": "kylenz_linz",
      "uid": 8389777,
      "tags": {
        "direction": "107",
        "ele": "2416",
        "name": "Reischek Col",
        "natural": "saddle",
        "ref:linz:topo50_id": "3338532"
      }
    },
    {
      "type": "node",
      "id": 9123364461,
      "lat": -43.333924,
      "lon": 171.0173204,
      "timestamp": "2021-09-26T01:34:09Z",
      "version": 1,
      "changeset": 111704976,
      "user": "kylenz_linz",
      "uid": 8389777,
      "tags": {
        "direction": "16",
        "ele": "2255",
        "name": "Jagged Col",
        "natural": "saddle",
        "ref:linz:topo50_id": "3338529"
      }
    },
    {
      "type": "node",
      "id": 9123364462,
      "lat": -43.3401456,
      "lon": 171.02338,
      "timestamp": "2021-09-26T01:34:09Z",
      "version": 1,
      "changeset": 111704976,
      "user": "kylenz_linz",
      "uid": 8389777,
      "tags": {
        "direction": "318",
        "name": "Groove Col",
        "natural": "saddle",
        "ref:linz:topo50_id": "3338609"
      }
    },
    {
      "type": "node",
      "id": 9123364463,
      "lat": -43.3383279,
      "lon": 171.0330576,
      "timestamp": "2021-09-26T01:34:09Z",
      "version": 1,
      "changeset": 111704976,
      "user": "kylenz_linz",
      "uid": 8389777,
      "tags": {
        "direction": "4",
        "ele": "2004",
        "name": "Peg Col",
        "natural": "saddle",
        "ref:linz:topo50_id": "3338526"
      }
    },
    {
      "type": "node",
      "id": 9123364464,
      "lat": -43.3289173,
      "lon": 171.0423011,
      "timestamp": "2021-09-26T01:34:09Z",
      "version": 1,
      "changeset": 111704976,
      "user": "kylenz_linz",
      "uid": 8389777,
      "tags": {
        "direction": "96",
        "ele": "1998",
        "name": "Boulder Col",
        "natural": "saddle",
        "ref:linz:topo50_id": "3338531"
      }
    },
    {
      "type": "node",
      "id": 9123364465,
      "lat": -43.3472804,
      "lon": 170.9842229,
      "timestamp": "2021-09-26T01:34:09Z",
      "version": 1,
      "changeset": 111704976,
      "user": "kylenz_linz",
      "uid": 8389777,
      "tags": {
        "direction": "307",
        "ele": "2427",
        "name": "Cameron Col",
        "natural": "saddle",
        "ref:linz:topo50_id": "3338525"
      }
    },
    {
      "type": "node",
      "id": 9123364466,
      "lat": -43.2036597,
      "lon": 170.9374576,
      "timestamp": "2021-09-26T01:34:09Z",
      "version": 1,
      "changeset": 111704976,
      "user": "kylenz_linz",
      "uid": 8389777,
      "tags": {
        "direction": "347",
        "ele": "2160",
        "name": "Erewhon Col",
        "natural": "saddle",
        "ref:linz:topo50_id": "3338533"
      }
    },
    {
      "type": "node",
      "id": 9123364467,
      "lat": -43.1993831,
      "lon": 170.9319633,
      "timestamp": "2021-09-26T01:34:09Z",
      "version": 1,
      "changeset": 111704976,
      "user": "kylenz_linz",
      "uid": 8389777,
      "tags": {
        "direction": "107",
        "ele": "2098",
        "name": "Full Moon Saddle",
        "natural": "saddle",
        "ref:linz:topo50_id": "3338534"
      }
    },
    {
      "type": "node",
      "id": 9123364468,
      "lat": -43.1882713,
      "lon": 170.9182286,
      "timestamp": "2021-09-26T01:34:09Z",
      "version": 1,
      "changeset": 111704976,
      "user": "kylenz_linz",
      "uid": 8389777,
      "tags": {
        "direction": "335",
        "ele": "2245",
        "name": "Red Lion Col",
        "natural": "saddle",
        "ref:linz:topo50_id": "3338523"
      }
    },
    {
      "type": "node",
      "id": 9123364469,
      "lat": -43.1751205,
      "lon": 170.9185351,
      "timestamp": "2021-09-26T01:34:09Z",
      "version": 1,
      "changeset": 111704976,
      "user": "kylenz_linz",
      "uid": 8389777,
      "tags": {
        "direction": "84",
        "ele": "1976",
        "name": "McKenzie Col",
        "natural": "saddle",
        "ref:linz:topo50_id": "3338524"
      }
    },
    {
      "type": "node",
      "id": 9123364470,
      "lat": -43.1485358,
      "lon": 170.9342783,
      "timestamp": "2021-09-26T01:34:09Z",
      "version": 1,
      "changeset": 111704976,
      "user": "kylenz_linz",
      "uid": 8389777,
      "tags": {
        "direction": "90",
        "ele": "1852",
        "name": "Seddon Col",
        "natural": "saddle",
        "ref:linz:topo50_id": "3338539"
      }
    },
    {
      "type": "node",
      "id": 9123364481,
      "lat": -43.2502328,
      "lon": 170.8744575,
      "timestamp": "2021-09-26T01:34:09Z",
      "version": 1,
      "changeset": 111704976,
      "user": "kylenz_linz",
      "uid": 8389777,
      "tags": {
        "direction": "90",
        "ele": "1729",
        "name": "Strachan Pass",
        "natural": "saddle",
        "ref:linz:topo50_id": "3338521"
      }
    },
    {
      "type": "node",
      "id": 9123364482,
      "lat": -43.2371249,
      "lon": 170.8928915,
      "timestamp": "2021-09-26T01:34:09Z",
      "version": 1,
      "changeset": 111704976,
      "user": "kylenz_linz",
      "uid": 8389777,
      "tags": {
        "direction": "84",
        "ele": "2012",
        "name": "Menace Gap",
        "natural": "saddle",
        "ref:linz:topo50_id": "3338522"
      }
    },
    {
      "type": "node",
      "id": 9123364483,
      "lat": -43.2480034,
      "lon": 171.1263105,
      "timestamp": "2021-09-26T01:34:09Z",
      "version": 1,
      "changeset": 111704976,
      "user": "kylenz_linz",
      "uid": 8389777,
      "tags": {
        "direction": "353",
        "ele": "1686",
        "name": "Poachers Pass",
        "natural": "saddle",
        "ref:linz:topo50_id": "3338536"
      }
    },
    {
      "type": "node",
      "id": 9123364484,
      "lat": -43.1565565,
      "lon": 171.2475626,
      "timestamp": "2021-09-26T01:34:09Z",
      "version": 1,
      "changeset": 111704976,
      "user": "kylenz_linz",
      "uid": 8389777,
      "tags": {
        "direction": "335",
        "name": "Excellent Saddle",
        "natural": "saddle",
        "ref:linz:topo50_id": "3338614"
      }
    },
    {
      "type": "node",
      "id": 9123364485,
      "lat": -43.0799969,
      "lon": 171.198235,
      "timestamp": "2021-09-26T01:34:09Z",
      "version": 1,
      "changeset": 111704976,
      "user": "kylenz_linz",
      "uid": 8389777,
      "tags": {
        "direction": "67",
        "ele": "1815",
        "name": "Unknown Col",
        "natural": "saddle",
        "ref:linz:topo50_id": "3338776"
      }
    },
    {
      "type": "node",
      "id": 9123364486,
      "lat": -43.0695991,
      "lon": 171.1923692,
      "timestamp": "2021-09-26T01:34:09Z",
      "version": 1,
      "changeset": 111704976,
      "user": "kylenz_linz",
      "uid": 8389777,
      "tags": {
        "direction": "56",
        "ele": "1910",
        "name": "Mistake Col",
        "natural": "saddle",
        "ref:linz:topo50_id": "3338785"
      }
    },
    {
      "type": "node",
      "id": 9123364489,
      "lat": -43.1112816,
      "lon": 171.0772187,
      "timestamp": "2021-09-26T01:34:09Z",
      "version": 1,
      "changeset": 111704976,
      "user": "kylenz_linz",
      "uid": 8389777,
      "tags": {
        "direction": "119",
        "ele": "1527",
        "name": "Kea Pass",
        "natural": "saddle",
        "ref:linz:topo50_id": "3338540"
      }
    },
    {
      "type": "node",
      "id": 9123364513,
      "lat": -43.0783217,
      "lon": 171.397604,
      "timestamp": "2021-09-26T01:34:09Z",
      "version": 1,
      "changeset": 111704976,
      "user": "kylenz_linz",
      "uid": 8389777,
      "tags": {
        "direction": "79",
        "ele": "1851",
        "name": "Half Moon Saddle",
        "natural": "saddle",
        "ref:linz:topo50_id": "3338544"
      }
    },
    {
      "type": "way",
      "id": 539396139,
      "timestamp": "2017-11-09T10:15:28Z",
      "version": 1,
      "changeset": 53634876,
      "user": "Rudy355",
      "uid": 142831,
      "center": {
        "lat": -43.4948218,
        "lon": 171.1555502
      },
      "nodes": [],
      "tags": {
        "name": "Lake Heron Camp",
        "tourism": "camp_site"
      }
    },
    {
      "type": "way",
      "id": 676213643,
      "timestamp": "2019-03-12T09:03:37Z",
      "version": 1,
      "changeset": 68053851,
      "user": "ShakyIsles",
      "uid": 1968467,
      "center": {
        "lat": -43.4207814,
        "lon": 171.0289057
      },
      "nodes": [],
      "tags": {
        "building": "yes",
        "tourism": "wilderness_hut"
      }
    },
    {
      "type": "way",
      "id": 708338580,
      "timestamp": "2019-07-28T23:08:15Z",
      "version": 1,
      "changeset": 72748898,
      "user": "petenz",
      "uid": 38928,
      "center": {
        "lat": -43.4152069,
        "lon": 171.0728323
      },
      "nodes": [],
      "tags": {
        "building": "yes",
        "fee": "yes",
        "fireplace": "yes",
        "name": "Highland Home",
        "operator": "Lake Heron Station",
        "tourism": "wilderness_hut"
      }
    },
    {
      "type": "way",
      "id": 708338779,
      "timestamp": "2019-07-28T23:12:47Z",
      "version": 1,
      "changeset": 72748936,
      "user": "petenz",
      "uid": 38928,
      "center": {
        "lat": -43.3671174,
        "lon": 171.0181013
      },
      "nodes": [],
      "tags": {
        "building": "yes",
        "name": "Cameron Hut",
        "operator": "Department of Conservation",
        "ref:doc": "100060749",
        "tourism": "wilderness_hut"
      }
    },
    {
      "type": "way",
      "id": 782997219,
      "timestamp": "2020-03-20T09:30:30Z",
      "version": 1,
      "changeset": 82424896,
      "user": "petenz",
      "uid": 38928,
      "center": {
        "lat": -43.1078054,
        "lon": 171.154696
      },
      "nodes": [],
      "tags": {
        "building": "yes",
        "fee": "no",
        "name": "Canyon Creek Bivouac",
        "operator": "Department of Conservation",
        "ref:doc": "100061485",
        "tourism": "wilderness_hut"
      }
    },
    {
      "type": "way",
      "id": 785505974,
      "timestamp": "2020-04-21T05:20:23Z",
      "version": 3,
      "changeset": 83854369,
      "user": "b-jazz-bot",
      "uid": 9451067,
      "center": {
        "lat": -43.2223407,
        "lon": 171.4574889
      },
      "nodes": [],
      "tags": {
        "access": "yes",
        "email": "harpercamping@trustpower.co.nz",
        "fee": "no",
        "name": "Trustpower Campsite",
        "operator": "Trustpower",
        "phone": "+6433185700",
        "reservation": "no",
        "tourism": "camp_site",
        "website": "https://www.lakecoleridgenz.info/harper-campsite.html"
      }
    },
    {
      "type": "way",
      "id": 820792412,
      "timestamp": "2020-06-29T01:51:59Z",
      "version": 1,
      "changeset": 87264981,
      "user": "shekk",
      "uid": 4516038,
      "center": {
        "lat": -43.1277907,
        "lon": 171.3706519
      },
      "nodes": [],
      "tags": {
        "building": "yes",
        "tourism": "wilderness_hut"
      }
    },
    {
      "type": "way",
      "id": 891751351,
      "timestamp": "2021-01-04T03:23:30Z",
      "version": 1,
      "changeset": 96872566,
      "user": "kylenz",
      "uid": 10140394,
      "center": {
        "lat": -43.5625205,
        "lon": 171.5302685
      },
      "nodes": [],
      "tags": {
        "amenity": "shelter",
        "building": "yes",
        "shelter_type": "picnic_shelter"
      }
    },
    {
      "type": "way",
      "id": 921111275,
      "timestamp": "2021-03-23T00:56:16Z",
      "version": 1,
      "changeset": 101534616,
      "user": "petenz",
      "uid": 38928,
      "center": {
        "lat": -43.1354573,
        "lon": 170.9132131
      },
      "nodes": [],
      "tags": {
        "building": "yes",
        "capacity": "6",
        "name": "Ivory Lake Hut",
        "operator": "Department of Conservation",
        "ref:doc": "100054670",
        "tourism": "wilderness_hut"
      }
    },
    {
      "type": "way",
      "id": 971269075,
      "timestamp": "2021-08-08T04:51:42Z",
      "version": 1,
      "changeset": 109331087,
      "user": "petenz",
      "uid": 38928,
      "center": {
        "lat": -43.0870218,
        "lon": 171.4334108
      },
      "nodes": [],
      "tags": {
        "building": "yes",
        "capacity": "2",
        "name": "Back Basins Hide",
        "operator": "Department of Conservation",
        "ref:doc": "100061447",
        "tourism": "wilderness_hut",
        "website": "https://www.doc.govt.nz/parks-and-recreation/places-to-go/canterbury/places/craigieburn-forest-park/things-to-do/huts/back-basins-hide/"
      }
    },
    {
      "type": "way",
      "id": 971270241,
      "timestamp": "2021-08-08T05:06:50Z",
      "version": 1,
      "changeset": 109331248,
      "user": "petenz",
      "uid": 38928,
      "center": {
        "lat": -43.1014926,
        "lon": 171.4787072
      },
      "nodes": [],
      "tags": {
        "building": "yes",
        "capacity": "6",
        "fee": "yes",
        "fireplace": "yes",
        "name": "Basins Hut",
        "operator": "Department of Conservation",
        "ref:doc": "100034518",
        "tourism": "wilderness_hut",
        "website": "https://www.doc.govt.nz/parks-and-recreation/places-to-go/canterbury/places/craigieburn-forest-park/things-to-do/huts/basins-hut/"
      }
    },
    {
      "type": "way",
      "id": 971270823,
      "timestamp": "2021-08-08T05:10:14Z",
      "version": 1,
      "changeset": 109331276,
      "user": "petenz",
      "uid": 38928,
      "center": {
        "lat": -43.0998805,
        "lon": 171.4802496
      },
      "nodes": [],
      "tags": {
        "building": "yes",
        "capacity": "5",
        "fee": "no",
        "fireplace": "yes",
        "name": "Old Basins Hut",
        "operator": "Department of Conservation",
        "ref:doc": "100035123",
        "tourism": "wilderness_hut",
        "website": "https://www.doc.govt.nz/parks-and-recreation/places-to-go/canterbury/places/craigieburn-forest-park/things-to-do/huts/old-basins-hut/"
      }
    },
    {
      "type": "way",
      "id": 971903383,
      "timestamp": "2021-08-10T08:11:10Z",
      "version": 1,
      "changeset": 109447435,
      "user": "petenz",
      "uid": 38928,
      "center": {
        "lat": -43.5295385,
        "lon": 171.0714459
      },
      "nodes": [],
      "tags": {
        "building": "yes",
        "capacity": "8",
        "fee": "no",
        "fireplace": "yes",
        "name": "Boundary Creek Hut",
        "operator": "Department of Conservation",
        "ref:doc": "100040276",
        "tourism": "wilderness_hut",
        "website": "https://www.doc.govt.nz/parks-and-recreation/places-to-go/canterbury/places/hakatere-conservation-park/things-to-do/huts/boundary-creek-hut/"
      }
    },
    {
      "type": "way",
      "id": 972735369,
      "timestamp": "2021-08-13T04:40:59Z",
      "version": 1,
      "changeset": 109602606,
      "user": "petenz",
      "uid": 38928,
      "center": {
        "lat": -43.4956485,
        "lon": 171.2607838
      },
      "nodes": [],
      "tags": {
        "building": "yes",
        "capacity": "6",
        "fee": "no",
        "fireplace": "yes",
        "name": "Double Hut",
        "operator": "Department of Conservation",
        "ref:doc": "100030128",
        "tourism": "wilderness_hut",
        "website": "https://www.doc.govt.nz/parks-and-recreation/places-to-go/canterbury/places/hakatere-conservation-park/things-to-do/huts/double-hut/"
      }
    },
    {
      "type": "way",
      "id": 973188265,
      "timestamp": "2021-08-15T02:03:15Z",
      "version": 1,
      "changeset": 109686526,
      "user": "petenz",
      "uid": 38928,
      "center": {
        "lat": -43.1101703,
        "lon": 171.0073219
      },
      "nodes": [],
      "tags": {
        "building": "yes",
        "capacity": "7",
        "fee": "yes",
        "fireplace": "yes",
        "name": "Price Flat Hut",
        "operator": "Department of Conservation",
        "ref:doc": "100062277",
        "tourism": "wilderness_hut",
        "website": "https://www.doc.govt.nz/parks-and-recreation/places-to-go/west-coast/places/kokatahi-river-whitcombe-river-area/things-to-do/huts/price-flat-hut/"
      }
    },
    {
      "type": "way",
      "id": 974635900,
      "timestamp": "2021-08-19T11:45:45Z",
      "version": 1,
      "changeset": 109929403,
      "user": "petenz",
      "uid": 38928,
      "center": {
        "lat": -43.2685573,
        "lon": 170.9652817
      },
      "nodes": [],
      "tags": {
        "building": "yes",
        "capacity": "2",
        "fee": "no",
        "fireplace": "yes",
        "name": "Lauper Biv",
        "operator": "Department of Conservation",
        "ref:doc": "100065474",
        "tourism": "wilderness_hut",
        "website": "https://www.doc.govt.nz/parks-and-recreation/places-to-go/canterbury/places/rangitata-and-rakaia-rivers-area/things-to-do/huts/lauper-biv/"
      }
    },
    {
      "type": "way",
      "id": 974924504,
      "timestamp": "2021-08-20T08:18:48Z",
      "version": 1,
      "changeset": 109972403,
      "user": "petenz",
      "uid": 38928,
      "center": {
        "lat": -43.5358264,
        "lon": 171.2544113
      },
      "nodes": [],
      "tags": {
        "building": "yes",
        "capacity": "6",
        "fee": "no",
        "fireplace": "yes",
        "name": "Manuka Hut",
        "operator": "Department of Conservation",
        "ref:doc": "100030127",
        "tourism": "wilderness_hut",
        "water": "stream",
        "website": "https://www.doc.govt.nz/parks-and-recreation/places-to-go/canterbury/places/hakatere-conservation-park/things-to-do/huts/manuka-hut/"
      }
    },
    {
      "type": "way",
      "id": 975149874,
      "timestamp": "2021-08-21T05:14:08Z",
      "version": 1,
      "changeset": 110012451,
      "user": "petenz",
      "uid": 38928,
      "center": {
        "lat": -43.180582,
        "lon": 170.9824316
      },
      "nodes": [],
      "tags": {
        "building": "yes",
        "capacity": "6",
        "fee": "yes",
        "fireplace": "yes",
        "name": "Neave Hut",
        "operator": "Department of Conservation",
        "ref:doc": "100044541",
        "tourism": "wilderness_hut",
        "website": "https://www.doc.govt.nz/parks-and-recreation/places-to-go/west-coast/places/kokatahi-river-whitcombe-river-area/things-to-do/huts/neave-hut/"
      }
    },
    {
      "type": "way",
      "id": 975157891,
      "timestamp": "2021-08-21T06:16:08Z",
      "version": 1,
      "changeset": 110013510,
      "user": "petenz",
      "uid": 38928,
      "center": {
        "lat": -43.4909641,
        "lon": 170.9708116
      },
      "nodes": [],
      "tags": {
        "building": "yes",
        "capacity": "10",
        "fee": "no",
        "fireplace": "yes",
        "name": "Potts Hut",
        "operator": "Department of Conservation",
        "ref:doc": "100040275",
        "tourism": "wilderness_hut",
        "website": "https://www.doc.govt.nz/parks-and-recreation/places-to-go/canterbury/places/hakatere-conservation-park/things-to-do/huts/potts-hut/"
      }
    },
    {
      "type": "way",
      "id": 975226950,
      "timestamp": "2021-08-21T12:35:44Z",
      "version": 1,
      "changeset": 110027046,
      "user": "petenz",
      "uid": 38928,
      "center": {
        "lat": -43.2798229,
        "lon": 170.964139
      },
      "nodes": [],
      "tags": {
        "building": "yes",
        "capacity": "6",
        "fee": "no",
        "fireplace": "yes",
        "name": "Reischek Hut",
        "operator": "New Zealand Deerstalkers Association",
        "ref:doc": "100062415",
        "tourism": "wilderness_hut",
        "website": "https://www.doc.govt.nz/parks-and-recreation/places-to-go/canterbury/places/rangitata-and-rakaia-rivers-area/things-to-do/huts/reischek-hut/"
      }
    },
    {
      "type": "way",
      "id": 976522829,
      "timestamp": "2021-08-26T03:00:17Z",
      "version": 1,
      "changeset": 110257958,
      "user": "petenz",
      "uid": 38928,
      "center": {
        "lat": -43.1568106,
        "lon": 170.9897518
      },
      "nodes": [],
      "tags": {
        "building": "yes",
        "name": "Wilkinson Hut",
        "operator": "Department of Conservation",
        "ref:doc": "100059506",
        "tourism": "wilderness_hut"
      }
    }
  ]
}