{
  "osm3s": {
    "timestamp_osm_date": "2021-07-03T23:59:59Z",
    "timestamp_osm_base": "2021-07-04T05:38:27Z",
    "copyright": "The data included in this document is from www.openstreetmap.org. The data is made available under ODbL."
  },
  "elements": [
    {
      "type": "node",
      "id": 322000557,
      "lat": -45.0497399,
      "lon": 169.7276745,
      "timestamp": "2010-12-23T09:57:28Z",
      "version": 2,
      "changeset": 6743599,
      "user": "locke",
      "uid": 65032,
      "tags": {
        "amenity": "shelter",
        "name": "Poolburn"
      }
    },
    {
      "type": "node",
      "id": 322000558,
      "lat": -45.06354,
      "lon": 169.7574181,
      "timestamp": "2020-09-27T22:39:29Z",
      "version": 4,
      "changeset": 91599420,
      "user": "AlwynWellington",
      "uid": 567640,
      "tags": {
        "amenity": "shelter"
      }
    },
    {
      "type": "node",
      "id": 322000559,
      "lat": -45.0408221,
      "lon": 169.8038037,
      "timestamp": "2010-12-23T16:18:35Z",
      "version": 3,
      "changeset": 6746991,
      "user": "locke",
      "uid": 65032,
      "tags": {
        "amenity": "shelter"
      }
    },
    {
      "type": "node",
      "id": 322000560,
      "lat": -45.0068295,
      "lon": 169.9128415,
      "timestamp": "2021-06-10T04:38:08Z",
      "version": 6,
      "changeset": 106125961,
      "user": "AlwynWellington",
      "uid": 567640,
      "tags": {
        "addr:city": "Oturehua",
        "addr:housenumber": "3353",
        "addr:street": "Ida Valley - Omakau Road",
        "name": "T Gilchrist's Store & Old Shop B&B",
        "opening_hours": "Mo-Fr 07:30-17:00; Sa 08:00-16:00; Su 10:00-16:00",
        "phone": "+64 3 444 5808",
        "shop": "convenience"
      }
    },
    {
      "type": "node",
      "id": 354653289,
      "lat": -45.0256262,
      "lon": 170.1478229,
      "timestamp": "2019-06-06T04:24:51Z",
      "version": 6,
      "changeset": 70974505,
      "user": "bjankuloski",
      "uid": 158784,
      "tags": {
        "alt_name:mk": "Нејзби",
        "is_in:country": "New Zealand",
        "name": "Naseby",
        "name:mk": "Незби",
        "place": "village",
        "population": "120",
        "wikidata": "Q1965607"
      }
    },
    {
      "type": "node",
      "id": 354673450,
      "lat": -45.0060299,
      "lon": 169.9119789,
      "timestamp": "2018-09-27T03:39:42Z",
      "version": 5,
      "changeset": 62963698,
      "user": "lcmortensen",
      "uid": 341519,
      "tags": {
        "name": "Oturehua",
        "name:mi": "Ōtūrēhua",
        "place": "hamlet",
        "wikidata": "Q15264685"
      }
    },
    {
      "type": "node",
      "id": 1225197297,
      "lat": -44.6744668,
      "lon": 169.8083892,
      "timestamp": "2018-06-23T19:50:35Z",
      "version": 4,
      "changeset": 60107869,
      "user": "gaddman",
      "uid": 365177,
      "tags": {
        "LINZ:layer": "descrip_text",
        "LINZ:point_size": "6.0",
        "LINZ:size": "4.1",
        "LINZ:source_version": "V16",
        "LINZ:text_placement_justification": "1.0",
        "LINZ:x_offset": "-2.5826",
        "LINZ:y_offset": "-1.0",
        "attribution": "http://wiki.osm.org/wiki/Attribution#LINZ",
        "name": "Top Hut",
        "ref:doc": "100038193",
        "source_ref": "http://www.linz.govt.nz/topography/topo-maps/",
        "tourism": "alpine_hut"
      }
    },
    {
      "type": "node",
      "id": 1225213133,
      "lat": -44.6730612,
      "lon": 169.9895811,
      "timestamp": "2019-01-29T09:12:17Z",
      "version": 2,
      "changeset": 66731701,
      "user": "gaddman",
      "uid": 365177,
      "tags": {
        "LINZ:layer": "descrip_text",
        "LINZ:point_size": "6.0",
        "LINZ:size": "4.1",
        "LINZ:source_version": "V16",
        "LINZ:text_placement_justification": "1.0",
        "LINZ:x_offset": "-2.40542",
        "LINZ:y_offset": "-0.41181",
        "attribution": "http://wiki.osm.org/wiki/Attribution#LINZ",
        "name": "Otamatapaio Hut",
        "operator": "Department of Conservation",
        "ref:doc": "100039154",
        "source_ref": "http://www.linz.govt.nz/topography/topo-maps/",
        "tourism": "alpine_hut"
      }
    },
    {
      "type": "node",
      "id": 1225246189,
      "lat": -44.8496046,
      "lon": 170.116783,
      "timestamp": "2019-02-06T01:09:53Z",
      "version": 2,
      "changeset": 66949396,
      "user": "gaddman",
      "uid": 365177,
      "tags": {
        "LINZ:layer": "descrip_text",
        "LINZ:point_size": "6.0",
        "LINZ:size": "4.1",
        "LINZ:source_version": "V16",
        "LINZ:text_placement_justification": "1.0",
        "LINZ:x_offset": "-1.14924",
        "LINZ:y_offset": "-1.72226",
        "attribution": "http://wiki.osm.org/wiki/Attribution#LINZ",
        "name": "Wire Yards Hut",
        "operator": "Department of Conservation",
        "ref:doc": "100082266",
        "source_ref": "http://www.linz.govt.nz/topography/topo-maps/",
        "tourism": "alpine_hut"
      }
    },
    {
      "type": "node",
      "id": 1225315757,
      "lat": -44.7287438,
      "lon": 169.8548181,
      "timestamp": "2018-06-23T19:50:37Z",
      "version": 4,
      "changeset": 60107869,
      "user": "gaddman",
      "uid": 365177,
      "tags": {
        "LINZ:layer": "descrip_text",
        "LINZ:point_size": "6.0",
        "LINZ:size": "4.1",
        "LINZ:source_version": "V16",
        "LINZ:text_placement_justification": "1.0",
        "LINZ:x_offset": "-2.73902",
        "LINZ:y_offset": "0.059058",
        "attribution": "http://wiki.osm.org/wiki/Attribution#LINZ",
        "name": "Boundary Creek Hut",
        "ref:doc": "100038217",
        "source_ref": "http://www.linz.govt.nz/topography/topo-maps/",
        "tourism": "alpine_hut"
      }
    },
    {
      "type": "node",
      "id": 1968146117,
      "lat": -45.0511876,
      "lon": 169.6719184,
      "timestamp": "2018-09-27T03:39:42Z",
      "version": 3,
      "changeset": 62963698,
      "user": "lcmortensen",
      "uid": 341519,
      "tags": {
        "name": "Lauder",
        "place": "hamlet",
        "wikidata": "Q19875753"
      }
    },
    {
      "type": "node",
      "id": 1968429462,
      "lat": -44.7757267,
      "lon": 169.8901858,
      "timestamp": "2018-06-02T04:04:32Z",
      "version": 4,
      "changeset": 59476595,
      "user": "gaddman",
      "uid": 365177,
      "tags": {
        "caravans": "yes",
        "name": "Homestead basic campsite",
        "operator": "Department of Conservation",
        "tents": "yes",
        "tourism": "camp_site"
      }
    },
    {
      "type": "node",
      "id": 1968451070,
      "lat": -44.7004849,
      "lon": 169.4946053,
      "timestamp": "2018-06-02T04:04:32Z",
      "version": 6,
      "changeset": 59476595,
      "user": "gaddman",
      "uid": 365177,
      "tags": {
        "fee": "no",
        "name": "Lindis Pass Historic Hotel basic campsite",
        "operator": "Department of Conservation",
        "tourism": "camp_site"
      }
    },
    {
      "type": "node",
      "id": 2280494249,
      "lat": -44.8714679,
      "lon": 169.8104195,
      "timestamp": "2019-06-06T09:19:57Z",
      "version": 4,
      "changeset": 70982480,
      "user": "bjankuloski",
      "uid": 158784,
      "tags": {
        "name": "Saint Bathans",
        "name:mk": "Сент Батанс",
        "place": "hamlet",
        "wikidata": "Q7401029"
      }
    },
    {
      "type": "node",
      "id": 2441119093,
      "lat": -44.6640139,
      "lon": 169.8203398,
      "timestamp": "2019-07-06T08:51:45Z",
      "version": 2,
      "changeset": 71954341,
      "user": "andrew_dc",
      "uid": 1833351,
      "tags": {
        "mountain_pass": "yes",
        "name": "Omarama Saddle",
        "name:mi": "Ōmarama",
        "natural": "saddle"
      }
    },
    {
      "type": "node",
      "id": 4193022589,
      "lat": -44.7336274,
      "lon": 169.4678225,
      "timestamp": "2021-03-14T09:16:19Z",
      "version": 3,
      "changeset": 100981000,
      "user": "lcmortensen",
      "uid": 341519,
      "tags": {
        "ele": "1226",
        "name": "Lindis Peak",
        "natural": "peak",
        "source": "LINZ_NZ_Topo50_Gridless_Maps",
        "wikidata": "Q31688049"
      }
    },
    {
      "type": "node",
      "id": 4893656850,
      "lat": -44.8673972,
      "lon": 169.7993839,
      "timestamp": "2017-06-03T11:45:10Z",
      "version": 1,
      "changeset": 49218483,
      "user": "Nico_P",
      "uid": 1875934,
      "tags": {
        "name": "St Bathans Domain camp site",
        "tourism": "camp_site"
      }
    },
    {
      "type": "node",
      "id": 4932286445,
      "lat": -44.6062675,
      "lon": 169.685208,
      "timestamp": "2021-03-14T09:16:17Z",
      "version": 2,
      "changeset": 100981000,
      "user": "lcmortensen",
      "uid": 341519,
      "tags": {
        "ele": "1826",
        "name": "Old Man Peak",
        "natural": "peak",
        "source": "LINZ_NZ_Topo50_Gridless_Maps",
        "wikidata": "Q31679971"
      }
    },
    {
      "type": "node",
      "id": 5054891281,
      "lat": -44.9958978,
      "lon": 169.7464836,
      "timestamp": "2018-11-02T07:46:39Z",
      "version": 3,
      "changeset": 64103713,
      "user": "lcmortensen",
      "uid": 341519,
      "tags": {
        "name": "Becks",
        "place": "hamlet",
        "wikidata": "Q19875519"
      }
    },
    {
      "type": "node",
      "id": 5207434962,
      "lat": -44.7100017,
      "lon": 169.5025195,
      "timestamp": "2017-11-03T00:27:47Z",
      "version": 1,
      "changeset": 53466322,
      "user": "Rudy355",
      "uid": 142831,
      "tags": {
        "description": "Free campground near a river with toilets.",
        "name": "Free campground",
        "tourism": "camp_site"
      }
    },
    {
      "type": "node",
      "id": 6240909320,
      "lat": -44.8454258,
      "lon": 169.6600917,
      "timestamp": "2019-01-28T04:23:36Z",
      "version": 1,
      "changeset": 66693352,
      "user": "gaddman",
      "uid": 365177,
      "tags": {
        "name": "Lauder Basin Hut",
        "operator": "Department of Conservation",
        "ref:doc": "100059692",
        "tourism": "wilderness_hut"
      }
    },
    {
      "type": "node",
      "id": 7555122590,
      "lat": -45.0656014,
      "lon": 170.0391103,
      "timestamp": "2020-05-24T23:22:42Z",
      "version": 1,
      "changeset": 85697148,
      "user": "komin43",
      "uid": 8590187,
      "tags": {
        "amenity": "shelter"
      }
    },
    {
      "type": "node",
      "id": 7748314657,
      "lat": -44.905511,
      "lon": 169.7469878,
      "timestamp": "2020-07-26T05:38:44Z",
      "version": 1,
      "changeset": 88511333,
      "user": "andrew_dc",
      "uid": 1833351,
      "tags": {
        "name": "Cambrians",
        "place": "hamlet"
      }
    },
    {
      "type": "node",
      "id": 7956164606,
      "lat": -44.9640917,
      "lon": 169.4686378,
      "timestamp": "2020-09-29T23:40:08Z",
      "version": 2,
      "changeset": 91732814,
      "user": "AlwynWellington",
      "uid": 567640,
      "tags": {
        "direction": "north-west",
        "ele": "910",
        "name": "Thomsons Saddle",
        "natural": "saddle"
      }
    },
    {
      "type": "node",
      "id": 7956612169,
      "lat": -44.8401305,
      "lon": 169.7183998,
      "timestamp": "2021-03-14T09:16:21Z",
      "version": 2,
      "changeset": 100981000,
      "user": "lcmortensen",
      "uid": 341519,
      "tags": {
        "ele": "1569",
        "name": "Dunstan Peak",
        "natural": "peak",
        "wikidata": "Q31700268"
      }
    },
    {
      "type": "node",
      "id": 7956633013,
      "lat": -44.911415,
      "lon": 169.6283848,
      "timestamp": "2021-03-14T09:16:14Z",
      "version": 2,
      "changeset": 100981000,
      "user": "lcmortensen",
      "uid": 341519,
      "tags": {
        "ele": "1430",
        "name": "Rocky Peak",
        "natural": "peak",
        "wikidata": "Q31670509"
      }
    },
    {
      "type": "way",
      "id": 637877331,
      "timestamp": "2018-10-25T13:16:31Z",
      "version": 1,
      "changeset": 63867151,
      "user": "locke",
      "uid": 65032,
      "center": {
        "lat": -45.0211393,
        "lon": 170.1413725
      },
      "nodes": [],
      "tags": {
        "addr:housenumber": "8",
        "addr:street": "Swimming Dam Road",
        "cabins": "yes",
        "caravans": "yes",
        "dryer": "yes",
        "internet_access": "no",
        "kitchen": "yes",
        "name": "Larchview Holiday Park",
        "payment:cash": "yes",
        "payment:mastercard": "yes",
        "payment:visa": "yes",
        "phone": "+64 3 444 9904",
        "power_supply": "yes",
        "sanitary_dump_station": "yes",
        "tents": "yes",
        "tourism": "camp_site",
        "washing_machine": "yes"
      }
    }
  ]
}