{
  "osm3s": {
    "timestamp_osm_date": "2021-10-09T23:59:59Z",
    "timestamp_osm_base": "2021-10-10T06:14:14Z",
    "copyright": "The data included in this document is from www.openstreetmap.org. The data is made available under ODbL."
  },
  "elements": [
    {
      "type": "node",
      "id": 174880741,
      "lat": -45.0371308,
      "lon": 169.1972881,
      "timestamp": "2020-10-06T08:52:48Z",
      "version": 10,
      "changeset": 92033798,
      "user": "lcmortensen",
      "uid": 341519,
      "tags": {
        "name": "Cromwell",
        "name:mi": "Tirau",
        "name:mk": "Кромвел",
        "place": "town",
        "population": "6140",
        "source:population": "Statistics NZ 2019",
        "wikidata": "Q973355",
        "wikipedia": "en:Cromwell, New Zealand"
      }
    },
    {
      "type": "node",
      "id": 175803613,
      "lat": -44.6941691,
      "lon": 169.1364637,
      "timestamp": "2020-10-06T08:52:48Z",
      "version": 15,
      "changeset": 92033798,
      "user": "lcmortensen",
      "uid": 341519,
      "tags": {
        "name": "Wanaka",
        "name:etymology": "Lake Wānaka",
        "name:etymology:wikidata": "Q1192728",
        "name:ja": "ワナカ",
        "name:mi": "Wānaka",
        "name:mk": "Ванака",
        "official_name": "Wānaka",
        "place": "town",
        "population": "10950",
        "source:population": "Statistics NZ 2019",
        "wikidata": "Q930344"
      }
    },
    {
      "type": "node",
      "id": 175803833,
      "lat": -44.673937,
      "lon": 169.0150554,
      "timestamp": "2019-02-19T04:27:49Z",
      "version": 4,
      "changeset": 67338973,
      "user": "ParagonPrime",
      "uid": 1378289,
      "tags": {
        "name": "Glendhu Bay",
        "place": "hamlet",
        "wikidata": "Q5568414",
        "wikipedia:en": "Glendhu Bay"
      }
    },
    {
      "type": "node",
      "id": 176718610,
      "lat": -44.6126444,
      "lon": 169.2639538,
      "timestamp": "2020-10-03T03:38:16Z",
      "version": 14,
      "changeset": 91889545,
      "user": "aotearoa86",
      "uid": 10282322,
      "tags": {
        "name": "Lake Hawea",
        "name:en": "Lake Hawea",
        "name:mi": "Hāwea",
        "name:mk": "Хавеја",
        "official_name": "Lake Hāwea",
        "place": "town",
        "population": "1460",
        "source:population": "Statistics NZ 2019",
        "wikidata": "Q1591627",
        "wikipedia": "en:Lake Hawea (town)"
      }
    },
    {
      "type": "node",
      "id": 666995206,
      "lat": -44.9405627,
      "lon": 168.8350761,
      "timestamp": "2020-10-06T08:52:48Z",
      "version": 8,
      "changeset": 92033798,
      "user": "lcmortensen",
      "uid": 341519,
      "tags": {
        "name": "Arrowtown",
        "name:ja": "アロータウン",
        "name:mk": "Ероутаун",
        "place": "town",
        "population": "2990",
        "source:population": "Statistics NZ 2019",
        "wikidata": "Q703016"
      }
    },
    {
      "type": "node",
      "id": 776038675,
      "lat": -44.9384106,
      "lon": 168.8324841,
      "timestamp": "2020-04-05T03:18:55Z",
      "version": 5,
      "changeset": 83087233,
      "user": "Sarvihepo",
      "uid": 2057798,
      "tags": {
        "addr:housenumber": "39",
        "addr:street": "Buckingham St.",
        "name": "Night'n Day Arrowtown",
        "opening_hours": "Mo-Su 07:00-23:00",
        "shop": "convenience",
        "website": "www.nightnday.co.nz"
      }
    },
    {
      "type": "node",
      "id": 911058517,
      "lat": -44.6943118,
      "lon": 169.0491111,
      "timestamp": "2019-05-03T04:33:36Z",
      "version": 3,
      "changeset": 69826768,
      "user": "pizzaiolo",
      "uid": 1772368,
      "tags": {
        "ele": "1578",
        "name": "Roys Peak",
        "natural": "peak",
        "tourism": "viewpoint",
        "wikidata": "Q2171214"
      }
    },
    {
      "type": "node",
      "id": 911063549,
      "lat": -44.7139414,
      "lon": 169.053039,
      "timestamp": "2020-12-07T00:12:54Z",
      "version": 3,
      "changeset": 95385074,
      "user": "pizzaiolo",
      "uid": 1772368,
      "tags": {
        "ele": "1630",
        "name": "Mount Alpha",
        "natural": "peak",
        "wikidata": "Q31658776"
      }
    },
    {
      "type": "node",
      "id": 1025351484,
      "lat": -44.9920383,
      "lon": 168.9387437,
      "timestamp": "2021-06-07T03:34:53Z",
      "version": 5,
      "changeset": 105939121,
      "user": "more-ron",
      "uid": 277782,
      "tags": {
        "ele": "1076",
        "mountain_pass": "yes",
        "name": "Crown Saddle",
        "natural": "saddle"
      }
    },
    {
      "type": "node",
      "id": 1225187678,
      "lat": -44.6860691,
      "lon": 168.8423366,
      "timestamp": "2021-09-24T06:18:42Z",
      "version": 3,
      "changeset": 111629105,
      "user": "kylenz_linz",
      "uid": 8389777,
      "tags": {
        "source": "LINZ",
        "tourism": "wilderness_hut"
      }
    },
    {
      "type": "node",
      "id": 1225292963,
      "lat": -44.8888098,
      "lon": 168.8303351,
      "timestamp": "2021-09-24T06:18:42Z",
      "version": 4,
      "changeset": 111629105,
      "user": "kylenz_linz",
      "uid": 8389777,
      "tags": {
        "name": "Derelict hut",
        "source": "LINZ",
        "tourism": "wilderness_hut"
      }
    },
    {
      "type": "node",
      "id": 1225293149,
      "lat": -45.0864889,
      "lon": 168.8761333,
      "timestamp": "2021-09-19T07:48:11Z",
      "version": 3,
      "changeset": 111397426,
      "user": "kylenz_linz",
      "uid": 8389777,
      "tags": {
        "name": "Racemans Hut",
        "operator": "Department of Conservation",
        "ref:doc": "100043141",
        "source": "LINZ",
        "tourism": "alpine_hut"
      }
    },
    {
      "type": "node",
      "id": 1576167058,
      "lat": -44.6439221,
      "lon": 169.1804411,
      "timestamp": "2021-03-14T09:16:23Z",
      "version": 3,
      "changeset": 100981000,
      "user": "lcmortensen",
      "uid": 341519,
      "tags": {
        "ele": "561",
        "name": "Mount Brown",
        "natural": "peak",
        "wikidata": "Q31706229"
      }
    },
    {
      "type": "node",
      "id": 1635030571,
      "lat": -45.0759835,
      "lon": 168.7531575,
      "timestamp": "2020-10-04T03:51:20Z",
      "version": 6,
      "changeset": 91919442,
      "user": "user_5359",
      "uid": 5359,
      "tags": {
        "name": "Jacks Point",
        "name:mk": "Џекс Поинт",
        "place": "village",
        "population": "7000",
        "wikidata": "Q20963464",
        "wikipedia": "en:Jack's Point"
      }
    },
    {
      "type": "node",
      "id": 1682185773,
      "lat": -44.9160152,
      "lon": 169.0563793,
      "timestamp": "2018-06-23T19:50:41Z",
      "version": 3,
      "changeset": 60107869,
      "user": "gaddman",
      "uid": 365177,
      "tags": {
        "name": "Meg Hut",
        "operator": "Department of Conservation",
        "ref:doc": "100060707",
        "tourism": "alpine_hut"
      }
    },
    {
      "type": "node",
      "id": 1682185785,
      "lat": -44.9261661,
      "lon": 169.043407,
      "timestamp": "2012-03-19T20:23:16Z",
      "version": 1,
      "changeset": 11034413,
      "user": "Andrew Findlay",
      "uid": 1703,
      "tags": {
        "name": "Miners Hut",
        "operator": "Private",
        "tourism": "alpine_hut"
      }
    },
    {
      "type": "node",
      "id": 1807155459,
      "lat": -44.9701266,
      "lon": 168.8244098,
      "timestamp": "2018-11-02T07:46:38Z",
      "version": 3,
      "changeset": 64103713,
      "user": "lcmortensen",
      "uid": 341519,
      "tags": {
        "name": "Lake Hayes",
        "place": "hamlet"
      }
    },
    {
      "type": "node",
      "id": 1967262717,
      "lat": -44.7456707,
      "lon": 169.2698339,
      "timestamp": "2019-06-06T03:48:56Z",
      "version": 4,
      "changeset": 70973736,
      "user": "bjankuloski",
      "uid": 158784,
      "tags": {
        "name": "Luggate",
        "name:mk": "Лагејт",
        "place": "village",
        "wikidata": "Q6699788"
      }
    },
    {
      "type": "node",
      "id": 1982710337,
      "lat": -45.088368,
      "lon": 169.1600101,
      "timestamp": "2021-04-08T10:43:56Z",
      "version": 2,
      "changeset": 102555771,
      "user": "lcmortensen",
      "uid": 341519,
      "tags": {
        "name": "Bannockburn",
        "place": "village",
        "wikidata": "Q15196557"
      }
    },
    {
      "type": "node",
      "id": 2187998436,
      "lat": -44.9769431,
      "lon": 169.2418048,
      "timestamp": "2017-05-27T11:30:08Z",
      "version": 3,
      "changeset": 49022565,
      "user": "Rudy355",
      "uid": 142831,
      "tags": {
        "name": "Pisa Moorings",
        "place": "village"
      }
    },
    {
      "type": "node",
      "id": 2255938452,
      "lat": -44.865337,
      "lon": 168.8191549,
      "timestamp": "2020-04-01T09:16:21Z",
      "version": 6,
      "changeset": 82913418,
      "user": "Sarvihepo",
      "uid": 2057798,
      "tags": {
        "access": "yes",
        "caravans": "yes",
        "drinking_water": "stream",
        "fee": "no",
        "name": "Macetown basic campsite",
        "operator": "Department of Conservation",
        "reservation": "no",
        "tents": "yes",
        "tourism": "camp_site",
        "website": "https://www.doc.govt.nz/parks-and-recreation/places-to-go/otago/places/macetown-historic-reserve/things-to-do/macetown-campsite/"
      }
    },
    {
      "type": "node",
      "id": 2507532322,
      "lat": -44.6693244,
      "lon": 169.1593384,
      "timestamp": "2013-10-24T18:51:50Z",
      "version": 1,
      "changeset": 18524817,
      "user": "werner2101",
      "uid": 110263,
      "tags": {
        "source": "OpenStreetBugs",
        "tourism": "camp_site"
      }
    },
    {
      "type": "node",
      "id": 2614104493,
      "lat": -44.9571005,
      "lon": 169.1207043,
      "timestamp": "2018-06-23T19:50:48Z",
      "version": 5,
      "changeset": 60107869,
      "user": "gaddman",
      "uid": 365177,
      "tags": {
        "beds": "6",
        "internet_access": "no",
        "name": "Deep Creek Hut",
        "operator": "Department of Conservation",
        "ref:doc": "100040541",
        "rooms": "1",
        "tourism": "alpine_hut"
      }
    },
    {
      "type": "node",
      "id": 2655293563,
      "lat": -44.7316272,
      "lon": 169.1779085,
      "timestamp": "2021-03-14T09:16:25Z",
      "version": 2,
      "changeset": 100981000,
      "user": "lcmortensen",
      "uid": 341519,
      "tags": {
        "ele": "596",
        "name": "Mount Barker",
        "natural": "peak",
        "wikidata": "Q31709105"
      }
    },
    {
      "type": "node",
      "id": 2672378035,
      "lat": -44.6660036,
      "lon": 169.1528051,
      "timestamp": "2017-06-20T09:51:52Z",
      "version": 4,
      "changeset": 49688614,
      "user": "Robert Ancell",
      "uid": 1430787,
      "tags": {
        "addr:housenumber": "197",
        "addr:street": "Outlet Road",
        "fee": "yes",
        "name": "Lake Outlet Holiday Park",
        "phone": "+64 3 443 7478",
        "sanitary_dump_station": "yes",
        "tourism": "camp_site"
      }
    },
    {
      "type": "node",
      "id": 2672429912,
      "lat": -44.6832112,
      "lon": 169.1890769,
      "timestamp": "2019-06-07T11:35:34Z",
      "version": 3,
      "changeset": 71020497,
      "user": "jambamkin",
      "uid": 53626,
      "tags": {
        "brand": "Four Square",
        "brand:wikidata": "Q5475558",
        "brand:wikipedia": "en:Four Square (supermarket)",
        "name": "Four Square",
        "opening_hours": "Mo-Su 07:00-20:00",
        "shop": "convenience"
      }
    },
    {
      "type": "node",
      "id": 2782566042,
      "lat": -44.8325138,
      "lon": 169.4259579,
      "timestamp": "2018-09-27T03:39:34Z",
      "version": 5,
      "changeset": 62963698,
      "user": "lcmortensen",
      "uid": 341519,
      "tags": {
        "name": "Tarras",
        "name:ja": "タラス",
        "place": "hamlet",
        "wikidata": "Q2394602"
      }
    },
    {
      "type": "node",
      "id": 2884393180,
      "lat": -45.0668364,
      "lon": 169.3536374,
      "timestamp": "2021-03-14T09:16:06Z",
      "version": 4,
      "changeset": 100981000,
      "user": "lcmortensen",
      "uid": 341519,
      "tags": {
        "ele": "1647",
        "name": "Leaning Rock / Haehaeata",
        "name:en": "Leaning Rock",
        "name:mi": "Haehaeata",
        "natural": "peak",
        "wikidata": "Q30508450"
      }
    },
    {
      "type": "node",
      "id": 2884394904,
      "lat": -45.0047555,
      "lon": 169.3854738,
      "timestamp": "2021-03-14T09:16:07Z",
      "version": 4,
      "changeset": 100981000,
      "user": "lcmortensen",
      "uid": 341519,
      "tags": {
        "ele": "1509",
        "name": "Mount Āpiti",
        "name:mi": "Āpiti",
        "natural": "peak",
        "wikidata": "Q30509458"
      }
    },
    {
      "type": "node",
      "id": 3599928090,
      "lat": -44.9912125,
      "lon": 168.8261704,
      "timestamp": "2021-03-14T09:16:17Z",
      "version": 2,
      "changeset": 100981000,
      "user": "lcmortensen",
      "uid": 341519,
      "tags": {
        "ele": "750",
        "name": "Morven Hill",
        "natural": "peak",
        "wikidata": "Q31682677"
      }
    },
    {
      "type": "node",
      "id": 3599928091,
      "lat": -44.9841394,
      "lon": 168.7826649,
      "timestamp": "2021-03-14T09:16:14Z",
      "version": 3,
      "changeset": 100981000,
      "user": "lcmortensen",
      "uid": 341519,
      "tags": {
        "ele": "625",
        "name": "Slope Hill",
        "natural": "peak",
        "wikidata": "Q31667776"
      }
    },
    {
      "type": "node",
      "id": 3907751243,
      "lat": -44.5945048,
      "lon": 169.3151074,
      "timestamp": "2019-05-10T13:23:22Z",
      "version": 3,
      "changeset": 70109805,
      "user": "Ben Arnold",
      "uid": 244260,
      "tags": {
        "name": "John Creek",
        "place": "hamlet",
        "population": "30"
      }
    },
    {
      "type": "node",
      "id": 4396809338,
      "lat": -44.7478753,
      "lon": 169.2664017,
      "timestamp": "2016-09-11T22:50:03Z",
      "version": 1,
      "changeset": 42088959,
      "user": "rauberdaniel",
      "uid": 2982879,
      "tags": {
        "fee": "yes",
        "internet_access": "no",
        "name": "Luggate Cricket Club Camping Ground",
        "payment:coins": "yes",
        "payment:notes": "yes",
        "sanitary_dump_station": "yes",
        "sanitary_dump_station:fee": "yes",
        "shower": "yes",
        "toilets": "yes",
        "tourism": "camp_site"
      }
    },
    {
      "type": "node",
      "id": 4452515191,
      "lat": -45.0570424,
      "lon": 169.1521793,
      "timestamp": "2016-10-17T22:35:37Z",
      "version": 1,
      "changeset": 42971461,
      "user": "leep9",
      "uid": 3977822,
      "tags": {
        "amenity": "drinking_water",
        "name:en": "Fresh water"
      }
    },
    {
      "type": "node",
      "id": 4483966191,
      "lat": -44.6936902,
      "lon": 169.1373015,
      "timestamp": "2017-06-11T04:30:22Z",
      "version": 3,
      "changeset": 49433621,
      "user": "wannamap",
      "uid": 2654149,
      "tags": {
        "name": "Four Square",
        "shop": "supermarket"
      }
    },
    {
      "type": "node",
      "id": 4587671390,
      "lat": -44.6926855,
      "lon": 169.1356408,
      "timestamp": "2018-11-02T08:14:27Z",
      "version": 2,
      "changeset": 64104291,
      "user": "wannamap",
      "uid": 2654149,
      "tags": {
        "intermittent": "no",
        "natural": "spring"
      }
    },
    {
      "type": "node",
      "id": 4601240944,
      "lat": -44.6937047,
      "lon": 169.1370837,
      "timestamp": "2017-01-11T08:14:28Z",
      "version": 1,
      "changeset": 45070580,
      "user": "rabon",
      "uid": 1972608,
      "tags": {
        "name": "Soul Food",
        "shop": "convenience"
      }
    },
    {
      "type": "node",
      "id": 4628304950,
      "lat": -44.6639983,
      "lon": 169.2790389,
      "timestamp": "2017-01-24T10:22:06Z",
      "version": 1,
      "changeset": 45427467,
      "user": "Rudy355",
      "uid": 142831,
      "tags": {
        "name": "Hawea Flat",
        "place": "village"
      }
    },
    {
      "type": "node",
      "id": 4710612189,
      "lat": -44.6726643,
      "lon": 169.2034389,
      "timestamp": "2017-02-28T21:01:07Z",
      "version": 1,
      "changeset": 46478252,
      "user": "Drogi",
      "uid": 3822114,
      "tags": {
        "name": "Albert town campground 2",
        "name:en": "Albert town campground 2",
        "tourism": "camp_site"
      }
    },
    {
      "type": "node",
      "id": 4777990322,
      "lat": -45.0371777,
      "lon": 169.1983532,
      "timestamp": "2017-04-06T03:09:24Z",
      "version": 1,
      "changeset": 47493962,
      "user": "Rovastar",
      "uid": 178626,
      "tags": {
        "amenity": "drinking_water"
      }
    },
    {
      "type": "node",
      "id": 4778064622,
      "lat": -45.048495,
      "lon": 169.2056438,
      "timestamp": "2017-04-06T05:05:55Z",
      "version": 1,
      "changeset": 47495124,
      "user": "Rovastar",
      "uid": 178626,
      "tags": {
        "name": "Townstore",
        "name:en": "Townstore",
        "shop": "convenience"
      }
    },
    {
      "type": "node",
      "id": 4867394925,
      "lat": -44.6943265,
      "lon": 169.1395466,
      "timestamp": "2017-05-21T04:36:59Z",
      "version": 1,
      "changeset": 48854873,
      "user": "Eisenspleiszer",
      "uid": 1954432,
      "tags": {
        "name": "Wanaka Minimart",
        "note": "Lebensmittel #Wanaka Minimart# 6:30 - 24:oo",
        "opening_hours": "Mo-Su,PH 6:30-24:00",
        "shop": "convenience",
        "wheelchair": "no"
      }
    },
    {
      "type": "node",
      "id": 4879717535,
      "lat": -45.0089452,
      "lon": 168.753471,
      "timestamp": "2017-05-27T06:38:59Z",
      "version": 1,
      "changeset": 49017586,
      "user": "Vollöko",
      "uid": 5480634,
      "tags": {
        "addr:street": "Glenda Drive",
        "name": "Resale Shop",
        "name:de": "Resale Shop",
        "name:en": "Resale Shop",
        "shop": "convenience"
      }
    },
    {
      "type": "node",
      "id": 4920217623,
      "lat": -44.6018334,
      "lon": 169.219706,
      "timestamp": "2021-03-14T09:16:18Z",
      "version": 3,
      "changeset": 100981000,
      "user": "lcmortensen",
      "uid": 341519,
      "tags": {
        "ele": "1315",
        "name": "Mount Maude",
        "natural": "peak",
        "source": "LINZ NZ Topo 50",
        "wikidata": "Q31685210"
      }
    },
    {
      "type": "node",
      "id": 4920330825,
      "lat": -44.5970203,
      "lon": 169.3636835,
      "timestamp": "2021-03-14T09:16:23Z",
      "version": 2,
      "changeset": 100981000,
      "user": "lcmortensen",
      "uid": 341519,
      "tags": {
        "ele": "1456",
        "name": "Breast Peak",
        "natural": "peak",
        "wikidata": "Q31706572"
      }
    },
    {
      "type": "node",
      "id": 4931895204,
      "lat": -44.7701644,
      "lon": 168.9857744,
      "timestamp": "2021-03-14T09:16:18Z",
      "version": 2,
      "changeset": 100981000,
      "user": "lcmortensen",
      "uid": 341519,
      "tags": {
        "ele": "1837",
        "name": "Middle Peak",
        "natural": "peak",
        "source": "LINZ_NZ_Topo50_Gridless_Maps",
        "wikidata": "Q31683811"
      }
    },
    {
      "type": "node",
      "id": 4931895206,
      "lat": -44.8514257,
      "lon": 168.9394258,
      "timestamp": "2018-02-19T12:00:21Z",
      "version": 2,
      "changeset": 56490025,
      "user": "lcmortensen",
      "uid": 341519,
      "tags": {
        "ele": "1936",
        "name": "Mount Cardrona",
        "natural": "peak",
        "source": "LINZ_NZ_Topo50_Gridless_Maps",
        "wikidata": "Q6919996"
      }
    },
    {
      "type": "node",
      "id": 4931895207,
      "lat": -44.8111283,
      "lon": 168.9173674,
      "timestamp": "2020-12-07T00:12:53Z",
      "version": 2,
      "changeset": 95385074,
      "user": "pizzaiolo",
      "uid": 1772368,
      "tags": {
        "ele": "1380",
        "name": "Basin Peak",
        "natural": "peak",
        "source": "LINZ_NZ_Topo50_Gridless_Maps",
        "wikidata": "Q31658625"
      }
    },
    {
      "type": "node",
      "id": 4931895210,
      "lat": -44.8633478,
      "lon": 168.8590969,
      "timestamp": "2021-03-14T09:16:08Z",
      "version": 2,
      "changeset": 100981000,
      "user": "lcmortensen",
      "uid": 341519,
      "tags": {
        "ele": "1752",
        "name": "Mount Soho",
        "natural": "peak",
        "source": "LINZ_NZ_Topo50_Gridless_Maps",
        "wikidata": "Q31667518"
      }
    },
    {
      "type": "node",
      "id": 4931895212,
      "lat": -44.8273535,
      "lon": 168.7921897,
      "timestamp": "2021-03-14T09:16:26Z",
      "version": 2,
      "changeset": 100981000,
      "user": "lcmortensen",
      "uid": 341519,
      "tags": {
        "ele": "1749",
        "name": "Advance Peak",
        "natural": "peak",
        "source": "LINZ_NZ_Topo50_Gridless_Maps",
        "wikidata": "Q31710391"
      }
    },
    {
      "type": "node",
      "id": 4931895214,
      "lat": -44.7538652,
      "lon": 168.7994381,
      "timestamp": "2021-03-14T09:16:20Z",
      "version": 2,
      "changeset": 100981000,
      "user": "lcmortensen",
      "uid": 341519,
      "tags": {
        "ele": "2056",
        "name": "Mount Hyde",
        "natural": "peak",
        "source": "LINZ_NZ_Topo50_Gridless_Maps",
        "wikidata": "Q31692178"
      }
    },
    {
      "type": "node",
      "id": 4931895215,
      "lat": -44.9013608,
      "lon": 168.8414565,
      "timestamp": "2017-08-09T07:58:44Z",
      "version": 2,
      "changeset": 50963507,
      "user": "lcmortensen",
      "uid": 341519,
      "tags": {
        "ele": "1137",
        "name": "Big Hill",
        "natural": "peak",
        "source": "LINZ_NZ_Topo50_Gridless_Maps",
        "wikidata": "Q31659650"
      }
    },
    {
      "type": "node",
      "id": 4962907903,
      "lat": -44.9452423,
      "lon": 168.8354505,
      "timestamp": "2021-04-06T10:40:20Z",
      "version": 4,
      "changeset": 102399489,
      "user": "mannux",
      "uid": 3844175,
      "tags": {
        "addr:city": "Arowtown",
        "addr:housenumber": "32",
        "addr:postcode": "9302",
        "addr:street": "Adamson Drive",
        "addr:suburb": "Arrowtown",
        "name": "Four Square",
        "opening_hours": "Mo-Su 07:00-20:00",
        "ref:linz:address_id": "5600",
        "shop": "supermarket",
        "website": "https://www.foursquare.co.nz/"
      }
    },
    {
      "type": "node",
      "id": 5291009521,
      "lat": -44.6940384,
      "lon": 169.1404379,
      "timestamp": "2017-12-18T06:25:54Z",
      "version": 1,
      "changeset": 54721021,
      "user": "Dosenwurst",
      "uid": 7275654,
      "tags": {
        "addr:housenumber": "20",
        "addr:postcode": "9305",
        "addr:street": "Ardmore Street",
        "name": "Mediterranean Market",
        "opening_hours": "Mo-Fr 08:00-18:30; Sa-Su 09:00-16:00",
        "phone": "+6434430118",
        "shop": "supermarket",
        "website": "http://www.bidfood.co.nz"
      }
    },
    {
      "type": "node",
      "id": 5420114541,
      "lat": -44.6937867,
      "lon": 169.1356577,
      "timestamp": "2018-02-18T12:16:17Z",
      "version": 1,
      "changeset": 56461601,
      "user": "MarkusHD",
      "uid": 396203,
      "tags": {
        "amenity": "drinking_water"
      }
    },
    {
      "type": "node",
      "id": 5420114548,
      "lat": -44.6899833,
      "lon": 169.1318982,
      "timestamp": "2018-02-18T12:16:17Z",
      "version": 1,
      "changeset": 56461601,
      "user": "MarkusHD",
      "uid": 396203,
      "tags": {
        "amenity": "drinking_water"
      }
    },
    {
      "type": "node",
      "id": 5474428622,
      "lat": -44.8809486,
      "lon": 169.0068028,
      "timestamp": "2018-03-13T01:43:56Z",
      "version": 1,
      "changeset": 57129285,
      "user": "Fabio Schmitz",
      "uid": 6905721,
      "tags": {
        "name": "Riverside",
        "tourism": "camp_site"
      }
    },
    {
      "type": "node",
      "id": 5643421121,
      "lat": -45.0206115,
      "lon": 168.9617964,
      "timestamp": "2018-05-26T11:23:24Z",
      "version": 2,
      "changeset": 59291865,
      "user": "EeEeRrRr",
      "uid": 8331433,
      "tags": {
        "internet_access": "no",
        "name": "Rum Currie's Hut",
        "tourism": "camp_site"
      }
    },
    {
      "type": "node",
      "id": 6162084485,
      "lat": -44.7289378,
      "lon": 169.2826246,
      "timestamp": "2018-12-25T20:19:16Z",
      "version": 1,
      "changeset": 65767753,
      "user": "Sama Magham",
      "uid": 3782180,
      "tags": {
        "name": "Self Contained Freedom Camping Area",
        "tourism": "camp_site"
      }
    },
    {
      "type": "node",
      "id": 6162085085,
      "lat": -44.7061973,
      "lon": 169.1514034,
      "timestamp": "2019-12-10T08:05:17Z",
      "version": 2,
      "changeset": 78192363,
      "user": "ralley",
      "uid": 670820,
      "tags": {
        "amenity": "drinking_water",
        "man_made": "water_tap"
      }
    },
    {
      "type": "node",
      "id": 6174076214,
      "lat": -45.0130736,
      "lon": 168.7513521,
      "timestamp": "2018-12-31T03:04:21Z",
      "version": 1,
      "changeset": 65902857,
      "user": "mkotzjan",
      "uid": 8693999,
      "tags": {
        "name": "Service Hub for SC-Vehicles",
        "opening_hours": "Mo-Su 08:00-20:00",
        "tourism": "camp_site"
      }
    },
    {
      "type": "node",
      "id": 6191497985,
      "lat": -45.0016118,
      "lon": 169.211828,
      "timestamp": "2019-01-08T05:37:23Z",
      "version": 1,
      "changeset": 66117910,
      "user": "Meggie Brouillette",
      "uid": 8598947,
      "tags": {
        "amenity": "drinking_water"
      }
    },
    {
      "type": "node",
      "id": 6243885201,
      "lat": -44.8710228,
      "lon": 169.1606807,
      "timestamp": "2019-01-29T09:12:16Z",
      "version": 1,
      "changeset": 66731701,
      "user": "gaddman",
      "uid": 365177,
      "tags": {
        "name": "Kirtle Burn Hut",
        "operator": "Department of Conservation",
        "ref:doc": "100040528",
        "tourism": "wilderness_hut"
      }
    },
    {
      "type": "node",
      "id": 6245432639,
      "lat": -44.6970636,
      "lon": 169.1616421,
      "timestamp": "2019-01-29T20:53:54Z",
      "version": 1,
      "changeset": 66751224,
      "user": "captain_slow",
      "uid": 2110714,
      "tags": {
        "amenity": "drinking_water"
      }
    },
    {
      "type": "node",
      "id": 6317285786,
      "lat": -44.7009936,
      "lon": 169.128293,
      "timestamp": "2019-03-05T01:26:12Z",
      "version": 1,
      "changeset": 67787641,
      "user": "PtitAngeSun",
      "uid": 8846515,
      "tags": {
        "amenity": "drinking_water",
        "name": "Public Dump point and drinkable water",
        "name:fr": "Eau potable"
      }
    },
    {
      "type": "node",
      "id": 6622702291,
      "lat": -45.0569193,
      "lon": 169.1952307,
      "timestamp": "2019-07-17T12:47:07Z",
      "version": 1,
      "changeset": 72347018,
      "user": "manutor",
      "uid": 514083,
      "tags": {
        "amenity": "drinking_water"
      }
    },
    {
      "type": "node",
      "id": 7080878222,
      "lat": -44.9502819,
      "lon": 168.8647127,
      "timestamp": "2021-03-14T09:16:24Z",
      "version": 2,
      "changeset": 100981000,
      "user": "lcmortensen",
      "uid": 341519,
      "tags": {
        "ele": "929",
        "name": "Mount Beetham",
        "natural": "peak",
        "wikidata": "Q31708768"
      }
    },
    {
      "type": "node",
      "id": 7748172849,
      "lat": -45.004095,
      "lon": 169.21269,
      "timestamp": "2020-08-02T06:49:54Z",
      "version": 2,
      "changeset": 88830976,
      "user": "lcmortensen",
      "uid": 341519,
      "tags": {
        "name": "Lowburn",
        "place": "hamlet",
        "wikidata": "Q6693070"
      }
    },
    {
      "type": "node",
      "id": 7748186476,
      "lat": -45.0444026,
      "lon": 169.1560006,
      "timestamp": "2020-07-26T05:10:16Z",
      "version": 1,
      "changeset": 88511021,
      "user": "andrew_dc",
      "uid": 1833351,
      "tags": {
        "name": "Ripponvale",
        "place": "hamlet"
      }
    },
    {
      "type": "node",
      "id": 7748189259,
      "lat": -44.6524286,
      "lon": 169.2874718,
      "timestamp": "2020-07-26T05:01:51Z",
      "version": 1,
      "changeset": 88510938,
      "user": "andrew_dc",
      "uid": 1833351,
      "tags": {
        "name": "Hāwea Flat",
        "place": "hamlet"
      }
    },
    {
      "type": "node",
      "id": 7748196296,
      "lat": -44.6640887,
      "lon": 169.2868229,
      "timestamp": "2020-07-26T05:02:41Z",
      "version": 1,
      "changeset": 88510950,
      "user": "andrew_dc",
      "uid": 1833351,
      "tags": {
        "name": "Lower Hawea Flat",
        "place": "hamlet"
      }
    },
    {
      "type": "node",
      "id": 7748197005,
      "lat": -45.0559693,
      "lon": 169.1347146,
      "timestamp": "2020-07-26T05:10:49Z",
      "version": 1,
      "changeset": 88511028,
      "user": "andrew_dc",
      "uid": 1833351,
      "tags": {
        "name": "Kawarau Gorge",
        "place": "hamlet"
      }
    },
    {
      "type": "node",
      "id": 7748200246,
      "lat": -45.0232944,
      "lon": 168.9552426,
      "timestamp": "2020-12-07T00:08:22Z",
      "version": 2,
      "changeset": 95385074,
      "user": "pizzaiolo",
      "uid": 1772368,
      "tags": {
        "name": "Gibbston",
        "place": "hamlet",
        "wikidata": "Q4068924"
      }
    },
    {
      "type": "node",
      "id": 8787677681,
      "lat": -44.694853,
      "lon": 168.799089,
      "timestamp": "2021-06-01T02:02:15Z",
      "version": 1,
      "changeset": 105649511,
      "user": "more-ron",
      "uid": 277782,
      "tags": {
        "name": "Polnoon Saddle Turk",
        "tourism": "wilderness_hut"
      }
    },
    {
      "type": "node",
      "id": 8787677682,
      "lat": -44.743325,
      "lon": 168.806638,
      "timestamp": "2021-06-01T02:02:15Z",
      "version": 1,
      "changeset": 105649511,
      "user": "more-ron",
      "uid": 277782,
      "tags": {
        "ele": "1770",
        "name": "Mt Hyde Turk",
        "tourism": "wilderness_hut"
      }
    },
    {
      "type": "node",
      "id": 8787677683,
      "lat": -44.798055,
      "lon": 168.787876,
      "timestamp": "2021-06-01T02:02:15Z",
      "version": 1,
      "changeset": 105649511,
      "user": "more-ron",
      "uid": 277782,
      "tags": {
        "ele": "1550",
        "name": "Saint Just Turk",
        "tourism": "wilderness_hut"
      }
    },
    {
      "type": "node",
      "id": 8787677684,
      "lat": -44.898049,
      "lon": 168.776893,
      "timestamp": "2021-06-01T23:35:51Z",
      "version": 2,
      "changeset": 105702454,
      "user": "more-ron",
      "uid": 277782,
      "tags": {
        "ele": "880",
        "name": "Deep Creek Turk",
        "tourism": "wilderness_hut"
      }
    },
    {
      "type": "node",
      "id": 8787700626,
      "lat": -44.931213,
      "lon": 168.919218,
      "timestamp": "2021-06-01T01:54:18Z",
      "version": 1,
      "changeset": 105649395,
      "user": "more-ron",
      "uid": 277782,
      "tags": {
        "building": "yes",
        "name": "Crown Basin Turk",
        "tourism": "wilderness_hut"
      }
    },
    {
      "type": "node",
      "id": 8787700724,
      "lat": -44.8444908,
      "lon": 168.7543063,
      "timestamp": "2021-06-01T02:02:15Z",
      "version": 2,
      "changeset": 105649511,
      "user": "more-ron",
      "uid": 277782,
      "tags": {
        "building": "yes",
        "name": "Vanguard Peak Turk",
        "tourism": "wilderness_hut"
      }
    },
    {
      "type": "node",
      "id": 8790641738,
      "lat": -44.6579842,
      "lon": 168.7754525,
      "timestamp": "2021-06-01T23:42:20Z",
      "version": 1,
      "changeset": 105702567,
      "user": "more-ron",
      "uid": 277782,
      "tags": {
        "name": "Polnoon Hut",
        "tourism": "wilderness_hut"
      }
    },
    {
      "type": "node",
      "id": 9123341530,
      "lat": -45.0609719,
      "lon": 168.9441901,
      "timestamp": "2021-09-26T01:43:00Z",
      "version": 1,
      "changeset": 111705034,
      "user": "kylenz_linz",
      "uid": 8389777,
      "tags": {
        "direction": "33",
        "ele": "1079",
        "name": "Coal Pit Saddle",
        "natural": "saddle",
        "ref:linz:topo50_id": "3338418"
      }
    },
    {
      "type": "node",
      "id": 9123341531,
      "lat": -45.05476,
      "lon": 168.987044,
      "timestamp": "2021-09-26T01:43:00Z",
      "version": 1,
      "changeset": 111705034,
      "user": "kylenz_linz",
      "uid": 8389777,
      "tags": {
        "direction": "139",
        "ele": "961",
        "name": "Antimony Saddle",
        "natural": "saddle",
        "ref:linz:topo50_id": "3338419"
      }
    },
    {
      "type": "way",
      "id": 88272635,
      "timestamp": "2019-07-28T16:08:37Z",
      "version": 10,
      "changeset": 72741584,
      "user": "b-jazz-bot",
      "uid": 9451067,
      "center": {
        "lat": -44.7000591,
        "lon": 169.1004431
      },
      "nodes": [],
      "tags": {
        "addr:housenumber": "217",
        "addr:street": "Wanaka Mount Aspiring Road",
        "cabins": "yes",
        "caravans": "yes",
        "dryer": "yes",
        "email": "info@mtaspiringholidaypark.co.nz",
        "kitchen": "yes",
        "name": "Mt Aspiring Holiday Park",
        "payment:cash": "yes",
        "payment:mastercard": "yes",
        "payment:visa": "yes",
        "phone": "+64 3 443 7360",
        "power_supply": "yes",
        "sanitary_dump_station": "yes",
        "tents": "yes",
        "tourism": "camp_site",
        "washing_machine": "yes",
        "website": "https://www.mtaspiringholidaypark.co.nz/"
      }
    },
    {
      "type": "way",
      "id": 150598300,
      "timestamp": "2020-04-05T03:18:55Z",
      "version": 11,
      "changeset": 83087233,
      "user": "Sarvihepo",
      "uid": 2057798,
      "center": {
        "lat": -44.9442192,
        "lon": 168.8382062
      },
      "nodes": [],
      "tags": {
        "addr:city": "Arowtown",
        "addr:housenumber": "12",
        "addr:street": "Centennial Avenue",
        "email": "info@arrowtownholidaypark.co.nz",
        "fee": "yes",
        "name": "Arrowtown Holiday Park",
        "phone": "+6434421876",
        "sanitary_dump_station": "yes",
        "tourism": "camp_site",
        "website": "http://www.arrowtownholidaypark.co.nz",
        "wheelchair": "yes"
      }
    },
    {
      "type": "way",
      "id": 216251232,
      "timestamp": "2019-03-19T23:45:37Z",
      "version": 9,
      "changeset": 68315206,
      "user": "b-jazz-bot",
      "uid": 9451067,
      "center": {
        "lat": -44.7018941,
        "lon": 169.1271595
      },
      "nodes": [],
      "tags": {
        "addr:city": "Wanaka",
        "addr:country": "NZ",
        "addr:housenumber": "212",
        "addr:street": "Brownston Street",
        "cabins": "yes",
        "capacity:powered": "70",
        "caravans": "yes",
        "dryer": "yes",
        "email": "wanakalakeview@qldc.govt.nz",
        "fax": "+64 3 443 9086",
        "internet_access": "yes",
        "internet_access:fee": "yes",
        "kitchen": "yes",
        "name": "Wanaka Lakeview Holiday Park",
        "payment:cash": "yes",
        "payment:mastercard": "yes",
        "payment:visa": "yes",
        "phone": "+64 3 443 7883",
        "power_supply": "yes",
        "sanitary_dump_station": "yes",
        "tents": "yes",
        "tourism": "camp_site",
        "washing_machine": "yes",
        "website": "https://www.wanakalakeview.co.nz/",
        "womo": "camping",
        "womo:capacity": "70",
        "womo:fee": "17",
        "womo:name": "Wanaka Lakeview HP",
        "womo:nz:nr": "130"
      }
    },
    {
      "type": "way",
      "id": 219666361,
      "timestamp": "2021-03-01T22:46:53Z",
      "version": 6,
      "changeset": 100233558,
      "user": "ChookMan",
      "uid": 11144302,
      "center": {
        "lat": -45.0397008,
        "lon": 169.2138036
      },
      "nodes": [],
      "tags": {
        "addr:city": "Cromwell",
        "addr:housenumber": "1",
        "addr:street": "Alpha Street",
        "email": "info@cromwellholidaypark.co.nz",
        "name": "Cromwell Holiday Park",
        "phone": "+64 3 445 0164",
        "sanitary_dump_station": "yes",
        "tourism": "camp_site"
      }
    },
    {
      "type": "way",
      "id": 260711089,
      "timestamp": "2021-03-26T00:12:27Z",
      "version": 8,
      "changeset": 101750051,
      "user": "kylenz_linz",
      "uid": 8389777,
      "center": {
        "lat": -44.6964296,
        "lon": 169.1351525
      },
      "nodes": [],
      "tags": {
        "addr:housenumber": "20",
        "addr:street": "Dunmore Street",
        "addr:suburb": "Wanaka",
        "building": "yes",
        "building:levels": "1",
        "name": "New World",
        "opening_hours": "Mo-Su 07:30-21:00",
        "operator": "New World",
        "phone": "+64 3 443 0048",
        "ref:linz:address_id": "8098",
        "shop": "supermarket",
        "website": "https://www.newworld.co.nz/"
      }
    },
    {
      "type": "way",
      "id": 383955536,
      "timestamp": "2020-11-26T07:15:15Z",
      "version": 3,
      "changeset": 94819195,
      "user": "lcmortensen",
      "uid": 341519,
      "center": {
        "lat": -45.0377166,
        "lon": 169.1943063
      },
      "nodes": [],
      "tags": {
        "brand": "New World",
        "brand:wikidata": "Q7012488",
        "brand:wikipedia": "en:New World (supermarket)",
        "building": "yes",
        "name": "New World Cromwell",
        "opening_hours": "Mo-Su 07:30-18:00",
        "phone": "+64 3 445 1577",
        "shop": "supermarket",
        "website": "https://www.newworld.co.nz/south-island/otago-and-southland/cromwell"
      }
    },
    {
      "type": "way",
      "id": 387097099,
      "timestamp": "2015-12-22T10:33:48Z",
      "version": 1,
      "changeset": 36102078,
      "user": "Rudy355",
      "uid": 142831,
      "center": {
        "lat": -44.6050671,
        "lon": 169.2466867
      },
      "nodes": [],
      "tags": {
        "addr:housenumber": "1208",
        "addr:street": "Makarora-Lake Hawea Road",
        "cabins": "yes",
        "caravans": "yes",
        "name": "Lake Hawea Holiday Park",
        "sanitary_dump_station": "yes",
        "tents": "yes",
        "tourism": "camp_site",
        "womo": "camping",
        "womo:fee": "16",
        "womo:name": "Lake Hawea HP",
        "womo:nz:nr": "132"
      }
    },
    {
      "type": "way",
      "id": 387467854,
      "timestamp": "2021-06-21T06:49:40Z",
      "version": 4,
      "changeset": 106695806,
      "user": "kylenz_linz",
      "uid": 8389777,
      "center": {
        "lat": -44.6108392,
        "lon": 169.2563724
      },
      "nodes": [],
      "tags": {
        "addr:city": "Wanaka",
        "addr:hamlet": "Lake Hāwea",
        "addr:housenumber": "33",
        "addr:street": "Capell Avenue",
        "amenity": "restaurant; post_office",
        "building": "yes",
        "name": "Sailz",
        "name:zh": "百货商店",
        "phone": "+64 3 443 1696",
        "ref:linz:address_id": "11246",
        "shop": "convenience"
      }
    },
    {
      "type": "way",
      "id": 405266721,
      "timestamp": "2017-07-31T07:48:33Z",
      "version": 2,
      "changeset": 50711184,
      "user": "Rudy355",
      "uid": 142831,
      "center": {
        "lat": -45.0869279,
        "lon": 169.1595588
      },
      "nodes": [],
      "tags": {
        "name": "Bannockburn Domain Camping",
        "tourism": "camp_site"
      }
    },
    {
      "type": "way",
      "id": 405267750,
      "timestamp": "2016-03-23T08:58:21Z",
      "version": 1,
      "changeset": 38015566,
      "user": "Rudy355",
      "uid": 142831,
      "center": {
        "lat": -45.0843438,
        "lon": 169.179266
      },
      "nodes": [],
      "tags": {
        "addr:city": "Cromwell",
        "addr:housenumber": "219",
        "addr:street": "Cairnmuir Road",
        "name": "Cairnmuir Camping Ground",
        "sanitary_dump_station": "yes",
        "tourism": "camp_site"
      }
    },
    {
      "type": "way",
      "id": 442150622,
      "timestamp": "2016-09-13T06:48:58Z",
      "version": 1,
      "changeset": 42116971,
      "user": "rauberdaniel",
      "uid": 2982879,
      "center": {
        "lat": -45.0279446,
        "lon": 169.1980057
      },
      "nodes": [],
      "tags": {
        "fee": "yes",
        "internet_access": "no",
        "name": "Jackson Orchard",
        "operator": "Jackson Orchard",
        "tourism": "camp_site",
        "wheelchair": "yes"
      }
    },
    {
      "type": "way",
      "id": 467109568,
      "timestamp": "2021-03-26T00:12:27Z",
      "version": 7,
      "changeset": 101750051,
      "user": "kylenz_linz",
      "uid": 8389777,
      "center": {
        "lat": -44.705287,
        "lon": 169.1088084
      },
      "nodes": [],
      "tags": {
        "access": "customers",
        "addr:city": "Wanaka",
        "addr:housenumber": "263",
        "addr:street": "Studholme Road",
        "addr:suburb": "Wanaka",
        "fee": "yes",
        "internet_access": "wlan",
        "internet_access:fee": "no @ customers",
        "name": "Wanaka Kiwi Holiday Park & Motels",
        "note": "Free unlimited wi-fi, spas, sauna, showers & BBQs motels, cabins, backpackers,tent & campervan sites-powered or un-powered",
        "operator": "Kiwi Holiday Parks",
        "payment:cash": "yes",
        "payment:credit_cards": "yes",
        "phone": "+64 3 443 7766",
        "ref:linz:address_id": "6237",
        "smoking": "outside",
        "tourism": "camp_site",
        "website": "https://wanakakiwiholidaypark.nz/",
        "wheelchair": "limited"
      }
    },
    {
      "type": "way",
      "id": 467117779,
      "timestamp": "2017-01-19T07:44:56Z",
      "version": 1,
      "changeset": 45290406,
      "user": "Rudy355",
      "uid": 142831,
      "center": {
        "lat": -44.6786368,
        "lon": 169.190298
      },
      "nodes": [],
      "tags": {
        "internet_access": "no",
        "name": "Albert Town Campground",
        "tourism": "camp_site",
        "womo": "hiking",
        "womo:fee": "7",
        "womo:name": "Albert Town Camp",
        "womo:nz:nr": "131"
      }
    },
    {
      "type": "way",
      "id": 656051214,
      "timestamp": "2020-04-01T09:16:21Z",
      "version": 3,
      "changeset": 82913418,
      "user": "Sarvihepo",
      "uid": 2057798,
      "center": {
        "lat": -44.8045192,
        "lon": 168.8627569
      },
      "nodes": [],
      "tags": {
        "access": "yes",
        "building": "yes",
        "capacity": "12",
        "drinking_water": "boil",
        "fee": "yes",
        "mattress": "yes",
        "name": "Roses Hut",
        "operator": "DoC",
        "payment:prepaid_cards": "yes",
        "payment:prepaid_ticket": "yes",
        "ref:doc": "100038369",
        "reservation": "no",
        "toilets": "yes",
        "tourism": "wilderness_hut",
        "website": "https://www.doc.govt.nz/parks-and-recreation/places-to-go/otago/places/wanaka-area/things-to-do/roses-hut/"
      }
    },
    {
      "type": "way",
      "id": 656051215,
      "timestamp": "2020-04-01T09:16:21Z",
      "version": 3,
      "changeset": 82913418,
      "user": "Sarvihepo",
      "uid": 2057798,
      "center": {
        "lat": -44.7398749,
        "lon": 168.9843551
      },
      "nodes": [],
      "tags": {
        "building": "yes",
        "capacity": "12",
        "drinking_water": "boil",
        "ele": "760",
        "fee": "yes",
        "fireplace": "no",
        "internet_access": "no",
        "mattress": "yes",
        "name": "Fern Burn Hut",
        "operator": "DoC",
        "payment:prepaid_card": "yes",
        "payment:prepaid_ticket": "yes",
        "ref:doc": "100080909",
        "reservation": "no",
        "toilets": "yes",
        "tourism": "wilderness_hut",
        "website": "https://www.doc.govt.nz/parks-and-recreation/places-to-go/otago/places/wanaka-area/things-to-do/fern-burn-hut/"
      }
    },
    {
      "type": "way",
      "id": 656051216,
      "timestamp": "2020-04-01T09:16:21Z",
      "version": 3,
      "changeset": 82913418,
      "user": "Sarvihepo",
      "uid": 2057798,
      "center": {
        "lat": -44.7741824,
        "lon": 168.9417704
      },
      "nodes": [],
      "tags": {
        "building": "yes",
        "capacity": "12",
        "drinking_water": "boil",
        "fee": "yes",
        "mattress": "yes",
        "name": "Highland Creek Hut",
        "operator": "DoC",
        "payment:prepaid_cards": "yes",
        "payment:prepaid_ticket": "yes",
        "ref:doc": "100039555",
        "reservation": "no",
        "toilets": "yes",
        "tourism": "wilderness_hut",
        "website": "https://www.doc.govt.nz/parks-and-recreation/places-to-go/otago/places/wanaka-area/things-to-do/highland-creek-hut/"
      }
    },
    {
      "type": "way",
      "id": 678812404,
      "timestamp": "2020-02-11T01:52:14Z",
      "version": 2,
      "changeset": 80820619,
      "user": "StenSoft",
      "uid": 255936,
      "center": {
        "lat": -45.0354845,
        "lon": 169.1939656
      },
      "nodes": [],
      "tags": {
        "addr:city": "Cromwell",
        "addr:housenumber": "1/3",
        "addr:postcode": "9310",
        "addr:street": "Iles Street",
        "brand": "FreshChoice",
        "brand:wikidata": "Q22271877",
        "building": "yes",
        "email": "online@fccromwell.co.nz",
        "name": "FreshChoice Cromwell",
        "opening_hours": "Mo-Su 07:00-21:00",
        "phone": "+64 3 445 3488",
        "shop": "supermarket",
        "website": "https://cromwell.store.freshchoice.co.nz/"
      }
    },
    {
      "type": "way",
      "id": 694646049,
      "timestamp": "2020-04-05T03:18:55Z",
      "version": 3,
      "changeset": 83087233,
      "user": "Sarvihepo",
      "uid": 2057798,
      "center": {
        "lat": -44.6732595,
        "lon": 169.0172666
      },
      "nodes": [],
      "tags": {
        "addr:city": "Wanaka",
        "addr:housenumber": "1127",
        "addr:postcode": "9382",
        "addr:street": "Wanaka Mount Aspiring Road",
        "email": "info@glendhubaymotorcamp.co.nz",
        "fax": "+64 3 443 7284",
        "fee": "yes",
        "internet_access": "wlan",
        "internet_access:fee": "yes",
        "name": "Glendhu Bay Motor Camp",
        "phone": "+64 3 443 7243",
        "power_supply": "yes",
        "sanitary_dump_station": "yes",
        "tourism": "camp_site",
        "website": "https://glendhubaymotorcamp.co.nz/"
      }
    },
    {
      "type": "way",
      "id": 702971993,
      "timestamp": "2019-07-10T05:23:47Z",
      "version": 1,
      "changeset": 72078101,
      "user": "ralley",
      "uid": 670820,
      "center": {
        "lat": -44.6126516,
        "lon": 169.2524452
      },
      "nodes": [],
      "tags": {
        "amenity": "shelter",
        "building": "yes",
        "shelter_type": "public_transport"
      }
    },
    {
      "type": "way",
      "id": 784743334,
      "timestamp": "2020-03-26T10:07:37Z",
      "version": 1,
      "changeset": 82653679,
      "user": "NickRivers",
      "uid": 39947,
      "center": {
        "lat": -44.6104493,
        "lon": 169.2533217
      },
      "nodes": [],
      "tags": {
        "access": "customers",
        "internet_access": "wlan",
        "name": "Lake Hawea Camping",
        "shower": "yes",
        "toilets": "yes",
        "tourism": "camp_site"
      }
    },
    {
      "type": "way",
      "id": 916498922,
      "timestamp": "2021-03-13T00:33:05Z",
      "version": 1,
      "changeset": 100938316,
      "user": "vaibhav265",
      "uid": 4164103,
      "center": {
        "lat": -44.6993325,
        "lon": 169.1551035
      },
      "nodes": [],
      "tags": {
        "addr:city": "Wanaka",
        "addr:housenumber": "83",
        "addr:postcode": "9305",
        "addr:street": "Sir Tim Wallis Drive",
        "brand": "New World",
        "brand:wikidata": "Q7012488",
        "brand:wikipedia": "en:New World (supermarket)",
        "building": "yes",
        "name": "New World Three Parks",
        "operator": "New World",
        "shop": "supermarket"
      }
    },
    {
      "type": "way",
      "id": 987021272,
      "timestamp": "2021-09-26T00:06:52Z",
      "version": 1,
      "changeset": 111704106,
      "user": "kylenz",
      "uid": 10140394,
      "center": {
        "lat": -44.9621809,
        "lon": 169.1263977
      },
      "nodes": [],
      "tags": {
        "amenity": "shelter",
        "building": "yes",
        "description": "Corrugated iron hut, private but not locked",
        "shelter_type": "basic_hut",
        "source": "LINZ"
      }
    },
    {
      "type": "way",
      "id": 988769401,
      "timestamp": "2021-10-01T23:24:09Z",
      "version": 1,
      "changeset": 111984855,
      "user": "kylenz",
      "uid": 10140394,
      "center": {
        "lat": -44.8610118,
        "lon": 169.113811
      },
      "nodes": [],
      "tags": {
        "building": "yes",
        "name": "Bob Lee Hut",
        "tourism": "alpine_hut"
      }
    },
    {
      "type": "way",
      "id": 988769402,
      "timestamp": "2021-10-01T23:24:09Z",
      "version": 1,
      "changeset": 111984855,
      "user": "kylenz",
      "uid": 10140394,
      "center": {
        "lat": -44.8609629,
        "lon": 169.1138672
      },
      "nodes": [],
      "tags": {
        "building": "yes",
        "name": "Daisy Lee Hut",
        "tourism": "alpine_hut"
      }
    },
    {
      "type": "way",
      "id": 988774071,
      "timestamp": "2021-10-02T00:00:11Z",
      "version": 1,
      "changeset": 111985254,
      "user": "kylenz",
      "uid": 10140394,
      "center": {
        "lat": -44.8710818,
        "lon": 169.116404
      },
      "nodes": [],
      "tags": {
        "building": "yes",
        "name": "Meadow Hut",
        "source": "LINZ",
        "tourism": "alpine_hut"
      }
    }
  ]
}