{
  "osm3s": {
    "timestamp_osm_date": "2022-08-26T23:59:59Z",
    "timestamp_osm_base": "2022-08-27T05:38:22Z",
    "copyright": "The data included in this document is from www.openstreetmap.org. The data is made available under ODbL."
  },
  "elements": [
    {
      "type": "node",
      "id": 151336345,
      "lat": 47.5431303,
      "lon": -90.8974661,
      "timestamp": "2020-08-18T08:26:21Z",
      "version": 8,
      "changeset": 89560789,
      "user": "kartler175",
      "uid": 834127,
      "tags": {
        "census:population": "208;2006",
        "ele": "194",
        "gnis:County": "Cook",
        "gnis:County_num": "031",
        "gnis:ST_alpha": "MN",
        "gnis:ST_num": "27",
        "gnis:id": "658185",
        "import_uuid": "bb7269ee-502a-5391-8056-e3ce0e66489c",
        "name": "Schroeder",
        "place": "village",
        "population": "208",
        "wikidata": "Q7432892"
      }
    },
    {
      "type": "node",
      "id": 151345745,
      "lat": 47.5738732,
      "lon": -90.8364038,
      "timestamp": "2021-07-12T06:00:54Z",
      "version": 11,
      "changeset": 107811661,
      "user": "Your Village Maps",
      "uid": 227972,
      "tags": {
        "census:population": "250;2006",
        "ele": "191",
        "gnis:County": "Cook",
        "gnis:County_num": "031",
        "gnis:ST_alpha": "MN",
        "gnis:ST_num": "27",
        "gnis:id": "658702",
        "import_uuid": "bb7269ee-502a-5391-8056-e3ce0e66489c",
        "name": "Tofte",
        "place": "village",
        "population": "250",
        "wikidata": "Q7813002",
        "wikipedia": "en:Tofte Township, Minnesota"
      }
    },
    {
      "type": "node",
      "id": 151348643,
      "lat": 47.5296326,
      "lon": -91.3412667,
      "timestamp": "2008-12-06T15:41:06Z",
      "version": 2,
      "changeset": 158653,
      "user": "davidearl",
      "uid": 3582,
      "tags": {
        "ele": "587",
        "gnis:Class": "Populated Place",
        "gnis:County": "Lake",
        "gnis:County_num": "075",
        "gnis:ST_alpha": "MN",
        "gnis:ST_num": "27",
        "gnis:id": "655223",
        "import_uuid": "bb7269ee-502a-5391-8056-e3ce0e66489c",
        "is_in": "Lake,Minnesota,Minn.,MN,USA",
        "name": "Baptism Crossing",
        "place": "hamlet"
      }
    },
    {
      "type": "node",
      "id": 151409116,
      "lat": 47.7151809,
      "lon": -91.2679189,
      "timestamp": "2008-12-06T15:42:05Z",
      "version": 2,
      "changeset": 158653,
      "user": "davidearl",
      "uid": 3582,
      "tags": {
        "ele": "516",
        "gnis:Class": "Populated Place",
        "gnis:County": "Lake",
        "gnis:County_num": "075",
        "gnis:ST_alpha": "MN",
        "gnis:ST_num": "27",
        "gnis:id": "658170",
        "import_uuid": "bb7269ee-502a-5391-8056-e3ce0e66489c",
        "is_in": "Lake,Minnesota,Minn.,MN,USA",
        "name": "Sawbill Landing",
        "place": "hamlet"
      }
    },
    {
      "type": "node",
      "id": 151484985,
      "lat": 47.7449027,
      "lon": -91.3037502,
      "timestamp": "2008-12-06T15:42:55Z",
      "version": 2,
      "changeset": 158653,
      "user": "davidearl",
      "uid": 3582,
      "tags": {
        "ele": "490",
        "gnis:Class": "Populated Place",
        "gnis:County": "Lake",
        "gnis:County_num": "075",
        "gnis:ST_alpha": "MN",
        "gnis:ST_num": "27",
        "gnis:id": "657332",
        "import_uuid": "bb7269ee-502a-5391-8056-e3ce0e66489c",
        "is_in": "Lake,Minnesota,Minn.,MN,USA",
        "name": "Martin Landing",
        "place": "hamlet"
      }
    },
    {
      "type": "node",
      "id": 151519303,
      "lat": 47.7257364,
      "lon": -91.2901404,
      "timestamp": "2008-12-06T15:43:11Z",
      "version": 2,
      "changeset": 158653,
      "user": "davidearl",
      "uid": 3582,
      "tags": {
        "ele": "501",
        "gnis:Class": "Populated Place",
        "gnis:County": "Lake",
        "gnis:County_num": "075",
        "gnis:ST_alpha": "MN",
        "gnis:ST_num": "27",
        "gnis:id": "658970",
        "import_uuid": "bb7269ee-502a-5391-8056-e3ce0e66489c",
        "is_in": "Lake,Minnesota,Minn.,MN,USA",
        "name": "Wheeler Landing",
        "place": "hamlet"
      }
    },
    {
      "type": "node",
      "id": 151572988,
      "lat": 47.794901,
      "lon": -91.3076345,
      "timestamp": "2008-12-06T15:43:44Z",
      "version": 2,
      "changeset": 158653,
      "user": "davidearl",
      "uid": 3582,
      "tags": {
        "ele": "483",
        "gnis:Class": "Populated Place",
        "gnis:County": "Lake",
        "gnis:County_num": "075",
        "gnis:ST_alpha": "MN",
        "gnis:ST_num": "27",
        "gnis:id": "656294",
        "import_uuid": "bb7269ee-502a-5391-8056-e3ce0e66489c",
        "is_in": "Lake,Minnesota,Minn.,MN,USA",
        "name": "Forest Center",
        "place": "hamlet"
      }
    },
    {
      "type": "node",
      "id": 151573330,
      "lat": 47.6765721,
      "lon": -91.3359778,
      "timestamp": "2008-12-06T15:43:44Z",
      "version": 2,
      "changeset": 158653,
      "user": "davidearl",
      "uid": 3582,
      "tags": {
        "ele": "545",
        "gnis:Class": "Populated Place",
        "gnis:County": "Lake",
        "gnis:County_num": "075",
        "gnis:ST_alpha": "MN",
        "gnis:ST_num": "27",
        "gnis:id": "656871",
        "import_uuid": "bb7269ee-502a-5391-8056-e3ce0e66489c",
        "is_in": "Lake,Minnesota,Minn.,MN,USA",
        "name": "Kelly Landing",
        "place": "hamlet"
      }
    },
    {
      "type": "node",
      "id": 151625666,
      "lat": 47.61713,
      "lon": -91.354871,
      "timestamp": "2018-08-07T00:44:52Z",
      "version": 7,
      "changeset": 61418561,
      "user": "Tornado9989",
      "uid": 337921,
      "tags": {
        "ele": "586",
        "gnis:Class": "Populated Place",
        "gnis:County": "Lake",
        "gnis:County_num": "075",
        "gnis:ST_alpha": "MN",
        "gnis:ST_num": "27",
        "gnis:id": "656721",
        "import_uuid": "bb7269ee-502a-5391-8056-e3ce0e66489c",
        "is_in": "Lake,Minnesota,Minn.,MN,USA",
        "name": "Isabella",
        "place": "hamlet",
        "wikidata": "Q6077893"
      }
    },
    {
      "type": "node",
      "id": 151693117,
      "lat": 47.5271282,
      "lon": -91.0901545,
      "timestamp": "2008-12-06T15:44:54Z",
      "version": 2,
      "changeset": 158653,
      "user": "davidearl",
      "uid": 3582,
      "tags": {
        "ele": "428",
        "gnis:Class": "Populated Place",
        "gnis:County": "Lake",
        "gnis:County_num": "075",
        "gnis:ST_alpha": "MN",
        "gnis:ST_num": "27",
        "gnis:id": "655850",
        "import_uuid": "bb7269ee-502a-5391-8056-e3ce0e66489c",
        "is_in": "Lake,Minnesota,Minn.,MN,USA",
        "name": "Cramer",
        "place": "hamlet"
      }
    },
    {
      "type": "node",
      "id": 151875678,
      "lat": 47.5210705,
      "lon": -90.9303389,
      "timestamp": "2020-08-18T08:26:21Z",
      "version": 5,
      "changeset": 89560789,
      "user": "kartler175",
      "uid": 834127,
      "tags": {
        "ele": "211",
        "gnis:County": "Cook",
        "gnis:County_num": "031",
        "gnis:ST_alpha": "MN",
        "gnis:ST_num": "27",
        "gnis:id": "658592",
        "import_uuid": "bb7269ee-502a-5391-8056-e3ce0e66489c",
        "name": "Taconite Harbor",
        "place": "hamlet"
      }
    },
    {
      "type": "node",
      "id": 151893943,
      "lat": 47.5685187,
      "lon": -91.2584851,
      "timestamp": "2008-12-06T15:46:32Z",
      "version": 2,
      "changeset": 158653,
      "user": "davidearl",
      "uid": 3582,
      "tags": {
        "ele": "564",
        "gnis:Class": "Populated Place",
        "gnis:County": "Lake",
        "gnis:County_num": "075",
        "gnis:ST_alpha": "MN",
        "gnis:ST_num": "27",
        "gnis:id": "657298",
        "import_uuid": "bb7269ee-502a-5391-8056-e3ce0e66489c",
        "is_in": "Lake,Minnesota,Minn.,MN,USA",
        "name": "Manitou Junction",
        "place": "hamlet"
      }
    },
    {
      "type": "node",
      "id": 709011771,
      "lat": 47.6787892,
      "lon": -90.7054178,
      "timestamp": "2010-04-27T18:55:22Z",
      "version": 1,
      "changeset": 4543849,
      "user": "stucki1",
      "uid": 10786,
      "tags": {
        "maxtents": "3",
        "mndnr:collector": "Sundew Technical Services",
        "name": "West Poplar River",
        "source": "mndnr",
        "tourism": "camp_site"
      }
    },
    {
      "type": "node",
      "id": 709011820,
      "lat": 47.6313641,
      "lon": -90.7613628,
      "timestamp": "2010-04-27T18:55:23Z",
      "version": 1,
      "changeset": 4543849,
      "user": "stucki1",
      "uid": 10786,
      "tags": {
        "maxtents": "5",
        "mndnr:collector": "Sundew Technical Services",
        "name": "West Rollins Creek",
        "source": "mndnr",
        "tourism": "camp_site"
      }
    },
    {
      "type": "node",
      "id": 709011848,
      "lat": 47.5577395,
      "lon": -90.9161153,
      "timestamp": "2010-04-27T18:55:24Z",
      "version": 1,
      "changeset": 4543849,
      "user": "stucki1",
      "uid": 10786,
      "tags": {
        "maxtents": "4",
        "mndnr:collector": "Sundew Technical Services",
        "name": "South Cross River",
        "source": "mndnr",
        "tourism": "camp_site"
      }
    },
    {
      "type": "node",
      "id": 709011945,
      "lat": 47.6176891,
      "lon": -90.8051027,
      "timestamp": "2010-04-27T18:55:26Z",
      "version": 1,
      "changeset": 4543849,
      "user": "stucki1",
      "uid": 10786,
      "tags": {
        "maxtents": "4",
        "mndnr:collector": "Sundew Technical Services",
        "name": "East Leveaux Pond",
        "source": "mndnr",
        "tourism": "camp_site"
      }
    },
    {
      "type": "node",
      "id": 709011957,
      "lat": 47.5590196,
      "lon": -90.9166262,
      "timestamp": "2010-04-27T18:55:27Z",
      "version": 1,
      "changeset": 4543849,
      "user": "stucki1",
      "uid": 10786,
      "tags": {
        "maxtents": "2",
        "mndnr:collector": "Sundew Technical Services",
        "name": "North Cross River",
        "source": "mndnr",
        "tourism": "camp_site"
      }
    },
    {
      "type": "node",
      "id": 709011969,
      "lat": 47.6315381,
      "lon": -90.7603752,
      "timestamp": "2010-04-27T18:55:28Z",
      "version": 1,
      "changeset": 4543849,
      "user": "stucki1",
      "uid": 10786,
      "tags": {
        "maxtents": "3",
        "mndnr:collector": "Sundew Technical Services",
        "name": "East Rollins Creek",
        "source": "mndnr",
        "tourism": "camp_site"
      }
    },
    {
      "type": "node",
      "id": 709011977,
      "lat": 47.6033145,
      "lon": -90.8345622,
      "timestamp": "2010-04-27T18:55:28Z",
      "version": 1,
      "changeset": 4543849,
      "user": "stucki1",
      "uid": 10786,
      "tags": {
        "maxtents": "4",
        "mndnr:collector": "Sundew Technical Services",
        "name": "Springdale Creek",
        "source": "mndnr",
        "tourism": "camp_site"
      }
    },
    {
      "type": "node",
      "id": 709011987,
      "lat": 47.5325658,
      "lon": -90.9704166,
      "timestamp": "2010-04-27T18:55:29Z",
      "version": 1,
      "changeset": 4543849,
      "user": "stucki1",
      "uid": 10786,
      "tags": {
        "maxtents": "6",
        "mndnr:collector": "Sundew Technical Services",
        "name": "Dyer's Creek",
        "source": "mndnr",
        "tourism": "camp_site"
      }
    },
    {
      "type": "node",
      "id": 709012000,
      "lat": 47.669428,
      "lon": -90.7282235,
      "timestamp": "2021-08-24T22:20:14Z",
      "version": 2,
      "changeset": 110195986,
      "user": "Greg_Rose",
      "uid": 4622040,
      "tags": {
        "maxtents": "6",
        "mndnr:collector": "Sundew Technical Services",
        "name": "Mystery Mountain",
        "source": "mndnr",
        "tourism": "camp_site"
      }
    },
    {
      "type": "node",
      "id": 709012009,
      "lat": 47.5659265,
      "lon": -90.9134886,
      "timestamp": "2010-04-27T18:55:31Z",
      "version": 1,
      "changeset": 4543849,
      "user": "stucki1",
      "uid": 10786,
      "tags": {
        "maxtents": "2",
        "mndnr:collector": "Sundew Technical Services",
        "name": "Ledge",
        "source": "mndnr",
        "tourism": "camp_site"
      }
    },
    {
      "type": "node",
      "id": 709012018,
      "lat": 47.5513665,
      "lon": -90.9486266,
      "timestamp": "2021-08-23T21:42:09Z",
      "version": 2,
      "changeset": 110138344,
      "user": "Greg_Rose",
      "uid": 4622040,
      "tags": {
        "maxtents": "5",
        "mndnr:collector": "Sundew Technical Services",
        "name": "Fredenberg Creek",
        "source": "mndnr",
        "tourism": "camp_site"
      }
    },
    {
      "type": "node",
      "id": 709012024,
      "lat": 47.6180662,
      "lon": -90.8062492,
      "timestamp": "2010-04-27T18:55:32Z",
      "version": 1,
      "changeset": 4543849,
      "user": "stucki1",
      "uid": 10786,
      "tags": {
        "maxtents": "8",
        "mndnr:collector": "Sundew Technical Services",
        "name": "West Leveaux Pond",
        "source": "mndnr",
        "tourism": "camp_site"
      }
    },
    {
      "type": "node",
      "id": 709012030,
      "lat": 47.6253369,
      "lon": -90.789347,
      "timestamp": "2010-04-27T18:55:32Z",
      "version": 1,
      "changeset": 4543849,
      "user": "stucki1",
      "uid": 10786,
      "tags": {
        "maxtents": "8",
        "mndnr:collector": "Sundew Technical Services",
        "name": "Onion River",
        "source": "mndnr",
        "tourism": "camp_site"
      }
    },
    {
      "type": "node",
      "id": 709012039,
      "lat": 47.5651775,
      "lon": -90.9273252,
      "timestamp": "2010-04-27T18:55:33Z",
      "version": 1,
      "changeset": 4543849,
      "user": "stucki1",
      "uid": 10786,
      "tags": {
        "maxtents": "3",
        "mndnr:collector": "Sundew Technical Services",
        "name": "Falls",
        "source": "mndnr",
        "tourism": "camp_site"
      }
    },
    {
      "type": "node",
      "id": 825150226,
      "lat": 47.8633259,
      "lon": -90.8847162,
      "timestamp": "2013-07-31T02:57:02Z",
      "version": 2,
      "changeset": 17160470,
      "user": "yakingman",
      "uid": 1686750,
      "tags": {
        "name": "Sawbill Outfitters and Sawbill Lake Campground",
        "tourism": "camp_site"
      }
    },
    {
      "type": "node",
      "id": 1458424560,
      "lat": 47.5422503,
      "lon": -90.8977596,
      "timestamp": "2020-01-02T21:29:04Z",
      "version": 3,
      "changeset": 79131228,
      "user": "swbr0502",
      "uid": 10547892,
      "tags": {
        "access": "customers",
        "addr:city": "Schroeder",
        "addr:housenumber": "4",
        "addr:postcode": "55613",
        "addr:state": "MN",
        "addr:street": "Lambs Way",
        "fee": "yes",
        "name": "Lamb's Resort",
        "tourism": "camp_site"
      }
    },
    {
      "type": "node",
      "id": 1701352912,
      "lat": 47.9637383,
      "lon": -90.8017618,
      "timestamp": "2022-04-20T04:37:55Z",
      "version": 2,
      "changeset": 119932306,
      "user": "Bryon Peterson",
      "uid": 15423985,
      "tags": {
        "backcountry": "yes",
        "source": "knowledge",
        "tourism": "camp_site"
      }
    },
    {
      "type": "node",
      "id": 1742312006,
      "lat": 47.5784866,
      "lon": -91.0737763,
      "timestamp": "2012-05-06T03:17:55Z",
      "version": 1,
      "changeset": 11514057,
      "user": "bal_agates",
      "uid": 374193,
      "tags": {
        "name": "Ninemile Lake Campground",
        "operator": "USFS",
        "tourism": "camp_site"
      }
    },
    {
      "type": "node",
      "id": 1742329146,
      "lat": 47.6442787,
      "lon": -91.1366128,
      "timestamp": "2012-05-06T03:34:47Z",
      "version": 1,
      "changeset": 11514096,
      "user": "bal_agates",
      "uid": 374193,
      "tags": {
        "name": "Hogback Lake Campground",
        "operator": "USFS",
        "tourism": "camp_site"
      }
    },
    {
      "type": "node",
      "id": 1742332755,
      "lat": 47.6100348,
      "lon": -91.2562677,
      "timestamp": "2021-06-26T02:57:53Z",
      "version": 3,
      "changeset": 106988865,
      "user": "bal_agates",
      "uid": 374193,
      "tags": {
        "description": "primitive",
        "name": "Divide Lake Campground",
        "operator": "USFS",
        "tourism": "camp_site"
      }
    },
    {
      "type": "node",
      "id": 1742350371,
      "lat": 47.6437013,
      "lon": -91.3439596,
      "timestamp": "2012-05-06T04:00:11Z",
      "version": 1,
      "changeset": 11514148,
      "user": "bal_agates",
      "uid": 374193,
      "tags": {
        "description": "primitive",
        "name": "Eighteen Lake Campground",
        "operator": "USFS",
        "tourism": "camp_site"
      }
    },
    {
      "type": "node",
      "id": 1742363739,
      "lat": 47.7409365,
      "lon": -91.2416903,
      "timestamp": "2012-05-06T04:10:44Z",
      "version": 1,
      "changeset": 11514175,
      "user": "bal_agates",
      "uid": 374193,
      "tags": {
        "description": "primitive",
        "name": "Section 29 Lake Campground",
        "operator": "USFS",
        "tourism": "camp_site"
      }
    },
    {
      "type": "node",
      "id": 1742364749,
      "lat": 47.7273927,
      "lon": -91.14905,
      "timestamp": "2012-05-06T04:16:08Z",
      "version": 1,
      "changeset": 11514187,
      "user": "bal_agates",
      "uid": 374193,
      "tags": {
        "name": "Silver Island Lake Campground",
        "operator": "USFS",
        "tourism": "camp_site"
      }
    },
    {
      "type": "node",
      "id": 1742367800,
      "lat": 47.8387425,
      "lon": -91.102971,
      "timestamp": "2012-05-06T04:30:56Z",
      "version": 1,
      "changeset": 11514226,
      "user": "bal_agates",
      "uid": 374193,
      "tags": {
        "name": "Kawishiwi Lake Campground",
        "operator": "USFS",
        "tourism": "camp_site"
      }
    },
    {
      "type": "node",
      "id": 1742375031,
      "lat": 47.8345152,
      "lon": -90.7717674,
      "timestamp": "2012-05-06T04:36:42Z",
      "version": 1,
      "changeset": 11514241,
      "user": "bal_agates",
      "uid": 374193,
      "tags": {
        "name": "Crescent Lake Campground",
        "operator": "USFS",
        "tourism": "camp_site"
      }
    },
    {
      "type": "node",
      "id": 1742381733,
      "lat": 47.8444591,
      "lon": -90.8170451,
      "timestamp": "2012-05-06T04:39:12Z",
      "version": 1,
      "changeset": 11514253,
      "user": "bal_agates",
      "uid": 374193,
      "tags": {
        "description": "primitive",
        "name": "Baker Lake Campground",
        "operator": "USFS",
        "tourism": "camp_site"
      }
    },
    {
      "type": "node",
      "id": 1742387106,
      "lat": 47.7743786,
      "lon": -90.7522222,
      "timestamp": "2012-05-06T04:41:39Z",
      "version": 1,
      "changeset": 11514256,
      "user": "bal_agates",
      "uid": 374193,
      "tags": {
        "description": "primitive",
        "name": "Clara Lake Campground",
        "operator": "USFS",
        "tourism": "camp_site"
      }
    },
    {
      "type": "node",
      "id": 1742392648,
      "lat": 47.7385617,
      "lon": -90.7778327,
      "timestamp": "2012-05-06T04:44:28Z",
      "version": 1,
      "changeset": 11514262,
      "user": "bal_agates",
      "uid": 374193,
      "tags": {
        "description": "primitive",
        "name": "Poplar River Campground",
        "operator": "USFS",
        "tourism": "camp_site"
      }
    },
    {
      "type": "node",
      "id": 1742405819,
      "lat": 47.7021238,
      "lon": -90.96373,
      "timestamp": "2012-05-06T04:49:54Z",
      "version": 1,
      "changeset": 11514280,
      "user": "bal_agates",
      "uid": 374193,
      "tags": {
        "description": "primitive",
        "name": "Fourmile Lake Campground",
        "operator": "USFS",
        "tourism": "camp_site"
      }
    },
    {
      "type": "node",
      "id": 1742413784,
      "lat": 47.7127029,
      "lon": -90.9536556,
      "timestamp": "2012-05-06T04:53:23Z",
      "version": 1,
      "changeset": 11514286,
      "user": "bal_agates",
      "uid": 374193,
      "tags": {
        "description": "primitive",
        "name": "Toohey Lake Campground",
        "operator": "USFS",
        "tourism": "camp_site"
      }
    },
    {
      "type": "node",
      "id": 2402047313,
      "lat": 47.8632934,
      "lon": -90.887428,
      "timestamp": "2013-07-31T02:56:59Z",
      "version": 1,
      "changeset": 17160470,
      "user": "yakingman",
      "uid": 1686750,
      "tags": {
        "amenity": "drinking_water"
      }
    },
    {
      "type": "node",
      "id": 2402047341,
      "lat": 47.7182636,
      "lon": -90.8797191,
      "timestamp": "2013-07-31T02:56:59Z",
      "version": 1,
      "changeset": 17160470,
      "user": "yakingman",
      "uid": 1686750,
      "tags": {
        "name": "Temperance River National Forest Campground",
        "tourism": "camp_site"
      }
    },
    {
      "type": "node",
      "id": 2402047350,
      "lat": 47.7180833,
      "lon": -90.8794243,
      "timestamp": "2013-07-31T02:57:00Z",
      "version": 1,
      "changeset": 17160470,
      "user": "yakingman",
      "uid": 1686750,
      "tags": {
        "amenity": "drinking_water"
      }
    },
    {
      "type": "node",
      "id": 2402051066,
      "lat": 47.552799,
      "lon": -90.875645,
      "timestamp": "2021-07-23T04:11:17Z",
      "version": 4,
      "changeset": 108458812,
      "user": "Star Gazer",
      "uid": 12943612,
      "tags": {
        "access": "yes",
        "amenity": "drinking_water",
        "bottle": "yes",
        "description": "Spring water, constantly flowing from an elevated pipe. There is also tap water located in the upper campground. Free to the public.",
        "fee": "no",
        "image": "https://drive.google.com/file/d/1KBwzNBsVgXsyGHtn8ITJS1U3iQvK1wR3/view?usp=sharing",
        "operator": "MN DNR (Temperance State Park)",
        "wheelchair": "yes"
      }
    },
    {
      "type": "node",
      "id": 2406350238,
      "lat": 47.5771825,
      "lon": -90.8305461,
      "timestamp": "2021-07-20T03:15:53Z",
      "version": 4,
      "changeset": 108281014,
      "user": "Your Village Maps",
      "uid": 227972,
      "tags": {
        "addr:city": "Tofte",
        "addr:postcode": "55615",
        "addr:state": "MN",
        "addr:street": "Highway 61",
        "name": "Tofte General Store",
        "shop": "convenience"
      }
    },
    {
      "type": "node",
      "id": 2423447706,
      "lat": 47.8666854,
      "lon": -90.9468164,
      "timestamp": "2013-08-18T21:24:07Z",
      "version": 1,
      "changeset": 17402788,
      "user": "yakingman",
      "uid": 1686750,
      "tags": {
        "name": "Campsite",
        "tourism": "camp_site"
      }
    },
    {
      "type": "node",
      "id": 2423447718,
      "lat": 47.8583536,
      "lon": -90.9486,
      "timestamp": "2013-08-18T21:24:07Z",
      "version": 1,
      "changeset": 17402788,
      "user": "yakingman",
      "uid": 1686750,
      "tags": {
        "name": "Campsite",
        "tourism": "camp_site"
      }
    },
    {
      "type": "node",
      "id": 2423447721,
      "lat": 47.8561867,
      "lon": -90.9538572,
      "timestamp": "2013-08-18T21:24:07Z",
      "version": 1,
      "changeset": 17402788,
      "user": "yakingman",
      "uid": 1686750,
      "tags": {
        "name": "Campsite",
        "tourism": "camp_site"
      }
    },
    {
      "type": "node",
      "id": 2423447726,
      "lat": 47.8586703,
      "lon": -90.9543507,
      "timestamp": "2013-08-18T21:24:07Z",
      "version": 1,
      "changeset": 17402788,
      "user": "yakingman",
      "uid": 1686750,
      "tags": {
        "name": "Campsite",
        "tourism": "camp_site"
      }
    },
    {
      "type": "node",
      "id": 2423447729,
      "lat": 47.8677866,
      "lon": -90.9439652,
      "timestamp": "2013-08-18T21:24:07Z",
      "version": 1,
      "changeset": 17402788,
      "user": "yakingman",
      "uid": 1686750,
      "tags": {
        "name": "Campsite",
        "tourism": "camp_site"
      }
    },
    {
      "type": "node",
      "id": 2423447811,
      "lat": 47.8686646,
      "lon": -90.9661044,
      "timestamp": "2013-08-18T21:24:08Z",
      "version": 1,
      "changeset": 17402788,
      "user": "yakingman",
      "uid": 1686750,
      "tags": {
        "name": "Campsite",
        "tourism": "camp_site"
      }
    },
    {
      "type": "node",
      "id": 2423447813,
      "lat": 47.8723963,
      "lon": -90.9765379,
      "timestamp": "2013-08-18T21:24:08Z",
      "version": 1,
      "changeset": 17402788,
      "user": "yakingman",
      "uid": 1686750,
      "tags": {
        "name": "Campsite",
        "tourism": "camp_site"
      }
    },
    {
      "type": "node",
      "id": 2423447817,
      "lat": 47.8666026,
      "lon": -90.9682124,
      "timestamp": "2013-08-18T21:24:08Z",
      "version": 1,
      "changeset": 17402788,
      "user": "yakingman",
      "uid": 1686750,
      "tags": {
        "name": "Campsite",
        "tourism": "camp_site"
      }
    },
    {
      "type": "node",
      "id": 2423447818,
      "lat": 47.8694675,
      "lon": -90.9742532,
      "timestamp": "2013-08-18T21:24:08Z",
      "version": 1,
      "changeset": 17402788,
      "user": "yakingman",
      "uid": 1686750,
      "tags": {
        "name": "Campsite",
        "tourism": "camp_site"
      }
    },
    {
      "type": "node",
      "id": 2423447824,
      "lat": 47.8567374,
      "lon": -90.9346955,
      "timestamp": "2013-08-18T21:24:09Z",
      "version": 1,
      "changeset": 17402788,
      "user": "yakingman",
      "uid": 1686750,
      "tags": {
        "name": "Campsite",
        "tourism": "camp_site"
      }
    },
    {
      "type": "node",
      "id": 2423447843,
      "lat": 47.853487,
      "lon": -90.9193211,
      "timestamp": "2015-02-19T18:01:03Z",
      "version": 3,
      "changeset": 28961686,
      "user": "bitner",
      "uid": 47730,
      "tags": {
        "amenity": "toilets",
        "backcountry": "yes",
        "leisure": "firepit",
        "maxtents": "yes",
        "name": "Campsite",
        "openfire": "yes",
        "tents": "yes",
        "toilets:disposal": "pitlatrine",
        "tourism": "camp_site"
      }
    },
    {
      "type": "node",
      "id": 2423447844,
      "lat": 47.8500672,
      "lon": -90.916199,
      "timestamp": "2013-08-18T21:24:09Z",
      "version": 1,
      "changeset": 17402788,
      "user": "yakingman",
      "uid": 1686750,
      "tags": {
        "name": "Campsite",
        "tourism": "camp_site"
      }
    },
    {
      "type": "node",
      "id": 2423447845,
      "lat": 47.8532494,
      "lon": -90.9109633,
      "timestamp": "2013-08-18T21:24:09Z",
      "version": 1,
      "changeset": 17402788,
      "user": "yakingman",
      "uid": 1686750,
      "tags": {
        "name": "Campsite",
        "tourism": "camp_site"
      }
    },
    {
      "type": "node",
      "id": 2423447846,
      "lat": 47.8558916,
      "lon": -90.9092145,
      "timestamp": "2013-08-18T21:24:09Z",
      "version": 1,
      "changeset": 17402788,
      "user": "yakingman",
      "uid": 1686750,
      "tags": {
        "name": "Campsite",
        "tourism": "camp_site"
      }
    },
    {
      "type": "node",
      "id": 3359784446,
      "lat": 47.8745915,
      "lon": -90.8876975,
      "timestamp": "2015-02-19T18:01:03Z",
      "version": 2,
      "changeset": 28961686,
      "user": "bitner",
      "uid": 47730,
      "tags": {
        "amenity": "toilets",
        "backcountry": "yes",
        "leisure": "firepit",
        "maxtents": "yes",
        "openfire": "yes",
        "tents": "yes",
        "toilets:disposal": "pitlatrine",
        "tourism": "camp_site"
      }
    },
    {
      "type": "node",
      "id": 3359784447,
      "lat": 47.8734974,
      "lon": -90.8866101,
      "timestamp": "2015-02-19T18:01:04Z",
      "version": 2,
      "changeset": 28961686,
      "user": "bitner",
      "uid": 47730,
      "tags": {
        "amenity": "toilets",
        "backcountry": "yes",
        "leisure": "firepit",
        "maxtents": "yes",
        "openfire": "yes",
        "tents": "yes",
        "toilets:disposal": "pitlatrine",
        "tourism": "camp_site"
      }
    },
    {
      "type": "node",
      "id": 3359784462,
      "lat": 47.8873949,
      "lon": -90.8604428,
      "timestamp": "2015-02-23T20:25:36Z",
      "version": 2,
      "changeset": 29053478,
      "user": "bitner",
      "uid": 47730,
      "tags": {
        "amenity": "toilets",
        "backcountry": "yes",
        "leisure": "firepit",
        "maxtents": "yes",
        "openfire": "yes",
        "tents": "yes",
        "toilets:disposal": "pitlatrine",
        "tourism": "camp_site"
      }
    },
    {
      "type": "node",
      "id": 3359784463,
      "lat": 47.8870245,
      "lon": -90.8527445,
      "timestamp": "2015-02-23T20:25:37Z",
      "version": 2,
      "changeset": 29053478,
      "user": "bitner",
      "uid": 47730,
      "tags": {
        "amenity": "toilets",
        "backcountry": "yes",
        "leisure": "firepit",
        "maxtents": "yes",
        "openfire": "yes",
        "tents": "yes",
        "toilets:disposal": "pitlatrine",
        "tourism": "camp_site"
      }
    },
    {
      "type": "node",
      "id": 3359784464,
      "lat": 47.89063,
      "lon": -90.8551179,
      "timestamp": "2015-02-23T20:25:36Z",
      "version": 2,
      "changeset": 29053478,
      "user": "bitner",
      "uid": 47730,
      "tags": {
        "amenity": "toilets",
        "backcountry": "yes",
        "leisure": "firepit",
        "maxtents": "yes",
        "openfire": "yes",
        "tents": "yes",
        "toilets:disposal": "pitlatrine",
        "tourism": "camp_site"
      }
    },
    {
      "type": "node",
      "id": 3359784465,
      "lat": 47.8911855,
      "lon": -90.853737,
      "timestamp": "2015-02-23T20:25:36Z",
      "version": 2,
      "changeset": 29053478,
      "user": "bitner",
      "uid": 47730,
      "tags": {
        "amenity": "toilets",
        "backcountry": "yes",
        "leisure": "firepit",
        "maxtents": "yes",
        "openfire": "yes",
        "tents": "yes",
        "toilets:disposal": "pitlatrine",
        "tourism": "camp_site"
      }
    },
    {
      "type": "node",
      "id": 3359784466,
      "lat": 47.8921693,
      "lon": -90.860391,
      "timestamp": "2015-02-23T20:25:36Z",
      "version": 2,
      "changeset": 29053478,
      "user": "bitner",
      "uid": 47730,
      "tags": {
        "amenity": "toilets",
        "backcountry": "yes",
        "leisure": "firepit",
        "maxtents": "yes",
        "openfire": "yes",
        "tents": "yes",
        "toilets:disposal": "pitlatrine",
        "tourism": "camp_site"
      }
    },
    {
      "type": "node",
      "id": 3359784467,
      "lat": 47.8842464,
      "lon": -90.8746052,
      "timestamp": "2015-02-19T18:01:04Z",
      "version": 2,
      "changeset": 28961686,
      "user": "bitner",
      "uid": 47730,
      "tags": {
        "amenity": "toilets",
        "backcountry": "yes",
        "leisure": "firepit",
        "maxtents": "yes",
        "openfire": "yes",
        "tents": "yes",
        "toilets:disposal": "pitlatrine",
        "tourism": "camp_site"
      }
    },
    {
      "type": "node",
      "id": 3359784468,
      "lat": 47.893344,
      "lon": -90.8705403,
      "timestamp": "2015-02-19T18:01:04Z",
      "version": 2,
      "changeset": 28961686,
      "user": "bitner",
      "uid": 47730,
      "tags": {
        "amenity": "toilets",
        "backcountry": "yes",
        "leisure": "firepit",
        "maxtents": "yes",
        "openfire": "yes",
        "tents": "yes",
        "toilets:disposal": "pitlatrine",
        "tourism": "camp_site"
      }
    },
    {
      "type": "node",
      "id": 3359784469,
      "lat": 47.9041873,
      "lon": -90.8728101,
      "timestamp": "2015-02-19T18:01:04Z",
      "version": 2,
      "changeset": 28961686,
      "user": "bitner",
      "uid": 47730,
      "tags": {
        "amenity": "toilets",
        "backcountry": "yes",
        "leisure": "firepit",
        "maxtents": "yes",
        "openfire": "yes",
        "tents": "yes",
        "toilets:disposal": "pitlatrine",
        "tourism": "camp_site"
      }
    },
    {
      "type": "node",
      "id": 3359784470,
      "lat": 47.9050841,
      "lon": -90.8639122,
      "timestamp": "2015-02-19T18:01:04Z",
      "version": 2,
      "changeset": 28961686,
      "user": "bitner",
      "uid": 47730,
      "tags": {
        "amenity": "toilets",
        "backcountry": "yes",
        "leisure": "firepit",
        "maxtents": "yes",
        "openfire": "yes",
        "tents": "yes",
        "toilets:disposal": "pitlatrine",
        "tourism": "camp_site"
      }
    },
    {
      "type": "node",
      "id": 3359784471,
      "lat": 47.9082081,
      "lon": -90.8584492,
      "timestamp": "2015-02-19T18:01:05Z",
      "version": 2,
      "changeset": 28961686,
      "user": "bitner",
      "uid": 47730,
      "tags": {
        "amenity": "toilets",
        "backcountry": "yes",
        "leisure": "firepit",
        "maxtents": "yes",
        "openfire": "yes",
        "tents": "yes",
        "toilets:disposal": "pitlatrine",
        "tourism": "camp_site"
      }
    },
    {
      "type": "node",
      "id": 3359784472,
      "lat": 47.9154563,
      "lon": -90.856982,
      "timestamp": "2015-02-19T18:01:05Z",
      "version": 2,
      "changeset": 28961686,
      "user": "bitner",
      "uid": 47730,
      "tags": {
        "amenity": "toilets",
        "backcountry": "yes",
        "leisure": "firepit",
        "maxtents": "yes",
        "openfire": "yes",
        "tents": "yes",
        "toilets:disposal": "pitlatrine",
        "tourism": "camp_site"
      }
    },
    {
      "type": "node",
      "id": 3359784473,
      "lat": 47.9101519,
      "lon": -90.8688919,
      "timestamp": "2015-02-19T18:01:04Z",
      "version": 2,
      "changeset": 28961686,
      "user": "bitner",
      "uid": 47730,
      "tags": {
        "amenity": "toilets",
        "backcountry": "yes",
        "leisure": "firepit",
        "maxtents": "yes",
        "openfire": "yes",
        "tents": "yes",
        "toilets:disposal": "pitlatrine",
        "tourism": "camp_site"
      }
    },
    {
      "type": "node",
      "id": 3359784474,
      "lat": 47.9156877,
      "lon": -90.8716191,
      "timestamp": "2015-02-19T18:01:04Z",
      "version": 2,
      "changeset": 28961686,
      "user": "bitner",
      "uid": 47730,
      "tags": {
        "amenity": "toilets",
        "backcountry": "yes",
        "leisure": "firepit",
        "maxtents": "yes",
        "openfire": "yes",
        "tents": "yes",
        "toilets:disposal": "pitlatrine",
        "tourism": "camp_site"
      }
    },
    {
      "type": "node",
      "id": 3359784475,
      "lat": 47.9104874,
      "lon": -90.8755028,
      "timestamp": "2015-02-19T18:01:04Z",
      "version": 2,
      "changeset": 28961686,
      "user": "bitner",
      "uid": 47730,
      "tags": {
        "amenity": "toilets",
        "backcountry": "yes",
        "leisure": "firepit",
        "maxtents": "yes",
        "openfire": "yes",
        "tents": "yes",
        "toilets:disposal": "pitlatrine",
        "tourism": "camp_site"
      }
    },
    {
      "type": "node",
      "id": 3359784476,
      "lat": 47.8928522,
      "lon": -90.8830544,
      "timestamp": "2015-02-19T18:01:03Z",
      "version": 2,
      "changeset": 28961686,
      "user": "bitner",
      "uid": 47730,
      "tags": {
        "amenity": "toilets",
        "backcountry": "yes",
        "leisure": "firepit",
        "maxtents": "yes",
        "openfire": "yes",
        "tents": "yes",
        "toilets:disposal": "pitlatrine",
        "tourism": "camp_site"
      }
    },
    {
      "type": "node",
      "id": 3359784477,
      "lat": 47.8974698,
      "lon": -90.885609,
      "timestamp": "2015-02-19T18:01:04Z",
      "version": 2,
      "changeset": 28961686,
      "user": "bitner",
      "uid": 47730,
      "tags": {
        "amenity": "toilets",
        "backcountry": "yes",
        "leisure": "firepit",
        "maxtents": "yes",
        "openfire": "yes",
        "tents": "yes",
        "toilets:disposal": "pitlatrine",
        "tourism": "camp_site"
      }
    },
    {
      "type": "node",
      "id": 3359784478,
      "lat": 47.8832278,
      "lon": -90.8929103,
      "timestamp": "2015-02-19T18:01:03Z",
      "version": 2,
      "changeset": 28961686,
      "user": "bitner",
      "uid": 47730,
      "tags": {
        "amenity": "toilets",
        "backcountry": "yes",
        "leisure": "firepit",
        "maxtents": "yes",
        "openfire": "yes",
        "tents": "yes",
        "toilets:disposal": "pitlatrine",
        "tourism": "camp_site"
      }
    },
    {
      "type": "node",
      "id": 3359784479,
      "lat": 47.8860869,
      "lon": -90.8938769,
      "timestamp": "2015-02-19T18:01:05Z",
      "version": 2,
      "changeset": 28961686,
      "user": "bitner",
      "uid": 47730,
      "tags": {
        "amenity": "toilets",
        "backcountry": "yes",
        "leisure": "firepit",
        "maxtents": "yes",
        "openfire": "yes",
        "tents": "yes",
        "toilets:disposal": "pitlatrine",
        "tourism": "camp_site"
      }
    },
    {
      "type": "node",
      "id": 3359784480,
      "lat": 47.889785,
      "lon": -90.8977001,
      "timestamp": "2015-02-19T18:01:03Z",
      "version": 2,
      "changeset": 28961686,
      "user": "bitner",
      "uid": 47730,
      "tags": {
        "amenity": "toilets",
        "backcountry": "yes",
        "leisure": "firepit",
        "maxtents": "yes",
        "openfire": "yes",
        "tents": "yes",
        "toilets:disposal": "pitlatrine",
        "tourism": "camp_site"
      }
    },
    {
      "type": "node",
      "id": 3359784483,
      "lat": 47.8901786,
      "lon": -90.9041038,
      "timestamp": "2015-02-19T18:01:03Z",
      "version": 2,
      "changeset": 28961686,
      "user": "bitner",
      "uid": 47730,
      "tags": {
        "amenity": "toilets",
        "backcountry": "yes",
        "leisure": "firepit",
        "maxtents": "yes",
        "openfire": "yes",
        "tents": "yes",
        "toilets:disposal": "pitlatrine",
        "tourism": "camp_site"
      }
    },
    {
      "type": "node",
      "id": 3359784484,
      "lat": 47.8836445,
      "lon": -90.9050273,
      "timestamp": "2015-02-19T18:01:03Z",
      "version": 2,
      "changeset": 28961686,
      "user": "bitner",
      "uid": 47730,
      "tags": {
        "amenity": "toilets",
        "backcountry": "yes",
        "leisure": "firepit",
        "maxtents": "yes",
        "openfire": "yes",
        "tents": "yes",
        "toilets:disposal": "pitlatrine",
        "tourism": "camp_site"
      }
    },
    {
      "type": "node",
      "id": 3359784485,
      "lat": 47.8788693,
      "lon": -90.9050704,
      "timestamp": "2015-02-19T18:01:03Z",
      "version": 2,
      "changeset": 28961686,
      "user": "bitner",
      "uid": 47730,
      "tags": {
        "amenity": "toilets",
        "backcountry": "yes",
        "leisure": "firepit",
        "maxtents": "yes",
        "openfire": "yes",
        "tents": "yes",
        "toilets:disposal": "pitlatrine",
        "tourism": "camp_site"
      }
    },
    {
      "type": "node",
      "id": 3359784486,
      "lat": 47.8778795,
      "lon": -90.9062701,
      "timestamp": "2015-02-19T18:01:03Z",
      "version": 2,
      "changeset": 28961686,
      "user": "bitner",
      "uid": 47730,
      "tags": {
        "amenity": "toilets",
        "backcountry": "yes",
        "leisure": "firepit",
        "maxtents": "yes",
        "openfire": "yes",
        "tents": "yes",
        "toilets:disposal": "pitlatrine",
        "tourism": "camp_site"
      }
    },
    {
      "type": "node",
      "id": 3359784487,
      "lat": 47.87381,
      "lon": -90.9053121,
      "timestamp": "2015-02-19T18:01:02Z",
      "version": 2,
      "changeset": 28961686,
      "user": "bitner",
      "uid": 47730,
      "tags": {
        "amenity": "toilets",
        "backcountry": "yes",
        "leisure": "firepit",
        "maxtents": "yes",
        "openfire": "yes",
        "tents": "yes",
        "toilets:disposal": "pitlatrine",
        "tourism": "camp_site"
      }
    },
    {
      "type": "node",
      "id": 3359784488,
      "lat": 47.8725422,
      "lon": -90.9056314,
      "timestamp": "2015-02-19T18:01:02Z",
      "version": 2,
      "changeset": 28961686,
      "user": "bitner",
      "uid": 47730,
      "tags": {
        "amenity": "toilets",
        "backcountry": "yes",
        "leisure": "firepit",
        "maxtents": "yes",
        "openfire": "yes",
        "tents": "yes",
        "toilets:disposal": "pitlatrine",
        "tourism": "camp_site"
      }
    },
    {
      "type": "node",
      "id": 3359784489,
      "lat": 47.8682002,
      "lon": -90.9112584,
      "timestamp": "2015-02-19T18:01:03Z",
      "version": 2,
      "changeset": 28961686,
      "user": "bitner",
      "uid": 47730,
      "tags": {
        "amenity": "toilets",
        "backcountry": "yes",
        "leisure": "firepit",
        "maxtents": "yes",
        "openfire": "yes",
        "tents": "yes",
        "toilets:disposal": "pitlatrine",
        "tourism": "camp_site"
      }
    },
    {
      "type": "node",
      "id": 3359784490,
      "lat": 47.8413308,
      "lon": -90.9162521,
      "timestamp": "2015-07-13T20:16:24Z",
      "version": 2,
      "changeset": 32612668,
      "user": "maggot27",
      "uid": 118021,
      "tags": {
        "amenity": "toilets",
        "backcountry": "yes",
        "leisure": "firepit",
        "maxtents": "yes",
        "openfire": "yes",
        "tents": "yes",
        "toilets:disposal": "pitlatrine",
        "tourism": "camp_site"
      }
    },
    {
      "type": "node",
      "id": 3359784491,
      "lat": 47.8663862,
      "lon": -90.9054347,
      "timestamp": "2015-02-19T18:01:03Z",
      "version": 2,
      "changeset": 28961686,
      "user": "bitner",
      "uid": 47730,
      "tags": {
        "amenity": "toilets",
        "backcountry": "yes",
        "leisure": "firepit",
        "maxtents": "yes",
        "openfire": "yes",
        "tents": "yes",
        "toilets:disposal": "pitlatrine",
        "tourism": "camp_site"
      }
    },
    {
      "type": "node",
      "id": 3359784492,
      "lat": 47.8634351,
      "lon": -90.9049861,
      "timestamp": "2015-02-19T18:01:03Z",
      "version": 2,
      "changeset": 28961686,
      "user": "bitner",
      "uid": 47730,
      "tags": {
        "amenity": "toilets",
        "backcountry": "yes",
        "leisure": "firepit",
        "maxtents": "yes",
        "openfire": "yes",
        "tents": "yes",
        "toilets:disposal": "pitlatrine",
        "tourism": "camp_site"
      }
    },
    {
      "type": "node",
      "id": 3359794793,
      "lat": 47.8963576,
      "lon": -90.9022821,
      "timestamp": "2015-02-19T18:01:04Z",
      "version": 2,
      "changeset": 28961686,
      "user": "bitner",
      "uid": 47730,
      "tags": {
        "amenity": "toilets",
        "backcountry": "yes",
        "leisure": "firepit",
        "maxtents": "yes",
        "openfire": "yes",
        "tents": "yes",
        "toilets:disposal": "pitlatrine",
        "tourism": "camp_site"
      }
    },
    {
      "type": "node",
      "id": 3359794794,
      "lat": 47.9126828,
      "lon": -90.9023777,
      "timestamp": "2015-02-19T18:01:05Z",
      "version": 2,
      "changeset": 28961686,
      "user": "bitner",
      "uid": 47730,
      "tags": {
        "amenity": "toilets",
        "backcountry": "yes",
        "leisure": "firepit",
        "maxtents": "yes",
        "openfire": "yes",
        "tents": "yes",
        "toilets:disposal": "pitlatrine",
        "tourism": "camp_site"
      }
    },
    {
      "type": "node",
      "id": 3359794795,
      "lat": 47.9094735,
      "lon": -90.9046846,
      "timestamp": "2015-02-19T18:01:05Z",
      "version": 2,
      "changeset": 28961686,
      "user": "bitner",
      "uid": 47730,
      "tags": {
        "amenity": "toilets",
        "backcountry": "yes",
        "leisure": "firepit",
        "maxtents": "yes",
        "openfire": "yes",
        "tents": "yes",
        "toilets:disposal": "pitlatrine",
        "tourism": "camp_site"
      }
    },
    {
      "type": "node",
      "id": 3359794796,
      "lat": 47.8864175,
      "lon": -90.8417806,
      "timestamp": "2015-02-23T20:25:37Z",
      "version": 2,
      "changeset": 29053478,
      "user": "bitner",
      "uid": 47730,
      "tags": {
        "amenity": "toilets",
        "backcountry": "yes",
        "leisure": "firepit",
        "maxtents": "yes",
        "openfire": "yes",
        "tents": "yes",
        "toilets:disposal": "pitlatrine",
        "tourism": "camp_site"
      }
    },
    {
      "type": "node",
      "id": 3359794797,
      "lat": 47.8830373,
      "lon": -90.8375456,
      "timestamp": "2015-02-23T20:25:37Z",
      "version": 2,
      "changeset": 29053478,
      "user": "bitner",
      "uid": 47730,
      "tags": {
        "amenity": "toilets",
        "backcountry": "yes",
        "leisure": "firepit",
        "maxtents": "yes",
        "openfire": "yes",
        "tents": "yes",
        "toilets:disposal": "pitlatrine",
        "tourism": "camp_site"
      }
    },
    {
      "type": "node",
      "id": 3359794798,
      "lat": 47.8809986,
      "lon": -90.8358568,
      "timestamp": "2015-02-23T20:25:37Z",
      "version": 2,
      "changeset": 29053478,
      "user": "bitner",
      "uid": 47730,
      "tags": {
        "amenity": "toilets",
        "backcountry": "yes",
        "leisure": "firepit",
        "maxtents": "yes",
        "openfire": "yes",
        "tents": "yes",
        "toilets:disposal": "pitlatrine",
        "tourism": "camp_site"
      }
    },
    {
      "type": "node",
      "id": 3368925983,
      "lat": 47.8830608,
      "lon": -90.826592,
      "timestamp": "2015-02-23T20:25:36Z",
      "version": 1,
      "changeset": 29053478,
      "user": "bitner",
      "uid": 47730,
      "tags": {
        "amenity": "toilets",
        "backcountry": "yes",
        "leisure": "firepit",
        "maxtents": "yes",
        "openfire": "yes",
        "tents": "yes",
        "toilets:disposal": "pitlatrine",
        "tourism": "camp_site"
      }
    },
    {
      "type": "node",
      "id": 3368929319,
      "lat": 47.87939,
      "lon": -90.8390737,
      "timestamp": "2015-02-23T20:27:07Z",
      "version": 1,
      "changeset": 29053510,
      "user": "bitner",
      "uid": 47730,
      "tags": {
        "amenity": "toilets",
        "backcountry": "yes",
        "leisure": "firepit",
        "maxtents": "yes",
        "openfire": "yes",
        "tents": "yes",
        "toilets:disposal": "pitlatrine",
        "tourism": "camp_site"
      }
    },
    {
      "type": "node",
      "id": 3368929320,
      "lat": 47.875957,
      "lon": -90.837307,
      "timestamp": "2015-02-23T20:58:25Z",
      "version": 2,
      "changeset": 29054223,
      "user": "bitner",
      "uid": 47730,
      "tags": {
        "amenity": "toilets",
        "backcountry": "yes",
        "leisure": "firepit",
        "maxtents": "yes",
        "openfire": "yes",
        "source": "USFS Data and Mapbox Satellite",
        "tents": "yes",
        "toilets:disposal": "pitlatrine",
        "tourism": "camp_site"
      }
    },
    {
      "type": "node",
      "id": 3368929860,
      "lat": 47.8642448,
      "lon": -90.817405,
      "timestamp": "2015-02-23T20:58:25Z",
      "version": 2,
      "changeset": 29054223,
      "user": "bitner",
      "uid": 47730,
      "tags": {
        "amenity": "toilets",
        "backcountry": "yes",
        "leisure": "firepit",
        "maxtents": "yes",
        "openfire": "yes",
        "source": "USFS Data and Mapbox Satellite",
        "tents": "yes",
        "toilets:disposal": "pitlatrine",
        "tourism": "camp_site"
      }
    },
    {
      "type": "node",
      "id": 3369024328,
      "lat": 47.8644894,
      "lon": -90.8136352,
      "timestamp": "2015-02-23T20:58:25Z",
      "version": 1,
      "changeset": 29054223,
      "user": "bitner",
      "uid": 47730,
      "tags": {
        "amenity": "toilets",
        "backcountry": "yes",
        "leisure": "firepit",
        "maxtents": "yes",
        "openfire": "yes",
        "source": "USFS Data and Mapbox Satellite",
        "tents": "yes",
        "toilets:disposal": "pitlatrine",
        "tourism": "camp_site"
      }
    },
    {
      "type": "node",
      "id": 3369024329,
      "lat": 47.863337,
      "lon": -90.8216163,
      "timestamp": "2015-02-23T20:58:25Z",
      "version": 1,
      "changeset": 29054223,
      "user": "bitner",
      "uid": 47730,
      "tags": {
        "amenity": "toilets",
        "backcountry": "yes",
        "leisure": "firepit",
        "maxtents": "yes",
        "openfire": "yes",
        "source": "USFS Data and Mapbox Satellite",
        "tents": "yes",
        "toilets:disposal": "pitlatrine",
        "tourism": "camp_site"
      }
    },
    {
      "type": "node",
      "id": 3370798069,
      "lat": 47.8674802,
      "lon": -90.8468125,
      "timestamp": "2015-02-24T20:17:58Z",
      "version": 1,
      "changeset": 29077374,
      "user": "bitner",
      "uid": 47730,
      "tags": {
        "amenity": "toilets",
        "backcountry": "yes",
        "leisure": "firepit",
        "maxtents": "yes",
        "openfire": "yes",
        "source": "USFS Data and Mapbox Satellite",
        "tents": "yes",
        "toilets:disposal": "pitlatrine",
        "tourism": "camp_site"
      }
    },
    {
      "type": "node",
      "id": 3370798070,
      "lat": 47.8682683,
      "lon": -90.8159045,
      "timestamp": "2015-08-24T02:12:27Z",
      "version": 2,
      "changeset": 33535798,
      "user": "yakingman",
      "uid": 1686750,
      "tags": {
        "amenity": "toilets",
        "backcountry": "yes",
        "leisure": "firepit",
        "maxtents": "yes",
        "openfire": "yes",
        "source": "USFS Data and Mapbox Satellite",
        "tents": "yes",
        "toilets:disposal": "pitlatrine",
        "tourism": "camp_site"
      }
    },
    {
      "type": "node",
      "id": 3370798071,
      "lat": 47.8520713,
      "lon": -90.8195587,
      "timestamp": "2015-02-24T20:17:58Z",
      "version": 1,
      "changeset": 29077374,
      "user": "bitner",
      "uid": 47730,
      "tags": {
        "amenity": "toilets",
        "backcountry": "yes",
        "leisure": "firepit",
        "maxtents": "yes",
        "openfire": "yes",
        "source": "USFS Data and Mapbox Satellite",
        "tents": "yes",
        "toilets:disposal": "pitlatrine",
        "tourism": "camp_site"
      }
    },
    {
      "type": "node",
      "id": 3375576936,
      "lat": 47.5971878,
      "lon": -91.1071268,
      "timestamp": "2015-02-27T21:37:19Z",
      "version": 1,
      "changeset": 29145153,
      "user": "DavidF",
      "uid": 202615,
      "tags": {
        "amenity": "toilets",
        "backcountry": "yes",
        "leisure": "firepit",
        "maxtents": "yes",
        "openfire": "yes",
        "source": "USFS Data and Mapbox Satellite",
        "tents": "yes",
        "toilets:disposal": "pitlatrine",
        "tourism": "camp_site"
      }
    },
    {
      "type": "node",
      "id": 3375576937,
      "lat": 47.592581,
      "lon": -91.0996521,
      "timestamp": "2015-02-27T21:37:19Z",
      "version": 1,
      "changeset": 29145153,
      "user": "DavidF",
      "uid": 202615,
      "tags": {
        "amenity": "toilets",
        "backcountry": "yes",
        "leisure": "firepit",
        "maxtents": "yes",
        "openfire": "yes",
        "source": "USFS Data and Mapbox Satellite",
        "tents": "yes",
        "toilets:disposal": "pitlatrine",
        "tourism": "camp_site"
      }
    },
    {
      "type": "node",
      "id": 3375593780,
      "lat": 47.9116234,
      "lon": -90.7915941,
      "timestamp": "2015-02-27T21:54:44Z",
      "version": 1,
      "changeset": 29145471,
      "user": "DavidF",
      "uid": 202615,
      "tags": {
        "amenity": "toilets",
        "backcountry": "yes",
        "leisure": "firepit",
        "maxtents": "yes",
        "openfire": "yes",
        "source": "USFS Data and Mapbox Satellite",
        "tents": "yes",
        "toilets:disposal": "pitlatrine",
        "tourism": "camp_site"
      }
    },
    {
      "type": "node",
      "id": 3381719131,
      "lat": 47.8423611,
      "lon": -90.9304851,
      "timestamp": "2015-03-03T19:49:26Z",
      "version": 1,
      "changeset": 29230247,
      "user": "DavidF",
      "uid": 202615,
      "tags": {
        "amenity": "toilets",
        "backcountry": "yes",
        "leisure": "firepit",
        "maxtents": "yes",
        "openfire": "yes",
        "source": "USFS Data and Mapbox Satellite",
        "tents": "yes",
        "toilets:disposal": "pitlatrine",
        "tourism": "camp_site"
      }
    },
    {
      "type": "node",
      "id": 3381719134,
      "lat": 47.8356629,
      "lon": -90.9226493,
      "timestamp": "2015-03-03T19:49:26Z",
      "version": 1,
      "changeset": 29230247,
      "user": "DavidF",
      "uid": 202615,
      "tags": {
        "amenity": "toilets",
        "backcountry": "yes",
        "leisure": "firepit",
        "maxtents": "yes",
        "openfire": "yes",
        "source": "USFS Data and Mapbox Satellite",
        "tents": "yes",
        "toilets:disposal": "pitlatrine",
        "tourism": "camp_site"
      }
    },
    {
      "type": "node",
      "id": 3711294935,
      "lat": 47.8859003,
      "lon": -90.79523,
      "timestamp": "2015-08-24T02:09:30Z",
      "version": 1,
      "changeset": 33535798,
      "user": "yakingman",
      "uid": 1686750,
      "tags": {
        "name": "Campsite",
        "tourism": "camp_site"
      }
    },
    {
      "type": "node",
      "id": 3966908716,
      "lat": 47.8754861,
      "lon": -91.3927316,
      "timestamp": "2016-01-25T20:58:15Z",
      "version": 1,
      "changeset": 36805057,
      "user": "DavidF",
      "uid": 202615,
      "tags": {
        "amenity": "toilets",
        "backcountry": "yes",
        "leisure": "firepit",
        "maxtents": "yes",
        "openfire": "yes",
        "source": "USFS Data and Mapbox Satellite",
        "tents": "yes",
        "toilets:disposal": "pitlatrine",
        "tourism": "camp_site"
      }
    },
    {
      "type": "node",
      "id": 3966908717,
      "lat": 47.8781937,
      "lon": -91.3933223,
      "timestamp": "2016-01-25T20:58:15Z",
      "version": 1,
      "changeset": 36805057,
      "user": "DavidF",
      "uid": 202615,
      "tags": {
        "amenity": "toilets",
        "backcountry": "yes",
        "leisure": "firepit",
        "maxtents": "yes",
        "openfire": "yes",
        "source": "USFS Data and Mapbox Satellite",
        "tents": "yes",
        "toilets:disposal": "pitlatrine",
        "tourism": "camp_site"
      }
    },
    {
      "type": "node",
      "id": 3966908732,
      "lat": 47.8028159,
      "lon": -91.1699391,
      "timestamp": "2016-01-25T20:58:16Z",
      "version": 1,
      "changeset": 36805057,
      "user": "DavidF",
      "uid": 202615,
      "tags": {
        "amenity": "toilets",
        "backcountry": "yes",
        "leisure": "firepit",
        "maxtents": "yes",
        "openfire": "yes",
        "source": "USFS Data and Mapbox Satellite",
        "tents": "yes",
        "toilets:disposal": "pitlatrine",
        "tourism": "camp_site"
      }
    },
    {
      "type": "node",
      "id": 3966908733,
      "lat": 47.8041261,
      "lon": -91.164076,
      "timestamp": "2016-01-25T20:58:16Z",
      "version": 1,
      "changeset": 36805057,
      "user": "DavidF",
      "uid": 202615,
      "tags": {
        "amenity": "toilets",
        "backcountry": "yes",
        "leisure": "firepit",
        "maxtents": "yes",
        "openfire": "yes",
        "source": "USFS Data and Mapbox Satellite",
        "tents": "yes",
        "toilets:disposal": "pitlatrine",
        "tourism": "camp_site"
      }
    },
    {
      "type": "node",
      "id": 3966908734,
      "lat": 47.8033168,
      "lon": -91.1571038,
      "timestamp": "2016-01-25T20:58:16Z",
      "version": 1,
      "changeset": 36805057,
      "user": "DavidF",
      "uid": 202615,
      "tags": {
        "amenity": "toilets",
        "backcountry": "yes",
        "leisure": "firepit",
        "maxtents": "yes",
        "openfire": "yes",
        "source": "USFS Data and Mapbox Satellite",
        "tents": "yes",
        "toilets:disposal": "pitlatrine",
        "tourism": "camp_site"
      }
    },
    {
      "type": "node",
      "id": 3966908735,
      "lat": 47.8035511,
      "lon": -91.1466933,
      "timestamp": "2016-01-25T20:58:16Z",
      "version": 1,
      "changeset": 36805057,
      "user": "DavidF",
      "uid": 202615,
      "tags": {
        "amenity": "toilets",
        "backcountry": "yes",
        "leisure": "firepit",
        "maxtents": "yes",
        "openfire": "yes",
        "source": "USFS Data and Mapbox Satellite",
        "tents": "yes",
        "toilets:disposal": "pitlatrine",
        "tourism": "camp_site"
      }
    },
    {
      "type": "node",
      "id": 3966908736,
      "lat": 47.8009636,
      "lon": -91.1331949,
      "timestamp": "2016-01-25T20:58:16Z",
      "version": 1,
      "changeset": 36805057,
      "user": "DavidF",
      "uid": 202615,
      "tags": {
        "amenity": "toilets",
        "backcountry": "yes",
        "leisure": "firepit",
        "maxtents": "yes",
        "openfire": "yes",
        "source": "USFS Data and Mapbox Satellite",
        "tents": "yes",
        "toilets:disposal": "pitlatrine",
        "tourism": "camp_site"
      }
    },
    {
      "type": "node",
      "id": 3966908737,
      "lat": 47.8010359,
      "lon": -91.1316866,
      "timestamp": "2016-01-25T20:58:16Z",
      "version": 1,
      "changeset": 36805057,
      "user": "DavidF",
      "uid": 202615,
      "tags": {
        "amenity": "toilets",
        "backcountry": "yes",
        "leisure": "firepit",
        "maxtents": "yes",
        "openfire": "yes",
        "source": "USFS Data and Mapbox Satellite",
        "tents": "yes",
        "toilets:disposal": "pitlatrine",
        "tourism": "camp_site"
      }
    },
    {
      "type": "node",
      "id": 3966908738,
      "lat": 47.8033424,
      "lon": -91.132009,
      "timestamp": "2016-01-25T20:58:16Z",
      "version": 1,
      "changeset": 36805057,
      "user": "DavidF",
      "uid": 202615,
      "tags": {
        "amenity": "toilets",
        "backcountry": "yes",
        "leisure": "firepit",
        "maxtents": "yes",
        "openfire": "yes",
        "source": "USFS Data and Mapbox Satellite",
        "tents": "yes",
        "toilets:disposal": "pitlatrine",
        "tourism": "camp_site"
      }
    },
    {
      "type": "node",
      "id": 3966908739,
      "lat": 47.8064048,
      "lon": -91.1291135,
      "timestamp": "2016-01-25T20:58:16Z",
      "version": 1,
      "changeset": 36805057,
      "user": "DavidF",
      "uid": 202615,
      "tags": {
        "amenity": "toilets",
        "backcountry": "yes",
        "leisure": "firepit",
        "maxtents": "yes",
        "openfire": "yes",
        "source": "USFS Data and Mapbox Satellite",
        "tents": "yes",
        "toilets:disposal": "pitlatrine",
        "tourism": "camp_site"
      }
    },
    {
      "type": "node",
      "id": 3966908740,
      "lat": 47.806703,
      "lon": -91.125531,
      "timestamp": "2016-01-25T20:58:17Z",
      "version": 1,
      "changeset": 36805057,
      "user": "DavidF",
      "uid": 202615,
      "tags": {
        "amenity": "toilets",
        "backcountry": "yes",
        "leisure": "firepit",
        "maxtents": "yes",
        "openfire": "yes",
        "source": "USFS Data and Mapbox Satellite",
        "tents": "yes",
        "toilets:disposal": "pitlatrine",
        "tourism": "camp_site"
      }
    },
    {
      "type": "node",
      "id": 3966908741,
      "lat": 47.8095952,
      "lon": -91.1242369,
      "timestamp": "2016-01-25T20:58:17Z",
      "version": 1,
      "changeset": 36805057,
      "user": "DavidF",
      "uid": 202615,
      "tags": {
        "amenity": "toilets",
        "backcountry": "yes",
        "leisure": "firepit",
        "maxtents": "yes",
        "openfire": "yes",
        "source": "USFS Data and Mapbox Satellite",
        "tents": "yes",
        "toilets:disposal": "pitlatrine",
        "tourism": "camp_site"
      }
    },
    {
      "type": "node",
      "id": 3966908745,
      "lat": 47.8131915,
      "lon": -91.1241777,
      "timestamp": "2016-01-25T20:58:17Z",
      "version": 1,
      "changeset": 36805057,
      "user": "DavidF",
      "uid": 202615,
      "tags": {
        "amenity": "toilets",
        "backcountry": "yes",
        "leisure": "firepit",
        "maxtents": "yes",
        "openfire": "yes",
        "source": "USFS Data and Mapbox Satellite",
        "tents": "yes",
        "toilets:disposal": "pitlatrine",
        "tourism": "camp_site"
      }
    },
    {
      "type": "node",
      "id": 3966908746,
      "lat": 47.7904112,
      "lon": -91.1428314,
      "timestamp": "2016-01-25T20:58:17Z",
      "version": 1,
      "changeset": 36805057,
      "user": "DavidF",
      "uid": 202615,
      "tags": {
        "amenity": "toilets",
        "backcountry": "yes",
        "leisure": "firepit",
        "maxtents": "yes",
        "openfire": "yes",
        "source": "USFS Data and Mapbox Satellite",
        "tents": "yes",
        "toilets:disposal": "pitlatrine",
        "tourism": "camp_site"
      }
    },
    {
      "type": "node",
      "id": 3966908747,
      "lat": 47.7856532,
      "lon": -91.1403937,
      "timestamp": "2016-01-25T20:58:17Z",
      "version": 1,
      "changeset": 36805057,
      "user": "DavidF",
      "uid": 202615,
      "tags": {
        "amenity": "toilets",
        "backcountry": "yes",
        "leisure": "firepit",
        "maxtents": "yes",
        "openfire": "yes",
        "source": "USFS Data and Mapbox Satellite",
        "tents": "yes",
        "toilets:disposal": "pitlatrine",
        "tourism": "camp_site"
      }
    },
    {
      "type": "node",
      "id": 3966908748,
      "lat": 47.7869074,
      "lon": -91.1302737,
      "timestamp": "2016-01-25T20:58:17Z",
      "version": 1,
      "changeset": 36805057,
      "user": "DavidF",
      "uid": 202615,
      "tags": {
        "amenity": "toilets",
        "backcountry": "yes",
        "leisure": "firepit",
        "maxtents": "yes",
        "openfire": "yes",
        "source": "USFS Data and Mapbox Satellite",
        "tents": "yes",
        "toilets:disposal": "pitlatrine",
        "tourism": "camp_site"
      }
    },
    {
      "type": "node",
      "id": 3966908749,
      "lat": 47.7854534,
      "lon": -91.1258014,
      "timestamp": "2016-01-25T20:58:17Z",
      "version": 1,
      "changeset": 36805057,
      "user": "DavidF",
      "uid": 202615,
      "tags": {
        "amenity": "toilets",
        "backcountry": "yes",
        "leisure": "firepit",
        "maxtents": "yes",
        "openfire": "yes",
        "source": "USFS Data and Mapbox Satellite",
        "tents": "yes",
        "toilets:disposal": "pitlatrine",
        "tourism": "camp_site"
      }
    },
    {
      "type": "node",
      "id": 3966908750,
      "lat": 47.7903866,
      "lon": -91.1267761,
      "timestamp": "2016-01-25T20:58:18Z",
      "version": 1,
      "changeset": 36805057,
      "user": "DavidF",
      "uid": 202615,
      "tags": {
        "amenity": "toilets",
        "backcountry": "yes",
        "leisure": "firepit",
        "maxtents": "yes",
        "openfire": "yes",
        "source": "USFS Data and Mapbox Satellite",
        "tents": "yes",
        "toilets:disposal": "pitlatrine",
        "tourism": "camp_site"
      }
    },
    {
      "type": "node",
      "id": 3966908751,
      "lat": 47.7959299,
      "lon": -91.1262307,
      "timestamp": "2016-01-25T20:58:18Z",
      "version": 1,
      "changeset": 36805057,
      "user": "DavidF",
      "uid": 202615,
      "tags": {
        "amenity": "toilets",
        "backcountry": "yes",
        "leisure": "firepit",
        "maxtents": "yes",
        "openfire": "yes",
        "source": "USFS Data and Mapbox Satellite",
        "tents": "yes",
        "toilets:disposal": "pitlatrine",
        "tourism": "camp_site"
      }
    },
    {
      "type": "node",
      "id": 3966908752,
      "lat": 47.7944282,
      "lon": -91.1160804,
      "timestamp": "2016-01-25T20:58:18Z",
      "version": 1,
      "changeset": 36805057,
      "user": "DavidF",
      "uid": 202615,
      "tags": {
        "amenity": "toilets",
        "backcountry": "yes",
        "leisure": "firepit",
        "maxtents": "yes",
        "openfire": "yes",
        "source": "USFS Data and Mapbox Satellite",
        "tents": "yes",
        "toilets:disposal": "pitlatrine",
        "tourism": "camp_site"
      }
    },
    {
      "type": "node",
      "id": 3966908753,
      "lat": 47.7906932,
      "lon": -91.1142776,
      "timestamp": "2016-01-25T20:58:18Z",
      "version": 1,
      "changeset": 36805057,
      "user": "DavidF",
      "uid": 202615,
      "tags": {
        "amenity": "toilets",
        "backcountry": "yes",
        "leisure": "firepit",
        "maxtents": "yes",
        "openfire": "yes",
        "source": "USFS Data and Mapbox Satellite",
        "tents": "yes",
        "toilets:disposal": "pitlatrine",
        "tourism": "camp_site"
      }
    },
    {
      "type": "node",
      "id": 3966908754,
      "lat": 47.8026798,
      "lon": -91.1271321,
      "timestamp": "2016-01-25T20:58:18Z",
      "version": 1,
      "changeset": 36805057,
      "user": "DavidF",
      "uid": 202615,
      "tags": {
        "amenity": "toilets",
        "backcountry": "yes",
        "leisure": "firepit",
        "maxtents": "yes",
        "openfire": "yes",
        "source": "USFS Data and Mapbox Satellite",
        "tents": "yes",
        "toilets:disposal": "pitlatrine",
        "tourism": "camp_site"
      }
    },
    {
      "type": "node",
      "id": 3966909076,
      "lat": 47.7988541,
      "lon": -91.2140485,
      "timestamp": "2016-01-25T20:58:20Z",
      "version": 1,
      "changeset": 36805057,
      "user": "DavidF",
      "uid": 202615,
      "tags": {
        "amenity": "toilets",
        "backcountry": "yes",
        "leisure": "firepit",
        "maxtents": "yes",
        "openfire": "yes",
        "source": "USFS Data and Mapbox Satellite",
        "tents": "yes",
        "toilets:disposal": "pitlatrine",
        "tourism": "camp_site"
      }
    },
    {
      "type": "node",
      "id": 3966909133,
      "lat": 47.8040151,
      "lon": -91.2330883,
      "timestamp": "2016-01-25T20:58:21Z",
      "version": 1,
      "changeset": 36805057,
      "user": "DavidF",
      "uid": 202615,
      "tags": {
        "amenity": "toilets",
        "backcountry": "yes",
        "leisure": "firepit",
        "maxtents": "yes",
        "openfire": "yes",
        "source": "USFS Data and Mapbox Satellite",
        "tents": "yes",
        "toilets:disposal": "pitlatrine",
        "tourism": "camp_site"
      }
    },
    {
      "type": "node",
      "id": 3966909145,
      "lat": 47.8086806,
      "lon": -91.2514151,
      "timestamp": "2016-01-25T20:58:22Z",
      "version": 1,
      "changeset": 36805057,
      "user": "DavidF",
      "uid": 202615,
      "tags": {
        "amenity": "toilets",
        "backcountry": "yes",
        "leisure": "firepit",
        "maxtents": "yes",
        "openfire": "yes",
        "source": "USFS Data and Mapbox Satellite",
        "tents": "yes",
        "toilets:disposal": "pitlatrine",
        "tourism": "camp_site"
      }
    },
    {
      "type": "node",
      "id": 3966909146,
      "lat": 47.8080814,
      "lon": -91.2646128,
      "timestamp": "2016-01-25T20:58:22Z",
      "version": 1,
      "changeset": 36805057,
      "user": "DavidF",
      "uid": 202615,
      "tags": {
        "amenity": "toilets",
        "backcountry": "yes",
        "leisure": "firepit",
        "maxtents": "yes",
        "openfire": "yes",
        "source": "USFS Data and Mapbox Satellite",
        "tents": "yes",
        "toilets:disposal": "pitlatrine",
        "tourism": "camp_site"
      }
    },
    {
      "type": "node",
      "id": 3966909160,
      "lat": 47.8113197,
      "lon": -91.2676743,
      "timestamp": "2016-01-25T20:58:22Z",
      "version": 1,
      "changeset": 36805057,
      "user": "DavidF",
      "uid": 202615,
      "tags": {
        "amenity": "toilets",
        "backcountry": "yes",
        "leisure": "firepit",
        "maxtents": "yes",
        "openfire": "yes",
        "source": "USFS Data and Mapbox Satellite",
        "tents": "yes",
        "toilets:disposal": "pitlatrine",
        "tourism": "camp_site"
      }
    },
    {
      "type": "node",
      "id": 3966909161,
      "lat": 47.8122794,
      "lon": -91.2685934,
      "timestamp": "2016-01-25T20:58:22Z",
      "version": 1,
      "changeset": 36805057,
      "user": "DavidF",
      "uid": 202615,
      "tags": {
        "amenity": "toilets",
        "backcountry": "yes",
        "leisure": "firepit",
        "maxtents": "yes",
        "openfire": "yes",
        "source": "USFS Data and Mapbox Satellite",
        "tents": "yes",
        "toilets:disposal": "pitlatrine",
        "tourism": "camp_site"
      }
    },
    {
      "type": "node",
      "id": 3966909162,
      "lat": 47.8178451,
      "lon": -91.2741651,
      "timestamp": "2016-01-25T20:58:22Z",
      "version": 1,
      "changeset": 36805057,
      "user": "DavidF",
      "uid": 202615,
      "tags": {
        "amenity": "toilets",
        "backcountry": "yes",
        "leisure": "firepit",
        "maxtents": "yes",
        "openfire": "yes",
        "source": "USFS Data and Mapbox Satellite",
        "tents": "yes",
        "toilets:disposal": "pitlatrine",
        "tourism": "camp_site"
      }
    },
    {
      "type": "node",
      "id": 3966909163,
      "lat": 47.8146841,
      "lon": -91.2808992,
      "timestamp": "2016-01-25T20:58:22Z",
      "version": 1,
      "changeset": 36805057,
      "user": "DavidF",
      "uid": 202615,
      "tags": {
        "amenity": "toilets",
        "backcountry": "yes",
        "leisure": "firepit",
        "maxtents": "yes",
        "openfire": "yes",
        "source": "USFS Data and Mapbox Satellite",
        "tents": "yes",
        "toilets:disposal": "pitlatrine",
        "tourism": "camp_site"
      }
    },
    {
      "type": "node",
      "id": 3966909164,
      "lat": 47.8137122,
      "lon": -91.2841809,
      "timestamp": "2016-01-25T20:58:23Z",
      "version": 1,
      "changeset": 36805057,
      "user": "DavidF",
      "uid": 202615,
      "tags": {
        "amenity": "toilets",
        "backcountry": "yes",
        "leisure": "firepit",
        "maxtents": "yes",
        "openfire": "yes",
        "source": "USFS Data and Mapbox Satellite",
        "tents": "yes",
        "toilets:disposal": "pitlatrine",
        "tourism": "camp_site"
      }
    },
    {
      "type": "node",
      "id": 3966909165,
      "lat": 47.814626,
      "lon": -91.2972644,
      "timestamp": "2016-01-25T20:58:23Z",
      "version": 1,
      "changeset": 36805057,
      "user": "DavidF",
      "uid": 202615,
      "tags": {
        "amenity": "toilets",
        "backcountry": "yes",
        "leisure": "firepit",
        "maxtents": "yes",
        "openfire": "yes",
        "source": "USFS Data and Mapbox Satellite",
        "tents": "yes",
        "toilets:disposal": "pitlatrine",
        "tourism": "camp_site"
      }
    },
    {
      "type": "node",
      "id": 3966909166,
      "lat": 47.8096416,
      "lon": -91.3050379,
      "timestamp": "2016-01-25T20:58:23Z",
      "version": 1,
      "changeset": 36805057,
      "user": "DavidF",
      "uid": 202615,
      "tags": {
        "amenity": "toilets",
        "backcountry": "yes",
        "leisure": "firepit",
        "maxtents": "yes",
        "openfire": "yes",
        "source": "USFS Data and Mapbox Satellite",
        "tents": "yes",
        "toilets:disposal": "pitlatrine",
        "tourism": "camp_site"
      }
    },
    {
      "type": "node",
      "id": 3966909167,
      "lat": 47.8087217,
      "lon": -91.3134782,
      "timestamp": "2016-01-25T20:58:23Z",
      "version": 1,
      "changeset": 36805057,
      "user": "DavidF",
      "uid": 202615,
      "tags": {
        "amenity": "toilets",
        "backcountry": "yes",
        "leisure": "firepit",
        "maxtents": "yes",
        "openfire": "yes",
        "source": "USFS Data and Mapbox Satellite",
        "tents": "yes",
        "toilets:disposal": "pitlatrine",
        "tourism": "camp_site"
      }
    },
    {
      "type": "node",
      "id": 3966909168,
      "lat": 47.805675,
      "lon": -91.3091177,
      "timestamp": "2016-01-25T20:58:23Z",
      "version": 1,
      "changeset": 36805057,
      "user": "DavidF",
      "uid": 202615,
      "tags": {
        "amenity": "toilets",
        "backcountry": "yes",
        "leisure": "firepit",
        "maxtents": "yes",
        "openfire": "yes",
        "source": "USFS Data and Mapbox Satellite",
        "tents": "yes",
        "toilets:disposal": "pitlatrine",
        "tourism": "camp_site"
      }
    },
    {
      "type": "node",
      "id": 3966909169,
      "lat": 47.8047953,
      "lon": -91.3076888,
      "timestamp": "2016-01-25T20:58:23Z",
      "version": 1,
      "changeset": 36805057,
      "user": "DavidF",
      "uid": 202615,
      "tags": {
        "amenity": "toilets",
        "backcountry": "yes",
        "leisure": "firepit",
        "maxtents": "yes",
        "openfire": "yes",
        "source": "USFS Data and Mapbox Satellite",
        "tents": "yes",
        "toilets:disposal": "pitlatrine",
        "tourism": "camp_site"
      }
    },
    {
      "type": "node",
      "id": 3966909170,
      "lat": 47.8024419,
      "lon": -91.2990503,
      "timestamp": "2016-01-25T20:58:23Z",
      "version": 1,
      "changeset": 36805057,
      "user": "DavidF",
      "uid": 202615,
      "tags": {
        "amenity": "toilets",
        "backcountry": "yes",
        "leisure": "firepit",
        "maxtents": "yes",
        "openfire": "yes",
        "source": "USFS Data and Mapbox Satellite",
        "tents": "yes",
        "toilets:disposal": "pitlatrine",
        "tourism": "camp_site"
      }
    },
    {
      "type": "node",
      "id": 3966909171,
      "lat": 47.8037776,
      "lon": -91.2795795,
      "timestamp": "2016-01-25T20:58:24Z",
      "version": 1,
      "changeset": 36805057,
      "user": "DavidF",
      "uid": 202615,
      "tags": {
        "amenity": "toilets",
        "backcountry": "yes",
        "leisure": "firepit",
        "maxtents": "yes",
        "openfire": "yes",
        "source": "USFS Data and Mapbox Satellite",
        "tents": "yes",
        "toilets:disposal": "pitlatrine",
        "tourism": "camp_site"
      }
    },
    {
      "type": "node",
      "id": 3966910774,
      "lat": 47.7718152,
      "lon": -91.2900298,
      "timestamp": "2016-01-25T21:02:24Z",
      "version": 1,
      "changeset": 36805159,
      "user": "DavidF",
      "uid": 202615,
      "tags": {
        "amenity": "toilets",
        "backcountry": "yes",
        "leisure": "firepit",
        "maxtents": "yes",
        "openfire": "yes",
        "source": "USFS Data and Mapbox Satellite",
        "tents": "yes",
        "toilets:disposal": "pitlatrine",
        "tourism": "camp_site"
      }
    },
    {
      "type": "node",
      "id": 3966910785,
      "lat": 47.7763981,
      "lon": -91.2634087,
      "timestamp": "2016-01-25T21:02:24Z",
      "version": 1,
      "changeset": 36805159,
      "user": "DavidF",
      "uid": 202615,
      "tags": {
        "amenity": "toilets",
        "backcountry": "yes",
        "leisure": "firepit",
        "maxtents": "yes",
        "openfire": "yes",
        "source": "USFS Data and Mapbox Satellite",
        "tents": "yes",
        "toilets:disposal": "pitlatrine",
        "tourism": "camp_site"
      }
    },
    {
      "type": "node",
      "id": 3966910786,
      "lat": 47.7703667,
      "lon": -91.2430244,
      "timestamp": "2016-01-25T21:02:24Z",
      "version": 1,
      "changeset": 36805159,
      "user": "DavidF",
      "uid": 202615,
      "tags": {
        "amenity": "toilets",
        "backcountry": "yes",
        "leisure": "firepit",
        "maxtents": "yes",
        "openfire": "yes",
        "source": "USFS Data and Mapbox Satellite",
        "tents": "yes",
        "toilets:disposal": "pitlatrine",
        "tourism": "camp_site"
      }
    },
    {
      "type": "node",
      "id": 3967467586,
      "lat": 47.8683434,
      "lon": -91.4012357,
      "timestamp": "2016-01-26T04:18:42Z",
      "version": 1,
      "changeset": 36809199,
      "user": "DavidF",
      "uid": 202615,
      "tags": {
        "amenity": "toilets",
        "backcountry": "yes",
        "leisure": "firepit",
        "maxtents": "yes",
        "openfire": "yes",
        "source": "USFS Data and Mapbox Satellite",
        "tents": "yes",
        "toilets:disposal": "pitlatrine",
        "tourism": "camp_site"
      }
    },
    {
      "type": "node",
      "id": 3967467600,
      "lat": 47.8729081,
      "lon": -91.4022174,
      "timestamp": "2016-01-26T04:18:42Z",
      "version": 1,
      "changeset": 36809199,
      "user": "DavidF",
      "uid": 202615,
      "tags": {
        "amenity": "toilets",
        "backcountry": "yes",
        "leisure": "firepit",
        "maxtents": "yes",
        "openfire": "yes",
        "source": "USFS Data and Mapbox Satellite",
        "tents": "yes",
        "toilets:disposal": "pitlatrine",
        "tourism": "camp_site"
      }
    },
    {
      "type": "node",
      "id": 3967467603,
      "lat": 47.861995,
      "lon": -91.3856601,
      "timestamp": "2016-01-26T04:18:43Z",
      "version": 1,
      "changeset": 36809199,
      "user": "DavidF",
      "uid": 202615,
      "tags": {
        "amenity": "toilets",
        "backcountry": "yes",
        "leisure": "firepit",
        "maxtents": "yes",
        "openfire": "yes",
        "source": "USFS Data and Mapbox Satellite",
        "tents": "yes",
        "toilets:disposal": "pitlatrine",
        "tourism": "camp_site"
      }
    },
    {
      "type": "node",
      "id": 3967467622,
      "lat": 47.8616495,
      "lon": -91.3823315,
      "timestamp": "2016-01-26T04:18:43Z",
      "version": 1,
      "changeset": 36809199,
      "user": "DavidF",
      "uid": 202615,
      "tags": {
        "amenity": "toilets",
        "backcountry": "yes",
        "leisure": "firepit",
        "maxtents": "yes",
        "openfire": "yes",
        "source": "USFS Data and Mapbox Satellite",
        "tents": "yes",
        "toilets:disposal": "pitlatrine",
        "tourism": "camp_site"
      }
    },
    {
      "type": "node",
      "id": 3967481193,
      "lat": 47.8063578,
      "lon": -91.4055896,
      "timestamp": "2016-01-26T04:48:05Z",
      "version": 1,
      "changeset": 36809439,
      "user": "DavidF",
      "uid": 202615,
      "tags": {
        "amenity": "toilets",
        "backcountry": "yes",
        "leisure": "firepit",
        "maxtents": "yes",
        "openfire": "yes",
        "source": "USFS Data and Mapbox Satellite",
        "tents": "yes",
        "toilets:disposal": "pitlatrine",
        "tourism": "camp_site"
      }
    },
    {
      "type": "node",
      "id": 3967481194,
      "lat": 47.8139054,
      "lon": -91.3834614,
      "timestamp": "2016-01-26T04:48:05Z",
      "version": 1,
      "changeset": 36809439,
      "user": "DavidF",
      "uid": 202615,
      "tags": {
        "amenity": "toilets",
        "backcountry": "yes",
        "leisure": "firepit",
        "maxtents": "yes",
        "openfire": "yes",
        "source": "USFS Data and Mapbox Satellite",
        "tents": "yes",
        "toilets:disposal": "pitlatrine",
        "tourism": "camp_site"
      }
    },
    {
      "type": "node",
      "id": 3967481195,
      "lat": 47.816654,
      "lon": -91.3720512,
      "timestamp": "2016-01-26T04:48:05Z",
      "version": 1,
      "changeset": 36809439,
      "user": "DavidF",
      "uid": 202615,
      "tags": {
        "amenity": "toilets",
        "backcountry": "yes",
        "leisure": "firepit",
        "maxtents": "yes",
        "openfire": "yes",
        "source": "USFS Data and Mapbox Satellite",
        "tents": "yes",
        "toilets:disposal": "pitlatrine",
        "tourism": "camp_site"
      }
    },
    {
      "type": "node",
      "id": 3967481196,
      "lat": 47.8180588,
      "lon": -91.3696265,
      "timestamp": "2016-01-26T04:48:05Z",
      "version": 1,
      "changeset": 36809439,
      "user": "DavidF",
      "uid": 202615,
      "tags": {
        "amenity": "toilets",
        "backcountry": "yes",
        "leisure": "firepit",
        "maxtents": "yes",
        "openfire": "yes",
        "source": "USFS Data and Mapbox Satellite",
        "tents": "yes",
        "toilets:disposal": "pitlatrine",
        "tourism": "camp_site"
      }
    },
    {
      "type": "node",
      "id": 3967481218,
      "lat": 47.8024376,
      "lon": -91.3536942,
      "timestamp": "2016-01-26T04:48:06Z",
      "version": 1,
      "changeset": 36809439,
      "user": "DavidF",
      "uid": 202615,
      "tags": {
        "amenity": "toilets",
        "backcountry": "yes",
        "leisure": "firepit",
        "maxtents": "yes",
        "openfire": "yes",
        "source": "USFS Data and Mapbox Satellite",
        "tents": "yes",
        "toilets:disposal": "pitlatrine",
        "tourism": "camp_site"
      }
    },
    {
      "type": "node",
      "id": 3967481219,
      "lat": 47.803623,
      "lon": -91.350674,
      "timestamp": "2016-01-26T04:48:06Z",
      "version": 1,
      "changeset": 36809439,
      "user": "DavidF",
      "uid": 202615,
      "tags": {
        "amenity": "toilets",
        "backcountry": "yes",
        "leisure": "firepit",
        "maxtents": "yes",
        "openfire": "yes",
        "source": "USFS Data and Mapbox Satellite",
        "tents": "yes",
        "toilets:disposal": "pitlatrine",
        "tourism": "camp_site"
      }
    },
    {
      "type": "node",
      "id": 3967481224,
      "lat": 47.8033168,
      "lon": -91.3366997,
      "timestamp": "2016-01-26T04:48:06Z",
      "version": 1,
      "changeset": 36809439,
      "user": "DavidF",
      "uid": 202615,
      "tags": {
        "amenity": "toilets",
        "backcountry": "yes",
        "leisure": "firepit",
        "maxtents": "yes",
        "openfire": "yes",
        "source": "USFS Data and Mapbox Satellite",
        "tents": "yes",
        "toilets:disposal": "pitlatrine",
        "tourism": "camp_site"
      }
    },
    {
      "type": "node",
      "id": 3967481225,
      "lat": 47.807943,
      "lon": -91.3198608,
      "timestamp": "2016-01-26T04:48:06Z",
      "version": 1,
      "changeset": 36809439,
      "user": "DavidF",
      "uid": 202615,
      "tags": {
        "amenity": "toilets",
        "backcountry": "yes",
        "leisure": "firepit",
        "maxtents": "yes",
        "openfire": "yes",
        "source": "USFS Data and Mapbox Satellite",
        "tents": "yes",
        "toilets:disposal": "pitlatrine",
        "tourism": "camp_site"
      }
    },
    {
      "type": "node",
      "id": 3967481658,
      "lat": 47.7803307,
      "lon": -90.7782531,
      "timestamp": "2016-01-26T04:48:08Z",
      "version": 1,
      "changeset": 36809439,
      "user": "DavidF",
      "uid": 202615,
      "tags": {
        "amenity": "toilets",
        "backcountry": "yes",
        "leisure": "firepit",
        "maxtents": "yes",
        "openfire": "yes",
        "source": "USFS Data and Mapbox Satellite",
        "tents": "yes",
        "toilets:disposal": "pitlatrine",
        "tourism": "camp_site"
      }
    },
    {
      "type": "node",
      "id": 3967485948,
      "lat": 47.8972903,
      "lon": -90.7178766,
      "timestamp": "2016-01-26T05:07:35Z",
      "version": 1,
      "changeset": 36809551,
      "user": "DavidF",
      "uid": 202615,
      "tags": {
        "amenity": "toilets",
        "backcountry": "yes",
        "leisure": "firepit",
        "maxtents": "yes",
        "openfire": "yes",
        "source": "USFS Data and Mapbox Satellite",
        "tents": "yes",
        "toilets:disposal": "pitlatrine",
        "tourism": "camp_site"
      }
    },
    {
      "type": "node",
      "id": 3967485956,
      "lat": 47.8995777,
      "lon": -90.7269317,
      "timestamp": "2016-01-26T05:07:35Z",
      "version": 1,
      "changeset": 36809551,
      "user": "DavidF",
      "uid": 202615,
      "tags": {
        "amenity": "toilets",
        "backcountry": "yes",
        "leisure": "firepit",
        "maxtents": "yes",
        "openfire": "yes",
        "source": "USFS Data and Mapbox Satellite",
        "tents": "yes",
        "toilets:disposal": "pitlatrine",
        "tourism": "camp_site"
      }
    },
    {
      "type": "node",
      "id": 3967492884,
      "lat": 47.9204313,
      "lon": -90.7355925,
      "timestamp": "2016-01-26T05:07:35Z",
      "version": 1,
      "changeset": 36809551,
      "user": "DavidF",
      "uid": 202615,
      "tags": {
        "amenity": "toilets",
        "backcountry": "yes",
        "leisure": "firepit",
        "maxtents": "yes",
        "openfire": "yes",
        "source": "USFS Data and Mapbox Satellite",
        "tents": "yes",
        "toilets:disposal": "pitlatrine",
        "tourism": "camp_site"
      }
    },
    {
      "type": "node",
      "id": 3967492899,
      "lat": 47.9232695,
      "lon": -90.7091165,
      "timestamp": "2016-01-26T05:07:36Z",
      "version": 1,
      "changeset": 36809551,
      "user": "DavidF",
      "uid": 202615,
      "tags": {
        "amenity": "toilets",
        "backcountry": "yes",
        "leisure": "firepit",
        "maxtents": "yes",
        "openfire": "yes",
        "source": "USFS Data and Mapbox Satellite",
        "tents": "yes",
        "toilets:disposal": "pitlatrine",
        "tourism": "camp_site"
      }
    },
    {
      "type": "node",
      "id": 3967492900,
      "lat": 47.9197986,
      "lon": -90.7489875,
      "timestamp": "2016-01-26T05:07:36Z",
      "version": 1,
      "changeset": 36809551,
      "user": "DavidF",
      "uid": 202615,
      "tags": {
        "amenity": "toilets",
        "backcountry": "yes",
        "leisure": "firepit",
        "maxtents": "yes",
        "openfire": "yes",
        "source": "USFS Data and Mapbox Satellite",
        "tents": "yes",
        "toilets:disposal": "pitlatrine",
        "tourism": "camp_site"
      }
    },
    {
      "type": "node",
      "id": 3967499295,
      "lat": 47.9305683,
      "lon": -90.7416919,
      "timestamp": "2016-01-26T05:17:21Z",
      "version": 1,
      "changeset": 36809596,
      "user": "DavidF",
      "uid": 202615,
      "tags": {
        "amenity": "toilets",
        "backcountry": "yes",
        "leisure": "firepit",
        "maxtents": "yes",
        "openfire": "yes",
        "source": "USFS Data and Mapbox Satellite",
        "tents": "yes",
        "toilets:disposal": "pitlatrine",
        "tourism": "camp_site"
      }
    },
    {
      "type": "node",
      "id": 3967499296,
      "lat": 47.9347088,
      "lon": -90.746021,
      "timestamp": "2016-01-26T05:17:21Z",
      "version": 1,
      "changeset": 36809596,
      "user": "DavidF",
      "uid": 202615,
      "tags": {
        "amenity": "toilets",
        "backcountry": "yes",
        "leisure": "firepit",
        "maxtents": "yes",
        "openfire": "yes",
        "source": "USFS Data and Mapbox Satellite",
        "tents": "yes",
        "toilets:disposal": "pitlatrine",
        "tourism": "camp_site"
      }
    },
    {
      "type": "node",
      "id": 3967499297,
      "lat": 47.9366819,
      "lon": -90.7648984,
      "timestamp": "2022-04-20T04:37:55Z",
      "version": 2,
      "changeset": 119932306,
      "user": "Bryon Peterson",
      "uid": 15423985,
      "tags": {
        "backcountry": "yes",
        "leisure": "firepit",
        "maxtents": "yes",
        "openfire": "yes",
        "source": "USFS Data and Mapbox Satellite",
        "tents": "yes",
        "tourism": "camp_site"
      }
    },
    {
      "type": "node",
      "id": 3967499309,
      "lat": 47.9390718,
      "lon": -90.7412681,
      "timestamp": "2016-01-26T05:17:22Z",
      "version": 1,
      "changeset": 36809596,
      "user": "DavidF",
      "uid": 202615,
      "tags": {
        "amenity": "toilets",
        "backcountry": "yes",
        "leisure": "firepit",
        "maxtents": "yes",
        "openfire": "yes",
        "source": "USFS Data and Mapbox Satellite",
        "tents": "yes",
        "toilets:disposal": "pitlatrine",
        "tourism": "camp_site"
      }
    },
    {
      "type": "node",
      "id": 5700155945,
      "lat": 47.7392866,
      "lon": -90.7536294,
      "timestamp": "2018-06-18T18:32:55Z",
      "version": 1,
      "changeset": 59953712,
      "user": "Fux1982",
      "uid": 7285137,
      "tags": {
        "name": "White Pine Lake- Rustic Campground",
        "tourism": "camp_site"
      }
    },
    {
      "type": "node",
      "id": 5700171922,
      "lat": 47.7188399,
      "lon": -91.0450148,
      "timestamp": "2018-06-18T18:32:59Z",
      "version": 1,
      "changeset": 59953712,
      "user": "Fux1982",
      "uid": 7285137,
      "tags": {
        "name": "Whitefish Lake",
        "tourism": "camp_site"
      }
    },
    {
      "type": "node",
      "id": 5977768742,
      "lat": 47.8667696,
      "lon": -90.979632,
      "timestamp": "2018-10-12T08:29:11Z",
      "version": 1,
      "changeset": 63446166,
      "user": "Petr Fuktko",
      "uid": 958845,
      "tags": {
        "name": "Campsite",
        "tourism": "camp_site"
      }
    },
    {
      "type": "node",
      "id": 6482735728,
      "lat": 47.9553293,
      "lon": -91.3749325,
      "timestamp": "2019-05-18T18:22:23Z",
      "version": 1,
      "changeset": 70393820,
      "user": "MLSchneider",
      "uid": 30260,
      "tags": {
        "backcountry": "yes",
        "name": "campsite",
        "tourism": "camp_site"
      }
    },
    {
      "type": "node",
      "id": 6482735729,
      "lat": 47.9532815,
      "lon": -91.376102,
      "timestamp": "2019-05-18T18:22:23Z",
      "version": 1,
      "changeset": 70393820,
      "user": "MLSchneider",
      "uid": 30260,
      "tags": {
        "backcountry": "yes",
        "name": "campsite",
        "tourism": "camp_site"
      }
    },
    {
      "type": "node",
      "id": 6482735730,
      "lat": 47.9499832,
      "lon": -91.3905859,
      "timestamp": "2019-05-18T18:22:23Z",
      "version": 1,
      "changeset": 70393820,
      "user": "MLSchneider",
      "uid": 30260,
      "tags": {
        "backcountry": "yes",
        "name": "campsite",
        "tourism": "camp_site"
      }
    },
    {
      "type": "node",
      "id": 6482735731,
      "lat": 47.9499401,
      "lon": -91.3939333,
      "timestamp": "2020-10-24T20:03:25Z",
      "version": 2,
      "changeset": 92998698,
      "user": "Larken",
      "uid": 1762578,
      "tags": {
        "backcountry": "yes",
        "name": "campsite",
        "tourism": "camp_site"
      }
    },
    {
      "type": "node",
      "id": 6482735732,
      "lat": 47.9613358,
      "lon": -91.3890839,
      "timestamp": "2019-05-18T18:22:23Z",
      "version": 1,
      "changeset": 70393820,
      "user": "MLSchneider",
      "uid": 30260,
      "tags": {
        "backcountry": "yes",
        "name": "campsite",
        "tourism": "camp_site"
      }
    },
    {
      "type": "node",
      "id": 6483294498,
      "lat": 47.9866976,
      "lon": -91.2843919,
      "timestamp": "2019-05-19T04:46:26Z",
      "version": 1,
      "changeset": 70401026,
      "user": "MLSchneider",
      "uid": 30260,
      "tags": {
        "backcountry": "yes",
        "name": "campsite",
        "tourism": "camp_site"
      }
    },
    {
      "type": "node",
      "id": 6483294499,
      "lat": 47.9853476,
      "lon": -91.2833619,
      "timestamp": "2019-05-19T04:46:26Z",
      "version": 1,
      "changeset": 70401026,
      "user": "MLSchneider",
      "uid": 30260,
      "tags": {
        "backcountry": "yes",
        "name": "campsite",
        "tourism": "camp_site"
      }
    },
    {
      "type": "node",
      "id": 6483294500,
      "lat": 47.9749628,
      "lon": -91.3288629,
      "timestamp": "2019-05-19T04:46:26Z",
      "version": 1,
      "changeset": 70401026,
      "user": "MLSchneider",
      "uid": 30260,
      "tags": {
        "backcountry": "yes",
        "name": "campsite",
        "tourism": "camp_site"
      }
    },
    {
      "type": "node",
      "id": 6483294501,
      "lat": 47.9839903,
      "lon": -91.345911,
      "timestamp": "2019-05-19T04:46:26Z",
      "version": 1,
      "changeset": 70401026,
      "user": "MLSchneider",
      "uid": 30260,
      "tags": {
        "backcountry": "yes",
        "name": "campsite",
        "tourism": "camp_site"
      }
    },
    {
      "type": "node",
      "id": 6483294502,
      "lat": 47.9813907,
      "lon": -91.3449026,
      "timestamp": "2019-05-19T04:46:26Z",
      "version": 1,
      "changeset": 70401026,
      "user": "MLSchneider",
      "uid": 30260,
      "tags": {
        "backcountry": "yes",
        "name": "campsite",
        "tourism": "camp_site"
      }
    },
    {
      "type": "node",
      "id": 8042944885,
      "lat": 47.9488829,
      "lon": -91.3906463,
      "timestamp": "2020-10-24T20:03:25Z",
      "version": 1,
      "changeset": 92998698,
      "user": "Larken",
      "uid": 1762578,
      "tags": {
        "backcountry": "yes",
        "tourism": "camp_site"
      }
    },
    {
      "type": "node",
      "id": 9244262082,
      "lat": 47.9851942,
      "lon": -90.7081687,
      "timestamp": "2021-11-11T19:30:29Z",
      "version": 1,
      "changeset": 113666008,
      "user": "Scottahemi",
      "uid": 7141863,
      "tags": {
        "backcountry": "yes",
        "tourism": "camp_site"
      }
    },
    {
      "type": "node",
      "id": 9611850093,
      "lat": 47.9877949,
      "lon": -91.3531663,
      "timestamp": "2022-03-27T23:53:25Z",
      "version": 1,
      "changeset": 118999190,
      "user": "Bryon Peterson",
      "uid": 15423985,
      "tags": {
        "backcountry": "yes",
        "tourism": "camp_site"
      }
    },
    {
      "type": "node",
      "id": 9611850094,
      "lat": 47.9888314,
      "lon": -91.349072,
      "timestamp": "2022-03-27T23:53:25Z",
      "version": 1,
      "changeset": 118999190,
      "user": "Bryon Peterson",
      "uid": 15423985,
      "tags": {
        "backcountry": "yes",
        "tourism": "camp_site"
      }
    },
    {
      "type": "node",
      "id": 9611850095,
      "lat": 47.9860976,
      "lon": -91.3627935,
      "timestamp": "2022-03-27T23:53:25Z",
      "version": 1,
      "changeset": 118999190,
      "user": "Bryon Peterson",
      "uid": 15423985,
      "tags": {
        "backcountry": "yes",
        "tourism": "camp_site"
      }
    },
    {
      "type": "node",
      "id": 9611850096,
      "lat": 47.9788641,
      "lon": -91.3582083,
      "timestamp": "2022-03-27T23:53:25Z",
      "version": 1,
      "changeset": 118999190,
      "user": "Bryon Peterson",
      "uid": 15423985,
      "tags": {
        "backcountry": "yes",
        "tourism": "camp_site"
      }
    },
    {
      "type": "node",
      "id": 9611850097,
      "lat": 47.9755526,
      "lon": -91.3644372,
      "timestamp": "2022-03-27T23:53:25Z",
      "version": 1,
      "changeset": 118999190,
      "user": "Bryon Peterson",
      "uid": 15423985,
      "tags": {
        "backcountry": "yes",
        "tourism": "camp_site"
      }
    },
    {
      "type": "node",
      "id": 9611850098,
      "lat": 47.9756724,
      "lon": -91.3528584,
      "timestamp": "2022-03-27T23:53:25Z",
      "version": 1,
      "changeset": 118999190,
      "user": "Bryon Peterson",
      "uid": 15423985,
      "tags": {
        "backcountry": "yes",
        "tourism": "camp_site"
      }
    },
    {
      "type": "node",
      "id": 9611850099,
      "lat": 47.9681305,
      "lon": -91.376364,
      "timestamp": "2022-03-27T23:53:25Z",
      "version": 1,
      "changeset": 118999190,
      "user": "Bryon Peterson",
      "uid": 15423985,
      "tags": {
        "backcountry": "yes",
        "tourism": "camp_site"
      }
    },
    {
      "type": "node",
      "id": 9611850100,
      "lat": 47.9843064,
      "lon": -91.3032365,
      "timestamp": "2022-03-27T23:53:25Z",
      "version": 1,
      "changeset": 118999190,
      "user": "Bryon Peterson",
      "uid": 15423985,
      "tags": {
        "backcountry": "yes",
        "tourism": "camp_site"
      }
    },
    {
      "type": "node",
      "id": 9611892788,
      "lat": 47.9796401,
      "lon": -91.3750748,
      "timestamp": "2022-03-28T01:03:25Z",
      "version": 1,
      "changeset": 119000046,
      "user": "Bryon Peterson",
      "uid": 15423985,
      "tags": {
        "backcountry": "yes",
        "tourism": "camp_site"
      }
    },
    {
      "type": "node",
      "id": 9613287553,
      "lat": 47.9794892,
      "lon": -91.3401916,
      "timestamp": "2022-03-28T14:14:35Z",
      "version": 1,
      "changeset": 119024529,
      "user": "Bryon Peterson",
      "uid": 15423985,
      "tags": {
        "backcountry": "yes",
        "tourism": "camp_site"
      }
    },
    {
      "type": "node",
      "id": 9678897413,
      "lat": 47.9869782,
      "lon": -90.9486033,
      "timestamp": "2022-04-20T04:37:55Z",
      "version": 1,
      "changeset": 119932306,
      "user": "Bryon Peterson",
      "uid": 15423985,
      "tags": {
        "backcountry": "yes",
        "tourism": "camp_site"
      }
    },
    {
      "type": "node",
      "id": 9678897414,
      "lat": 47.983703,
      "lon": -90.9411575,
      "timestamp": "2022-04-20T04:37:55Z",
      "version": 1,
      "changeset": 119932306,
      "user": "Bryon Peterson",
      "uid": 15423985,
      "tags": {
        "backcountry": "yes",
        "tourism": "camp_site"
      }
    },