{
  "osm3s": {
    "timestamp_osm_date": "2021-09-18T23:59:59Z",
    "timestamp_osm_base": "2021-09-19T05:29:19Z",
    "copyright": "The data included in this document is from www.openstreetmap.org. The data is made available under ODbL."
  },
  "elements": [
    {
      "type": "node",
      "id": 26862974,
      "lat": 48.5580584,
      "lon": 23.6289649,
      "timestamp": "2021-06-04T02:28:33Z",
      "version": 10,
      "changeset": 105806871,
      "user": "muchichka_s",
      "uid": 10857625,
      "tags": {
        "ele": "1578",
        "name": "Кам'янка",
        "name:en": "Kamenka",
        "name:ru": "Каменка",
        "name:uk": "Кам'янка",
        "natural": "peak",
        "prominence": "588",
        "wikidata": "Q16565187"
      }
    },
    {
      "type": "node",
      "id": 337580252,
      "lat": 48.9127734,
      "lon": 23.4705874,
      "timestamp": "2018-02-08T22:27:51Z",
      "version": 8,
      "changeset": 56198990,
      "user": "Myazyk",
      "uid": 899942,
      "tags": {
        "addr:postcode": "82632",
        "koatuu": "4624587801",
        "name": "Тухля",
        "name:en": "Tukhlia",
        "name:pl": "Tuchla",
        "name:prefix": "село",
        "name:ru": "Тухля",
        "name:uk": "Тухля",
        "place": "village",
        "population": "2826",
        "wikidata": "Q4466694",
        "wikipedia": "uk:Тухля (Україна)",
        "wikipedia:ru": "Тухля"
      }
    },
    {
      "type": "node",
      "id": 337580289,
      "lat": 48.9206133,
      "lon": 23.3065911,
      "timestamp": "2018-02-04T14:26:37Z",
      "version": 8,
      "changeset": 56056784,
      "user": "Myazyk",
      "uid": 899942,
      "tags": {
        "addr:postcode": "82640",
        "koatuu": "4624585501",
        "name": "Орява",
        "name:en": "Oriava",
        "name:pl": "Orawa",
        "name:prefix": "село",
        "name:ru": "Орява",
        "name:uk": "Орява",
        "place": "village",
        "population": "633",
        "wikidata": "Q4337304",
        "wikipedia": "uk:Орява",
        "wikipedia:ru": "Орява (село)"
      }
    },
    {
      "type": "node",
      "id": 337580397,
      "lat": 48.9150605,
      "lon": 23.3904991,
      "timestamp": "2018-02-10T00:05:35Z",
      "version": 7,
      "changeset": 56230749,
      "user": "Myazyk",
      "uid": 899942,
      "tags": {
        "addr:postcode": "82641",
        "koatuu": "4624581201",
        "name": "Головецько",
        "name:en": "Holovetsko",
        "name:pl": "Hołowiecko",
        "name:prefix": "село",
        "name:ru": "Головецко",
        "name:uk": "Головецько",
        "place": "village",
        "population": "524",
        "wikidata": "Q4141794",
        "wikipedia": "uk:Головецько (Сколівський район)",
        "wikipedia:ru": "Головецко (Сколевский район)"
      }
    },
    {
      "type": "node",
      "id": 337580622,
      "lat": 48.8965941,
      "lon": 23.5068993,
      "timestamp": "2017-03-24T22:02:46Z",
      "version": 7,
      "changeset": 47136077,
      "user": "Myazyk",
      "uid": 899942,
      "tags": {
        "addr:postcode": "82632",
        "koatuu": "4624584101",
        "name": "Либохора",
        "name:en": "Lybokhora",
        "name:pl": "Libochora",
        "name:prefix": "село",
        "name:ru": "Либохора",
        "name:uk": "Либохора",
        "place": "village",
        "population": "918",
        "wikidata": "Q7241263",
        "wikipedia": "uk:Либохора (Сколівський район)",
        "wikipedia:ru": "Либохора (Сколевский район)"
      }
    },
    {
      "type": "node",
      "id": 337580677,
      "lat": 48.9035202,
      "lon": 23.3523828,
      "timestamp": "2021-06-19T13:20:18Z",
      "version": 7,
      "changeset": 106632016,
      "user": "Myazyk",
      "uid": 899942,
      "tags": {
        "addr:postcode": "82643",
        "koatuu": "4624586701",
        "name": "Риків",
        "name:en": "Rykiv",
        "name:pl": "Ryków",
        "name:prefix": "село",
        "name:ru": "Рыков",
        "name:uk": "Риків",
        "place": "village",
        "population": "346",
        "wikidata": "Q650038",
        "wikipedia": "uk:Риків (Сколівський район)",
        "wikipedia:ru": "Рыков (Сколевский район)"
      }
    },
    {
      "type": "node",
      "id": 337581022,
      "lat": 48.89724,
      "lon": 23.896769,
      "timestamp": "2017-02-09T13:41:38Z",
      "version": 6,
      "changeset": 45945876,
      "user": "iWowik",
      "uid": 481934,
      "tags": {
        "addr:postcode": "77554",
        "koatuu": "2622084201",
        "name": "Новошин",
        "name:en": "Novoshyn",
        "name:pl": "Nowoszyn",
        "name:prefix": "село",
        "name:ru": "Новошин",
        "name:uk": "Новошин",
        "place": "village",
        "population": "1083",
        "wikidata": "Q4326251",
        "wikipedia": "uk:Новошин",
        "wikipedia:ru": "Новошин"
      }
    },
    {
      "type": "node",
      "id": 337581024,
      "lat": 48.8974,
      "lon": 23.864019,
      "timestamp": "2017-02-09T13:41:38Z",
      "version": 7,
      "changeset": 45945876,
      "user": "iWowik",
      "uid": 481934,
      "tags": {
        "addr:postcode": "77555",
        "koatuu": "2622084202",
        "name": "Пшеничники",
        "name:en": "Pshenychnyky",
        "name:pl": "Pszenicznik",
        "name:prefix": "село",
        "name:ru": "Пшеничники",
        "name:uk": "Пшеничники",
        "place": "village",
        "population": "624",
        "wikidata": "Q4385107",
        "wikipedia": "uk:Пшеничники (Долинський район)",
        "wikipedia:ru": "Пшеничники (Долинский район)"
      }
    },
    {
      "type": "node",
      "id": 337581090,
      "lat": 48.896091,
      "lon": 23.228287,
      "timestamp": "2017-02-10T09:10:59Z",
      "version": 6,
      "changeset": 45967435,
      "user": "iWowik",
      "uid": 481934,
      "tags": {
        "addr:postcode": "82642",
        "koatuu": "4624587202",
        "name": "Долинівка",
        "name:en": "Dolynivka",
        "name:pl": "Dolnówka",
        "name:prefix": "село",
        "name:ru": "Долиновка",
        "name:uk": "Долинівка",
        "place": "village",
        "population": "310",
        "wikidata": "Q4165001",
        "wikipedia": "uk:Долинівка (Сколівський район)",
        "wikipedia:ru": "Долиновка (Львовская область)"
      }
    },
    {
      "type": "node",
      "id": 337581136,
      "lat": 48.8954176,
      "lon": 23.3397002,
      "timestamp": "2018-02-01T13:52:51Z",
      "version": 9,
      "changeset": 55966625,
      "user": "Myazyk",
      "uid": 899942,
      "tags": {
        "addr:postcode": "82643",
        "alt_name": "Плав’є",
        "alt_name:ru": "Плавье",
        "koatuu": "4624585901",
        "name": "Плав’я",
        "name:en": "Plavia",
        "name:pl": "Pławie",
        "name:prefix": "село",
        "name:ru": "Плавья",
        "name:uk": "Плав’я",
        "place": "village",
        "population": "1372",
        "wikidata": "Q4364298",
        "wikipedia": "uk:Плав'є (Сколівський район)",
        "wikipedia:ru": "Плавье (Львовская область)"
      }
    },
    {
      "type": "node",
      "id": 337581143,
      "lat": 48.8965965,
      "lon": 23.8397454,
      "timestamp": "2021-08-22T19:37:32Z",
      "version": 8,
      "changeset": 110076704,
      "user": "Vital38",
      "uid": 4638896,
      "tags": {
        "addr:postcode": "77543",
        "koatuu": "2622086202",
        "name": "Новий Мізунь",
        "name:en": "Novyi Mizun",
        "name:pl": "Mizuń Nowy",
        "name:prefix": "село",
        "name:ru": "Новый Мизунь",
        "name:uk": "Новий Мізунь",
        "place": "village",
        "population": "332",
        "wikidata": "Q4326706",
        "wikipedia": "uk:Новий Мізунь",
        "wikipedia:ru": "Новый Мизунь"
      }
    },
    {
      "type": "node",
      "id": 337581149,
      "lat": 48.8957891,
      "lon": 23.3966265,
      "timestamp": "2018-02-09T23:19:38Z",
      "version": 7,
      "changeset": 56230149,
      "user": "Myazyk",
      "uid": 899942,
      "tags": {
        "addr:postcode": "82641",
        "koatuu": "4624581203",
        "name": "Пшонець",
        "name:en": "Pshonets",
        "name:pl": "Pszaniec",
        "name:prefix": "село",
        "name:ru": "Пшонец",
        "name:uk": "Пшонець",
        "place": "village",
        "population": "369",
        "wikidata": "Q4385168",
        "wikipedia": "uk:Пшонець",
        "wikipedia:ru": "Пшонец"
      }
    },
    {
      "type": "node",
      "id": 337581371,
      "lat": 48.8877477,
      "lon": 23.2520859,
      "timestamp": "2018-01-30T14:34:08Z",
      "version": 8,
      "changeset": 55895957,
      "user": "Myazyk",
      "uid": 899942,
      "tags": {
        "addr:postcode": "82642",
        "koatuu": "4624587203",
        "name": "Нагірне",
        "name:en": "Nahirne",
        "name:pl": "Nagórne",
        "name:prefix": "село",
        "name:ru": "Нагорное",
        "name:uk": "Нагірне",
        "old_name": "Аннаберґ",
        "place": "village",
        "population": "133",
        "wikidata": "Q4311662",
        "wikipedia": "uk:Нагірне (Сколівський район)",
        "wikipedia:ru": "Нагорное (Сколевский район)"
      }
    },
    {
      "type": "node",
      "id": 337581726,
      "lat": 48.885578,
      "lon": 23.422871,
      "timestamp": "2017-02-10T09:11:02Z",
      "version": 6,
      "changeset": 45967435,
      "user": "iWowik",
      "uid": 481934,
      "tags": {
        "addr:postcode": "82660",
        "koatuu": "4624555701",
        "name": "Грабовець",
        "name:en": "Hrabovets",
        "name:pl": "Grabowiec Skolski",
        "name:prefix": "село",
        "name:ru": "Грабовец",
        "name:uk": "Грабовець",
        "place": "village",
        "population": "96",
        "wikidata": "Q4147269",
        "wikipedia": "uk:Грабовець (Сколівський район)",
        "wikipedia:ru": "Грабовец (Сколевский район)"
      }
    },
    {
      "type": "node",
      "id": 337581805,
      "lat": 48.8806022,
      "lon": 23.2855397,
      "timestamp": "2018-01-31T12:27:42Z",
      "version": 6,
      "changeset": 55930615,
      "user": "Myazyk",
      "uid": 899942,
      "tags": {
        "addr:postcode": "82644",
        "koatuu": "4624588301",
        "name": "Тухолька",
        "name:en": "Tukholka",
        "name:pl": "Tucholka",
        "name:prefix": "село",
        "name:ru": "Тухолька",
        "name:uk": "Тухолька",
        "place": "village",
        "population": "955",
        "wikidata": "Q4466701",
        "wikipedia": "uk:Тухолька",
        "wikipedia:ru": "Тухолька"
      }
    },
    {
      "type": "node",
      "id": 337583132,
      "lat": 48.844124,
      "lon": 23.303534,
      "timestamp": "2017-02-10T09:11:06Z",
      "version": 7,
      "changeset": 45967435,
      "user": "iWowik",
      "uid": 481934,
      "tags": {
        "addr:postcode": "82644",
        "koatuu": "4624588501",
        "name": "Хітар",
        "name:en": "Khitar",
        "name:pl": "Hutar",
        "name:prefix": "село",
        "name:ru": "Хитар",
        "name:uk": "Хітар",
        "place": "village",
        "population": "377",
        "wikidata": "Q4497918",
        "wikipedia": "uk:Хітар",
        "wikipedia:ru": "Хитар"
      }
    },
    {
      "type": "node",
      "id": 337583320,
      "lat": 48.852081,
      "lon": 23.32638,
      "timestamp": "2017-02-09T13:41:48Z",
      "version": 5,
      "changeset": 45945876,
      "user": "iWowik",
      "uid": 481934,
      "tags": {
        "addr:postcode": "82644",
        "koatuu": "4624588503",
        "name": "Кальне",
        "name:en": "Kalne",
        "name:pl": "Kalne",
        "name:prefix": "село",
        "name:ru": "Кальное",
        "name:uk": "Кальне",
        "place": "village",
        "population": "243",
        "wikidata": "Q4210558",
        "wikipedia": "uk:Кальне (Сколівський район)",
        "wikipedia:ru": "Кальное (Львовская область)"
      }
    },
    {
      "type": "node",
      "id": 337583580,
      "lat": 48.84487,
      "lon": 23.44482,
      "timestamp": "2017-11-05T10:00:19Z",
      "version": 8,
      "changeset": 53523165,
      "user": "jeka p",
      "uid": 2385757,
      "tags": {
        "addr:postcode": "82660",
        "alt_name": "Славсько",
        "alt_name:uk": "Славсько",
        "koatuu": "4624555700",
        "name": "Славське",
        "name:de": "Slawske",
        "name:en": "Slavske",
        "name:pl": "Sławsko",
        "name:prefix": "селище міського типу",
        "name:ru": "Славское",
        "name:uk": "Славське",
        "name:zh": "斯拉夫西克",
        "place": "town",
        "population": "3508",
        "wikidata": "Q2619343",
        "wikipedia": "uk:Славське",
        "wikipedia:ru": "Славское (Львовская область)"
      }
    },
    {
      "type": "node",
      "id": 337584320,
      "lat": 48.824787,
      "lon": 23.381779,
      "timestamp": "2017-02-10T09:11:12Z",
      "version": 7,
      "changeset": 45967435,
      "user": "iWowik",
      "uid": 481934,
      "tags": {
        "addr:postcode": "82652",
        "koatuu": "4624584002",
        "name": "Тернавка",
        "name:en": "Ternavka",
        "name:pl": "Tarnawka",
        "name:prefix": "село",
        "name:ru": "Тернавка",
        "name:uk": "Тернавка",
        "place": "village",
        "population": "766",
        "wikidata": "Q978978",
        "wikipedia": "uk:Тернавка (Сколівський район)",
        "wikipedia:ru": "Тернавка (Сколевский район)"
      }
    },
    {
      "type": "node",
      "id": 337584402,
      "lat": 48.814224,
      "lon": 23.512327,
      "timestamp": "2017-02-10T09:11:12Z",
      "version": 6,
      "changeset": 45967435,
      "user": "iWowik",
      "uid": 481934,
      "tags": {
        "addr:postcode": "82662",
        "koatuu": "4624584301",
        "name": "Нижня Рожанка",
        "name:en": "Nyzhnia Rozhanka",
        "name:pl": "Rożanka Niżna",
        "name:prefix": "село",
        "name:ru": "Нижняя Рожанка",
        "name:uk": "Нижня Рожанка",
        "place": "village",
        "population": "887",
        "wikidata": "Q4319392",
        "wikipedia": "uk:Нижня Рожанка",
        "wikipedia:ru": "Нижняя Рожанка"
      }
    },
    {
      "type": "node",
      "id": 337584825,
      "lat": 48.812599,
      "lon": 23.345949,
      "timestamp": "2017-02-10T09:11:13Z",
      "version": 5,
      "changeset": 45967435,
      "user": "iWowik",
      "uid": 481934,
      "tags": {
        "addr:postcode": "82652",
        "koatuu": "4624584001",
        "name": "Лавочне",
        "name:en": "Lavochne",
        "name:pl": "Ławoczne",
        "name:prefix": "село",
        "name:ru": "Лавочное",
        "name:uk": "Лавочне",
        "place": "village",
        "population": "1198",
        "wikidata": "Q4252057",
        "wikipedia": "uk:Лавочне",
        "wikipedia:ru": "Лавочное (Львовская область)"
      }
    },
    {
      "type": "node",
      "id": 337585156,
      "lat": 48.7935178,
      "lon": 23.2060263,
      "timestamp": "2018-02-07T18:59:25Z",
      "version": 9,
      "changeset": 56157921,
      "user": "Myazyk",
      "uid": 899942,
      "tags": {
        "addr:postcode": "82651",
        "koatuu": "4624582001",
        "name": "Жупани",
        "name:en": "Zhupany",
        "name:pl": "Żupanie",
        "name:prefix": "село",
        "name:ru": "Жупаны",
        "name:uk": "Жупани",
        "place": "village",
        "population": "986",
        "wikidata": "Q4181656",
        "wikipedia": "uk:Жупани",
        "wikipedia:ru": "Жупаны"
      }
    },
    {
      "type": "node",
      "id": 337585709,
      "lat": 48.792,
      "lon": 23.757589,
      "timestamp": "2017-07-09T13:10:01Z",
      "version": 6,
      "changeset": 50152375,
      "user": "wanderer52",
      "uid": 1586256,
      "tags": {
        "addr:postcode": "77210",
        "koatuu": "2622087602",
        "name": "Мислівка",
        "name:de": "Ludwigsthal",
        "name:en": "Myslivka",
        "name:pl": "Ludwikówka",
        "name:prefix": "село",
        "name:ru": "Мысловка",
        "name:uk": "Мислівка",
        "place": "village",
        "population": "319",
        "wikidata": "Q4309533",
        "wikipedia": "uk:Мислівка",
        "wikipedia:ru": "Мысловка"
      }
    },
    {
      "type": "node",
      "id": 337585994,
      "lat": 48.786156,
      "lon": 23.514019,
      "timestamp": "2017-02-10T09:11:15Z",
      "version": 6,
      "changeset": 45967435,
      "user": "iWowik",
      "uid": 481934,
      "tags": {
        "addr:postcode": "82662",
        "koatuu": "4624584302",
        "name": "Верхня Рожанка",
        "name:en": "Verkhnia Rozhanka",
        "name:pl": "Rożanka Wyżna",
        "name:prefix": "село",
        "name:ru": "Верхняя Рожанка",
        "name:uk": "Верхня Рожанка",
        "place": "village",
        "population": "1134",
        "wikidata": "Q673967",
        "wikipedia": "uk:Верхня Рожанка",
        "wikipedia:ru": "Верхняя Рожанка"
      }
    },
    {
      "type": "node",
      "id": 337586113,
      "lat": 48.784767,
      "lon": 23.342873,
      "timestamp": "2017-02-10T09:11:17Z",
      "version": 6,
      "changeset": 45967435,
      "user": "iWowik",
      "uid": 481934,
      "tags": {
        "addr:postcode": "82652",
        "koatuu": "4624584901",
        "name": "Опорець",
        "name:en": "Oporets",
        "name:pl": "Oporzec",
        "name:prefix": "село",
        "name:ru": "Опорец",
        "name:uk": "Опорець",
        "place": "village",
        "population": "1035",
        "wikidata": "Q4335409",
        "wikipedia": "uk:Опорець",
        "wikipedia:ru": "Опорец"
      }
    },
    {
      "type": "node",
      "id": 337586183,
      "lat": 48.780331,
      "lon": 23.42835,
      "timestamp": "2017-02-10T09:11:17Z",
      "version": 5,
      "changeset": 45967435,
      "user": "iWowik",
      "uid": 481934,
      "tags": {
        "addr:postcode": "82663",
        "koatuu": "4624580801",
        "name": "Волосянка",
        "name:en": "Volosianka",
        "name:pl": "Wołosianka",
        "name:prefix": "село",
        "name:ru": "Волосянка",
        "name:uk": "Волосянка",
        "place": "village",
        "population": "1452",
        "wikidata": "Q4123992",
        "wikipedia": "uk:Волосянка (Сколівський район)",
        "wikipedia:ru": "Волосянка (Львовская область)"
      }
    },
    {
      "type": "node",
      "id": 337586336,
      "lat": 48.7779686,
      "lon": 23.2317825,
      "timestamp": "2020-12-30T20:48:11Z",
      "version": 12,
      "changeset": 96690165,
      "user": "pommerensdorfer",
      "uid": 6599070,
      "tags": {
        "addr:postcode": "82663",
        "koatuu": "4624580401",
        "name": "Верхнячка",
        "name:en": "Verkhniachka",
        "name:pl": "Werchniaczka",
        "name:prefix": "село",
        "name:ru": "Верхнячка",
        "name:uk": "Верхнячка",
        "old_name": "Вижлів",
        "old_name:pl": "Wyżłow",
        "place": "village",
        "population": "939",
        "wikidata": "Q4108791",
        "wikipedia": "uk:Верхнячка (село)",
        "wikipedia:ru": "Верхнячка (Львовская область)"
      }
    },
    {
      "type": "node",
      "id": 337586764,
      "lat": 48.757339,
      "lon": 23.454306,
      "timestamp": "2017-02-10T09:11:20Z",
      "version": 8,
      "changeset": 45967435,
      "user": "iWowik",
      "uid": 481934,
      "tags": {
        "addr:postcode": "82663",
        "koatuu": "4624580803",
        "name": "Ялинкувате",
        "name:en": "Yalynkuvate",
        "name:pl": "Jelenkowate",
        "name:prefix": "село",
        "name:ru": "Ялынковатое",
        "name:uk": "Ялинкувате",
        "place": "village",
        "population": "569",
        "wikidata": "Q4537501",
        "wikipedia": "uk:Ялинкувате",
        "wikipedia:ru": "Ялынковатое"
      }
    },
    {
      "type": "node",
      "id": 337586818,
      "lat": 48.759724,
      "lon": 23.398359,
      "timestamp": "2017-02-10T09:11:21Z",
      "version": 6,
      "changeset": 45967435,
      "user": "iWowik",
      "uid": 481934,
      "tags": {
        "addr:postcode": "82663",
        "koatuu": "4624580802",
        "name": "Хащованя",
        "name:en": "Khaschovania",
        "name:pl": "Chaszczowanie",
        "name:prefix": "село",
        "name:ru": "Хащованя",
        "name:uk": "Хащованя",
        "place": "village",
        "population": "383",
        "wikidata": "Q4496797",
        "wikipedia": "uk:Хащованя",
        "wikipedia:ru": "Хащованя"
      }
    },
    {
      "type": "node",
      "id": 337587457,
      "lat": 48.7339339,
      "lon": 23.2689066,
      "timestamp": "2021-02-09T15:21:22Z",
      "version": 12,
      "changeset": 98985932,
      "user": "muchichka_s",
      "uid": 10857625,
      "tags": {
        "koatuu": "2121585501",
        "name": "Скотарське",
        "name:en": "Skotarske",
        "name:eo": "Skotarske",
        "name:hu": "Kisszolyva",
        "name:hy": "Սկոտարսկոե",
        "name:pl": "Skotarskie",
        "name:prefix": "село",
        "name:ro": "Skotarske",
        "name:ru": "Скотарское",
        "name:uk": "Скотарське",
        "place": "village",
        "population": "1413",
        "postal_code": "89133",
        "wikidata": "Q743021",
        "wikipedia": "uk:Скотарське"
      }
    },
    {
      "type": "node",
      "id": 337587614,
      "lat": 48.7332033,
      "lon": 23.591183,
      "timestamp": "2018-01-16T20:07:12Z",
      "version": 9,
      "changeset": 55503758,
      "user": "Surveyor ua",
      "uid": 5413278,
      "tags": {
        "addr:postcode": "77564",
        "koatuu": "2622085401",
        "name": "Сенечів",
        "name:en": "Senechiv",
        "name:pl": "Seneczów",
        "name:prefix": "село",
        "name:ru": "Сенечев",
        "name:uk": "Сенечів",
        "place": "village",
        "population": "1031",
        "wikidata": "Q4416141",
        "wikipedia": "uk:Сенечів",
        "wikipedia:ru": "Сенечев"
      }
    },
    {
      "type": "node",
      "id": 337587780,
      "lat": 48.727112,
      "lon": 23.35693,
      "timestamp": "2021-02-09T16:37:15Z",
      "version": 6,
      "changeset": 98989755,
      "user": "muchichka_s",
      "uid": 10857625,
      "tags": {
        "koatuu": "2122484402",
        "name": "Верхній Студений",
        "name:en": "Verkhnii Studenyi",
        "name:hu": "Felsőhidegpatak",
        "name:prefix": "село",
        "name:ru": "Верхний Студёный",
        "name:uk": "Верхній Студений",
        "place": "village",
        "population": "759",
        "postal_code": "90010",
        "wikidata": "Q519684",
        "wikipedia": "uk:Верхній Студений"
      }
    },
    {
      "type": "node",
      "id": 337587795,
      "lat": 48.726768,
      "lon": 23.65254,
      "timestamp": "2017-02-09T13:42:12Z",
      "version": 5,
      "changeset": 45945876,
      "user": "iWowik",
      "uid": 481934,
      "tags": {
        "addr:postcode": "77563",
        "koatuu": "2622080801",
        "name": "Вишків",
        "name:en": "Vyshkiv",
        "name:pl": "Wyszków",
        "name:prefix": "село",
        "name:ru": "Вышков",
        "name:uk": "Вишків",
        "place": "village",
        "population": "651",
        "wikidata": "Q4130020",
        "wikipedia": "uk:Вишків",
        "wikipedia:ru": "Вышков (Ивано-Франковская область)"
      }
    },
    {
      "type": "node",
      "id": 337588038,
      "lat": 48.707287,
      "lon": 23.24074,
      "timestamp": "2021-01-14T18:03:02Z",
      "version": 10,
      "changeset": 97510131,
      "user": "muchichka_s",
      "uid": 10857625,
      "tags": {
        "alt_name": "Гукливе",
        "koatuu": "2121583001",
        "loc_name": "Гукливе",
        "name": "Гукливий",
        "name:en": "Huklyvyi",
        "name:hu": "Zúgó",
        "name:prefix": "село",
        "name:ru": "Гукливый",
        "name:uk": "Гукливий",
        "place": "village",
        "population": "2109",
        "postal_code": "89140",
        "wikidata": "Q836373",
        "wikipedia": "uk:Гукливий"
      }
    },
    {
      "type": "node",
      "id": 337588074,
      "lat": 48.713425,
      "lon": 23.556721,
      "timestamp": "2021-02-09T16:37:15Z",
      "version": 8,
      "changeset": 98989755,
      "user": "muchichka_s",
      "uid": 10857625,
      "tags": {
        "koatuu": "2122485602",
        "name": "Завийка",
        "name:en": "Zavyika",
        "name:hu": "Határvölgy",
        "name:pl": "Zavojka",
        "name:prefix": "село",
        "name:ru": "Завийка",
        "name:uk": "Завийка",
        "place": "village",
        "population": "187",
        "postal_code": "90014",
        "wikidata": "Q3850825",
        "wikipedia": "uk:Завийка"
      }
    },
    {
      "type": "node",
      "id": 337588093,
      "lat": 48.73032,
      "lon": 23.20752,
      "timestamp": "2021-02-09T16:37:15Z",
      "version": 8,
      "changeset": 98989755,
      "user": "muchichka_s",
      "uid": 10857625,
      "tags": {
        "koatuu": "2121555101",
        "name": "Канора",
        "name:en": "Kanora",
        "name:hu": "Kanora",
        "name:prefix": "село",
        "name:ru": "Канора",
        "name:uk": "Канора",
        "place": "village",
        "population": "792",
        "postal_code": "89100",
        "wikidata": "Q749908",
        "wikipedia": "uk:Канора"
      }
    },
    {
      "type": "node",
      "id": 337588533,
      "lat": 48.704708,
      "lon": 23.365572,
      "timestamp": "2021-02-09T16:37:15Z",
      "version": 7,
      "changeset": 98989755,
      "user": "muchichka_s",
      "uid": 10857625,
      "tags": {
        "koatuu": "2122484401",
        "name": "Нижній Студений",
        "name:en": "Nyzhnii Studenyi",
        "name:hu": "Alsóhidegpatak",
        "name:prefix": "село",
        "name:ru": "Нижний Студёный",
        "name:uk": "Нижній Студений",
        "place": "village",
        "population": "1124",
        "postal_code": "90010",
        "wikidata": "Q664584",
        "wikipedia": "uk:Нижній Студений"
      }
    },
    {
      "type": "node",
      "id": 337588791,
      "lat": 48.698608,
      "lon": 23.526541,
      "timestamp": "2021-05-13T13:55:05Z",
      "version": 7,
      "changeset": 104641672,
      "user": "muchichka_s",
      "uid": 10857625,
      "tags": {
        "koatuu": "2122485601",
        "name": "Присліп",
        "name:en": "Pryslip",
        "name:hu": "Pereszlő",
        "name:prefix": "село",
        "name:ru": "Прислоп",
        "name:uk": "Присліп",
        "place": "village",
        "population": "851",
        "postal_code": "90014",
        "wikidata": "Q714512",
        "wikipedia": "uk:Присліп (село у Закарпатській області)"
      }
    },
    {
      "type": "node",
      "id": 337588886,
      "lat": 48.696548,
      "lon": 23.430059,
      "timestamp": "2021-02-09T16:37:15Z",
      "version": 6,
      "changeset": 98989755,
      "user": "muchichka_s",
      "uid": 10857625,
      "tags": {
        "koatuu": "2122482801",
        "name": "Лісковець",
        "name:en": "Liskovets",
        "name:hu": "Lengyelszállás",
        "name:prefix": "село",
        "name:ru": "Лесковец",
        "name:uk": "Лісковець",
        "place": "village",
        "population": "571",
        "postal_code": "90012",
        "wikidata": "Q750480",
        "wikipedia": "uk:Лісковець"
      }
    },
    {
      "type": "node",
      "id": 337589137,
      "lat": 48.69611,
      "lon": 23.580347,
      "timestamp": "2021-02-09T16:37:15Z",
      "version": 7,
      "changeset": 98989755,
      "user": "muchichka_s",
      "uid": 10857625,
      "tags": {
        "koatuu": "2122485603",
        "name": "Тітківці",
        "name:en": "Titkivtsi",
        "name:hu": "Titokvölgy",
        "name:prefix": "село",
        "name:ru": "Титковцы",
        "name:uk": "Тітківці",
        "place": "village",
        "population": "205",
        "postal_code": "90014",
        "wikidata": "Q3850673",
        "wikipedia": "uk:Тітківці"
      }
    },
    {
      "type": "node",
      "id": 337589227,
      "lat": 48.682266,
      "lon": 23.413841,
      "timestamp": "2021-02-09T16:37:15Z",
      "version": 7,
      "changeset": 98989755,
      "user": "muchichka_s",
      "uid": 10857625,
      "tags": {
        "koatuu": "2122482802",
        "name": "Рекіти",
        "name:en": "Rekity",
        "name:hu": "Rekettye",
        "name:prefix": "село",
        "name:ru": "Рекиты",
        "name:uk": "Рекіти",
        "place": "village",
        "population": "318",
        "postal_code": "90012",
        "wikidata": "Q383116",
        "wikipedia": "uk:Рекіти"
      }
    },
    {
      "type": "node",
      "id": 337589560,
      "lat": 48.681789,
      "lon": 23.458559,
      "timestamp": "2021-05-13T13:55:05Z",
      "version": 7,
      "changeset": 104641672,
      "user": "muchichka_s",
      "uid": 10857625,
      "tags": {
        "koatuu": "2122484801",
        "name": "Новоселиця",
        "name:en": "Novoselytsia",
        "name:hu": "Tarújfalu",
        "name:prefix": "село",
        "name:ru": "Новоселица",
        "name:uk": "Новоселиця",
        "place": "village",
        "population": "1054",
        "postal_code": "90013",
        "wikidata": "Q750503",
        "wikipedia": "uk:Новоселиця (Хустський район)"
      }
    },
    {
      "type": "node",
      "id": 337589606,
      "lat": 48.697445,
      "lon": 23.306097,
      "timestamp": "2021-05-13T13:55:05Z",
      "version": 8,
      "changeset": 104641672,
      "user": "muchichka_s",
      "uid": 10857625,
      "tags": {
        "koatuu": "2122485203",
        "name": "Розтока",
        "name:en": "Roztoka",
        "name:hu": "Rosztoka",
        "name:prefix": "село",
        "name:ru": "Ростока",
        "name:uk": "Розтока",
        "place": "village",
        "population": "413",
        "postal_code": "90011",
        "wikidata": "Q1178872",
        "wikipedia": "uk:Розтока (Хустський район)"
      }
    },
    {
      "type": "node",
      "id": 337589809,
      "lat": 48.673809,
      "lon": 23.297722,
      "timestamp": "2021-02-09T16:37:15Z",
      "version": 7,
      "changeset": 98989755,
      "user": "muchichka_s",
      "uid": 10857625,
      "tags": {
        "koatuu": "2122485202",
        "name": "Подобовець",
        "name:en": "Podobovets",
        "name:hu": "Padóc",
        "name:prefix": "село",
        "name:ru": "Подобовец",
        "name:uk": "Подобовець",
        "place": "village",
        "population": "407",
        "postal_code": "90011",
        "wikidata": "Q221176",
        "wikipedia": "uk:Подобовець"
      }
    },
    {
      "type": "node",
      "id": 337589867,
      "lat": 48.67424,
      "lon": 23.602751,
      "timestamp": "2021-02-09T16:37:15Z",
      "version": 6,
      "changeset": 98989755,
      "user": "muchichka_s",
      "uid": 10857625,
      "tags": {
        "koatuu": "2122487901",
        "name": "Торунь",
        "name:en": "Torun",
        "name:hu": "Toronya",
        "name:prefix": "село",
        "name:ru": "Торунь",
        "name:uk": "Торунь",
        "place": "village",
        "population": "1344",
        "postal_code": "90015",
        "wikidata": "Q831400",
        "wikipedia": "uk:Торунь (село)"
      }
    },
    {
      "type": "node",
      "id": 337590024,
      "lat": 48.670811,
      "lon": 23.341829,
      "timestamp": "2021-02-09T16:37:15Z",
      "version": 6,
      "changeset": 98989755,
      "user": "muchichka_s",
      "uid": 10857625,
      "tags": {
        "koatuu": "2122485201",
        "name": "Пилипець",
        "name:en": "Pylypets",
        "name:hu": "Fülöpfalva",
        "name:prefix": "село",
        "name:ru": "Пилипец",
        "name:uk": "Пилипець",
        "place": "village",
        "population": "1104",
        "postal_code": "90011",
        "wikidata": "Q740648",
        "wikipedia": "uk:Пилипець"
      }
    },
    {
      "type": "node",
      "id": 337590658,
      "lat": 48.653641,
      "lon": 23.57872,
      "timestamp": "2021-05-13T13:55:05Z",
      "version": 7,
      "changeset": 104641672,
      "user": "muchichka_s",
      "uid": 10857625,
      "tags": {
        "koatuu": "2122487902",
        "name": "Лопушне",
        "name:en": "Lopushne",
        "name:hu": "Leveles",
        "name:prefix": "село",
        "name:ru": "Лопушное",
        "name:uk": "Лопушне",
        "place": "village",
        "population": "650",
        "postal_code": "90015",
        "wikidata": "Q3850719",
        "wikipedia": "uk:Лопушне (Закарпатська область)"
      }
    },
    {
      "type": "node",
      "id": 337590676,
      "lat": 48.652611,
      "lon": 23.36586,
      "timestamp": "2021-02-09T16:37:15Z",
      "version": 10,
      "changeset": 98989755,
      "user": "muchichka_s",
      "uid": 10857625,
      "tags": {
        "koatuu": "2122481601",
        "name": "Ізки",
        "name:en": "Izky",
        "name:hu": "Iszka",
        "name:prefix": "село",
        "name:ru": "Изки",
        "name:uk": "Ізки",
        "name:yi": "איסקא",
        "place": "village",
        "population": "811",
        "postal_code": "90020",
        "wikidata": "Q426090",
        "wikipedia": "uk:Ізки"
      }
    },
    {
      "type": "node",
      "id": 337590991,
      "lat": 48.639668,
      "lon": 23.368391,
      "timestamp": "2021-05-13T13:55:05Z",
      "version": 8,
      "changeset": 104641672,
      "user": "muchichka_s",
      "uid": 10857625,
      "tags": {
        "koatuu": "2122480401",
        "name": "Буковець",
        "name:en": "Bukovets",
        "name:hu": "Bükköspatak",
        "name:prefix": "село",
        "name:ru": "Буковец",
        "name:uk": "Буковець",
        "place": "village",
        "population": "465",
        "postal_code": "90021",
        "wikidata": "Q749943",
        "wikipedia": "uk:Буковець (Хустський район)"
      }
    },
    {
      "type": "node",
      "id": 337591262,
      "lat": 48.633381,
      "lon": 23.74317,
      "timestamp": "2021-09-02T15:17:14Z",
      "version": 10,
      "changeset": 110626368,
      "user": "muchichka_s",
      "uid": 10857625,
      "tags": {
        "koatuu": "2122487204",
        "name": "Свобода",
        "name:be": "Свабода",
        "name:en": "Svoboda",
        "name:hu": "Szvoboda",
        "name:pl": "Sloboda",
        "name:prefix": "село",
        "name:ru": "Свобода",
        "name:uk": "Свобода",
        "place": "village",
        "population": "239",
        "postal_code": "90029",
        "wikidata": "Q3850693",
        "wikipedia": "uk:Свобода (Хустський район)"
      }
    },
    {
      "type": "node",
      "id": 337591279,
      "lat": 48.633041,
      "lon": 23.424231,
      "timestamp": "2021-02-09T16:37:15Z",
      "version": 6,
      "changeset": 98989755,
      "user": "muchichka_s",
      "uid": 10857625,
      "tags": {
        "koatuu": "2122481201",
        "name": "Голятин",
        "name:en": "Holiatyn",
        "name:hu": "Tarfalu",
        "name:prefix": "село",
        "name:ru": "Голятин",
        "name:uk": "Голятин",
        "place": "village",
        "population": "1300",
        "postal_code": "90023",
        "wikidata": "Q387395",
        "wikipedia": "uk:Голятин"
      }
    },
    {
      "type": "node",
      "id": 337591332,
      "lat": 48.630825,
      "lon": 23.522261,
      "timestamp": "2021-02-09T16:37:15Z",
      "version": 7,
      "changeset": 98989755,
      "user": "muchichka_s",
      "uid": 10857625,
      "tags": {
        "koatuu": "2122480601",
        "name": "Верхній Бистрий",
        "name:en": "Verkhnii Bystryi",
        "name:hu": "Felsősebes",
        "name:prefix": "село",
        "name:ru": "Верхний Быстрый",
        "name:uk": "Верхній Бистрий",
        "place": "village",
        "population": "1249",
        "postal_code": "90025",
        "wikidata": "Q3850546",
        "wikipedia": "uk:Верхній Бистрий"
      }
    },
    {
      "type": "node",
      "id": 337591454,
      "lat": 48.627892,
      "lon": 23.38818,
      "timestamp": "2021-02-09T16:37:15Z",
      "version": 6,
      "changeset": 98989755,
      "user": "muchichka_s",
      "uid": 10857625,
      "tags": {
        "koatuu": "2122482001",
        "name": "Келечин",
        "name:en": "Kelechyn",
        "name:hu": "Kelecsény",
        "name:prefix": "село",
        "name:ru": "Келечин",
        "name:uk": "Келечин",
        "place": "village",
        "population": "679",
        "postal_code": "90022",
        "wikidata": "Q663480",
        "wikipedia": "uk:Келечин"
      }
    },
    {
      "type": "node",
      "id": 337592299,
      "lat": 48.604076,
      "lon": 23.483969,
      "timestamp": "2021-05-13T13:55:05Z",
      "version": 12,
      "changeset": 104641672,
      "user": "muchichka_s",
      "uid": 10857625,
      "tags": {
        "koatuu": "2122483301",
        "name": "Майдан",
        "name:en": "Maidan",
        "name:hu": "Majdánka",
        "name:prefix": "село",
        "name:ru": "Майдан",
        "name:uk": "Майдан",
        "name:yi": "מיידאן",
        "place": "village",
        "population": "1717",
        "postal_code": "90024",
        "wikidata": "Q749734",
        "wikipedia": "uk:Майдан (Хустський район)"
      }
    },
    {
      "type": "node",
      "id": 337592507,
      "lat": 48.599049,
      "lon": 23.35247,
      "timestamp": "2021-05-13T13:55:05Z",
      "version": 7,
      "changeset": 104641672,
      "user": "muchichka_s",
      "uid": 10857625,
      "tags": {
        "koatuu": "2122480402",
        "name": "Потік",
        "name:en": "Potik",
        "name:hu": "Bükköskő",
        "name:prefix": "село",
        "name:ru": "Поток",
        "name:uk": "Потік",
        "place": "village",
        "population": "147",
        "postal_code": "90021",
        "wikidata": "Q3850765",
        "wikipedia": "uk:Потік (Хустський район)"
      }
    },
    {
      "type": "node",
      "id": 337592724,
      "lat": 48.591499,
      "lon": 23.376499,
      "timestamp": "2021-05-13T13:55:05Z",
      "version": 7,
      "changeset": 104641672,
      "user": "muchichka_s",
      "uid": 10857625,
      "tags": {
        "koatuu": "2122486401",
        "name": "Річка",
        "name:en": "Richka",
        "name:hu": "Kispatak",
        "name:prefix": "село",
        "name:ru": "Речка",
        "name:uk": "Річка",
        "place": "village",
        "population": "946",
        "postal_code": "90030",
        "wikidata": "Q4393966",
        "wikipedia": "uk:Річка (Хустський район)"
      }
    },
    {
      "type": "node",
      "id": 337592776,
      "lat": 48.570728,
      "lon": 23.391186,
      "timestamp": "2021-02-09T16:37:15Z",
      "version": 7,
      "changeset": 98989755,
      "user": "muchichka_s",
      "uid": 10857625,
      "tags": {
        "koatuu": "2122488001",
        "name": "Тюшка",
        "name:en": "Tiushka",
        "name:hu": "Csuszka",
        "name:prefix": "село",
        "name:ru": "Тюшка",
        "name:uk": "Тюшка",
        "place": "village",
        "population": "835",
        "postal_code": "90031",
        "wikidata": "Q750473",
        "wikipedia": "uk:Тюшка"
      }
    },
    {
      "type": "node",
      "id": 337593022,
      "lat": 48.5829169,
      "lon": 23.4437528,
      "timestamp": "2021-02-09T16:37:15Z",
      "version": 8,
      "changeset": 98989755,
      "user": "muchichka_s",
      "uid": 10857625,
      "tags": {
        "koatuu": "2122486001",
        "name": "Репинне",
        "name:en": "Repynne",
        "name:hu": "Repenye",
        "name:prefix": "село",
        "name:ru": "Репинное",
        "name:uk": "Репинне",
        "place": "village",
        "population": "1144",
        "postal_code": "90032",
        "wikidata": "Q714523",
        "wikipedia": "uk:Репинне"
      }
    },
    {
      "type": "node",
      "id": 337593059,
      "lat": 48.58292,
      "lon": 23.4256,
      "timestamp": "2021-05-13T13:55:05Z",
      "version": 7,
      "changeset": 104641672,
      "user": "muchichka_s",
      "uid": 10857625,
      "tags": {
        "koatuu": "2122486005",
        "name": "Сухий",
        "name:en": "Sukhyi",
        "name:hu": "Szárazpatak",
        "name:prefix": "село",
        "name:ru": "Сухой",
        "name:uk": "Сухий",
        "place": "village",
        "population": "395",
        "postal_code": "90032",
        "wikidata": "Q3850500",
        "wikipedia": "uk:Сухий (Хустський район)"
      }
    },
    {
      "type": "node",
      "id": 337593100,
      "lat": 48.5809622,
      "lon": 23.6907087,
      "timestamp": "2020-11-22T14:40:13Z",
      "version": 8,
      "changeset": 94582932,
      "user": "muchichka_s",
      "uid": 10857625,
      "tags": {
        "koatuu": "2122487201",
        "name": "Синевирська Поляна",
        "name:en": "Synevyrska Poliana",
        "name:hu": "Felsőszinevér",
        "name:prefix": "село",
        "name:ru": "Синевирская Поляна",
        "name:uk": "Синевирська Поляна",
        "place": "village",
        "population": "1354",
        "postal_code": "90040",
        "wikidata": "Q714666",
        "wikipedia": "uk:Синевирська Поляна"
      }
    },
    {
      "type": "node",
      "id": 337593438,
      "lat": 48.5709,
      "lon": 23.42594,
      "timestamp": "2021-02-09T16:37:15Z",
      "version": 6,
      "changeset": 98989755,
      "user": "muchichka_s",
      "uid": 10857625,
      "tags": {
        "koatuu": "2122486002",
        "name": "Діл",
        "name:en": "Dil",
        "name:hu": "Hegyfok",
        "name:prefix": "село",
        "name:ru": "Дил",
        "name:uk": "Діл",
        "place": "village",
        "population": "183",
        "postal_code": "90032",
        "wikidata": "Q3850897",
        "wikipedia": "uk:Діл"
      }
    },
    {
      "type": "node",
      "id": 337593535,
      "lat": 48.569344,
      "lon": 23.575508,
      "timestamp": "2021-02-09T16:37:15Z",
      "version": 8,
      "changeset": 98989755,
      "user": "muchichka_s",
      "uid": 10857625,
      "tags": {
        "koatuu": "2122455103",
        "name": "Стригальня",
        "name:en": "Stryhalnia",
        "name:hu": "Fenyves",
        "name:prefix": "село",
        "name:ru": "Стригальня",
        "name:uk": "Стригальня",
        "place": "village",
        "population": "507",
        "postal_code": "90000",
        "wikidata": "Q3850774",
        "wikipedia": "uk:Стригальня"
      }
    },
    {
      "type": "node",
      "id": 337593634,
      "lat": 48.56575,
      "lon": 23.475719,
      "timestamp": "2021-02-09T16:37:15Z",
      "version": 8,
      "changeset": 98989755,
      "user": "muchichka_s",
      "uid": 10857625,
      "tags": {
        "koatuu": "2122487401",
        "name": "Сойми",
        "name:en": "Soimy",
        "name:hu": "Vízköz",
        "name:prefix": "село",
        "name:ru": "Соймы",
        "name:uk": "Сойми",
        "place": "village",
        "population": "1068",
        "postal_code": "90033",
        "wikidata": "Q750523",
        "wikipedia": "uk:Сойми"
      }
    },
    {
      "type": "node",
      "id": 337593670,
      "lat": 48.56506,
      "lon": 23.683781,
      "timestamp": "2021-05-13T13:55:05Z",
      "version": 7,
      "changeset": 104641672,
      "user": "muchichka_s",
      "uid": 10857625,
      "tags": {
        "koatuu": "2122487203",
        "name": "Загорб",
        "name:en": "Zahorb",
        "name:hu": "Határhegy",
        "name:prefix": "село",
        "name:ru": "Загорб",
        "name:uk": "Загорб",
        "place": "village",
        "population": "75",
        "postal_code": "90040",
        "wikidata": "Q3850716",
        "wikipedia": "uk:Загорб (Хустський район)"
      }
    },
    {
      "type": "node",
      "id": 337594028,
      "lat": 48.554871,
      "lon": 23.707323,
      "timestamp": "2021-05-13T13:55:05Z",
      "version": 10,
      "changeset": 104641672,
      "user": "muchichka_s",
      "uid": 10857625,
      "tags": {
        "alt_name:en": "Pereniz",
        "koatuu": "2122487202",
        "name": "Береги",
        "name:en": "Berehy",
        "name:hu": "Nagybereg",
        "name:prefix": "село",
        "name:ru": "Береги",
        "name:uk": "Береги",
        "place": "village",
        "population": "211",
        "postal_code": "90040",
        "wikidata": "Q3850847",
        "wikipedia": "uk:Береги (Хустський район)"
      }
    },
    {
      "type": "node",
      "id": 337594633,
      "lat": 48.542061,
      "lon": 23.453751,
      "timestamp": "2021-02-09T16:37:15Z",
      "version": 6,
      "changeset": 98989755,
      "user": "muchichka_s",
      "uid": 10857625,
      "tags": {
        "koatuu": "2122483203",
        "name": "Сопки",
        "name:en": "Sopky",
        "name:hu": "Szopkó",
        "name:prefix": "село",
        "name:ru": "Сопки",
        "name:uk": "Сопки",
        "place": "village",
        "population": "295",
        "postal_code": "90034",
        "wikidata": "Q750451",
        "wikipedia": "uk:Сопки"
      }
    },
    {
      "type": "node",
      "id": 337595407,
      "lat": 48.5281184,
      "lon": 23.5009289,
      "timestamp": "2020-11-15T20:19:47Z",
      "version": 16,
      "changeset": 94163130,
      "user": "muchichka_s",
      "uid": 10857625,
      "tags": {
        "koatuu": "2122455100",
        "name": "Міжгір’я",
        "name:cs": "Mižhirja",
        "name:de": "Mischhirja",
        "name:en": "Mizhhiria",
        "name:hu": "Ökörmező",
        "name:pl": "Miżhirja",
        "name:prefix": "селище міського типу",
        "name:ro": "Boureni",
        "name:ru": "Межгорье",
        "name:uk": "Міжгір’я",
        "old_name": "Волове",
        "place": "town",
        "population": "9549",
        "postal_code": "90000",
        "wikidata": "Q261418",
        "wikipedia": "uk:Міжгір'я (смт)"
      }
    },
    {
      "type": "node",
      "id": 337596369,
      "lat": 48.500519,
      "lon": 23.21961,
      "timestamp": "2021-05-13T13:55:05Z",
      "version": 11,
      "changeset": 104641672,
      "user": "muchichka_s",
      "uid": 10857625,
      "tags": {
        "koatuu": "2124080301",
        "name": "Березники",
        "name:en": "Bereznyky",
        "name:hu": "Bereznek",
        "name:prefix": "село",
        "name:ru": "Березники",
        "name:uk": "Березники",
        "place": "village",
        "population": "3053",
        "postal_code": "89335",
        "url": "http://gska2.rada.gov.ua/pls/z7502/A005?rf7571=11557",
        "wikidata": "Q793404",
        "wikipedia": "uk:Березники (Хустський район)"
      }
    },
    {
      "type": "node",
      "id": 337596741,
      "lat": 48.492279,
      "lon": 23.621639,
      "timestamp": "2021-04-22T18:17:06Z",
      "version": 8,
      "changeset": 103430617,
      "user": "muchichka_s",
      "uid": 10857625,
      "tags": {
        "koatuu": "2122486901",
        "name": "Синевир",
        "name:en": "Synevyr",
        "name:hu": "Alsószinevér",
        "name:pl": "Synewyr",
        "name:prefix": "село",
        "name:ru": "Синевир",
        "name:uk": "Синевир",
        "place": "village",
        "population": "4805",
        "postal_code": "90041",
        "wikidata": "Q602315",
        "wikipedia": "uk:Синевир (село)"
      }
    },
    {
      "type": "node",
      "id": 337596814,
      "lat": 48.488499,
      "lon": 23.66695,
      "timestamp": "2021-02-09T16:37:15Z",
      "version": 6,
      "changeset": 98989755,
      "user": "muchichka_s",
      "uid": 10857625,
      "tags": {
        "koatuu": "2122486902",
        "name": "Заверхня Кичера",
        "name:en": "Zaverkhnia Kychera",
        "name:hu": "Nagycserjés",
        "name:prefix": "село",
        "name:ru": "Заверхняя Кичера",
        "name:uk": "Заверхня Кичера",
        "place": "village",
        "population": "164",
        "postal_code": "90041",
        "wikidata": "Q3850879",
        "wikipedia": "uk:Заверхня Кичера"
      }
    },
    {
      "type": "node",
      "id": 337596904,
      "lat": 48.484718,
      "lon": 23.26973,
      "timestamp": "2021-08-08T13:25:31Z",
      "version": 8,
      "changeset": 109346187,
      "user": "muchichka_s",
      "uid": 10857625,
      "tags": {
        "koatuu": "2121985601",
        "name": "Лисичово",
        "name:en": "Lysychovo",
        "name:hu": "Rókamező",
        "name:prefix": "село",
        "name:ru": "Лисичово",
        "name:sk": "Lisičevo",
        "name:uk": "Лисичово",
        "place": "village",
        "population": "3187",
        "postal_code": "90150",
        "wikidata": "Q749917",
        "wikipedia": "uk:Лисичово"
      }
    },
    {
      "type": "node",
      "id": 337596979,
      "lat": 48.481628,
      "lon": 23.217199,
      "timestamp": "2021-02-27T11:58:29Z",
      "version": 12,
      "changeset": 100094317,
      "user": "muchichka_s",
      "uid": 10857625,
      "tags": {
        "koatuu": "2124082901",
        "name": "Керецьки",
        "name:en": "Keretsky",
        "name:hu": "Kerecke",
        "name:prefix": "село",
        "name:ru": "Керецки",
        "name:uk": "Керецьки",
        "name:yi": "קערעצקי",
        "place": "village",
        "population": "4324",
        "postal_code": "89334",
        "wikidata": "Q727130",
        "wikipedia": "uk:Керецьки"
      }
    },
    {
      "type": "node",
      "id": 337597124,
      "lat": 48.47546,
      "lon": 23.50868,
      "timestamp": "2021-02-09T16:37:15Z",
      "version": 6,
      "changeset": 98989755,
      "user": "muchichka_s",
      "uid": 10857625,
      "tags": {
        "koatuu": "2122455101",
        "name": "Запереділля",
        "name:en": "Zaperedillia",
        "name:hu": "Gombástelep",
        "name:prefix": "село",
        "name:ru": "Запеределье",
        "name:uk": "Запереділля",
        "place": "village",
        "population": "1043",
        "postal_code": "90005",
        "wikidata": "Q3850859",
        "wikipedia": "uk:Запереділля"
      }
    },
    {
      "type": "node",
      "id": 407890576,
      "lat": 48.7419959,
      "lon": 23.6818648,
      "timestamp": "2021-07-15T16:00:33Z",
      "version": 11,
      "changeset": 108063305,
      "user": "sourserg",
      "uid": 13764093,
      "tags": {
        "alt_name:pl": "Przełęcz Toruńska",
        "ele": "931",
        "mountain_pass": "yes",
        "name": "Вишківський перевал",
        "name:pl": "Przełęcz Wyszkowska",
        "name:uk": "Вишківський перевал",
        "natural": "saddle",
        "source": "GPS",
        "wikidata": "Q12089718",
        "wikipedia": "uk:Вишківський перевал"
      }
    },
    {
      "type": "node",
      "id": 520770963,
      "lat": 48.5390207,
      "lon": 23.5985893,
      "timestamp": "2021-07-15T16:00:33Z",
      "version": 4,
      "changeset": 108063305,
      "user": "sourserg",
      "uid": 13764093,
      "tags": {
        "alt_name": "Перехрестя",
        "ele": "793",
        "mountain_pass": "yes",
        "name": "Синевирський перевал",
        "name:en": "Synevyr Pass",
        "name:ru": "Синевирский перевал",
        "name:uk": "Синевирський перевал",
        "natural": "saddle",
        "wikidata": "Q28101604",
        "wikipedia": "uk:Синевирський перевал"
      }
    },
    {
      "type": "node",
      "id": 1412214819,
      "lat": 48.6475877,
      "lon": 23.2297677,
      "timestamp": "2020-05-20T21:33:01Z",
      "version": 5,
      "changeset": 85519279,
      "user": "Artem Kuz",
      "uid": 6935690,
      "tags": {
        "ele": "1598",
        "name": "Великий Верх",
        "name:en": "Velykyi Verkh",
        "name:uk": "Великий Верх",
        "natural": "peak",
        "wikidata": "Q31519587"
      }
    },
    {
      "type": "node",
      "id": 1488772671,
      "lat": 48.6326961,
      "lon": 23.2682363,
      "timestamp": "2020-05-20T21:33:01Z",
      "version": 13,
      "changeset": 85519279,
      "user": "Artem Kuz",
      "uid": 6935690,
      "tags": {
        "alt_name": "Гемба",
        "ele": "1491",
        "loc_name:ru": "Гымба",
        "name": "Гимба",
        "name:en": "Hymba",
        "name:ru": "Гымба",
        "name:uk": "Гимба",
        "natural": "peak",
        "old_name": "Обнога",
        "wikidata": "Q4135140",
        "wikipedia": "uk:Гемба",
        "wikipedia:ru": "Гемба"
      }
    },
    {
      "type": "node",
      "id": 1488784986,
      "lat": 48.53348,
      "lon": 23.38043,
      "timestamp": "2011-11-01T18:16:41Z",
      "version": 1,
      "changeset": 9715101,
      "user": "bakasana",
      "uid": 540071,
      "tags": {
        "natural": "spring"
      }
    },
    {
      "type": "node",
      "id": 1488784988,
      "lat": 48.5561097,
      "lon": 23.355031,
      "timestamp": "2021-08-16T17:41:56Z",
      "version": 8,
      "changeset": 109764722,
      "user": "kapitansup",
      "uid": 13749532,
      "tags": {
        "description": "Желательна чашка для набора воды, но можно набрать и так. Ручей очень сильный даже в августе.",
        "drinking_water": "yes",
        "intermittent": "no",
        "natural": "spring"
      }
    },
    {
      "type": "node",
      "id": 1518733388,
      "lat": 48.5985931,
      "lon": 23.2086485,
      "timestamp": "2011-11-26T22:42:34Z",
      "version": 1,
      "changeset": 9961950,
      "user": "basjka",
      "uid": 487470,
      "tags": {
        "name": "Джерело Біля військової бази",
        "natural": "spring"
      }
    },
    {
      "type": "node",
      "id": 1762233913,
      "lat": 48.4658571,
      "lon": 23.7547481,
      "timestamp": "2016-04-06T13:00:29Z",
      "version": 3,
      "changeset": 38350627,
      "user": "Blackbird27",
      "uid": 3477765,
      "tags": {
        "ele": "1502",
        "name": "Дарвайка",
        "natural": "peak",
        "source": "wikipedia",
        "wikidata": "Q4155024",
        "wikipedia": "uk:Дарвайка",
        "wikipedia:ru": "Дарвайка"
      }
    },
    {
      "type": "node",
      "id": 1762233915,
      "lat": 48.4865771,
      "lon": 23.7640265,
      "timestamp": "2016-04-06T13:02:38Z",
      "version": 3,
      "changeset": 38350683,
      "user": "Blackbird27",
      "uid": 3477765,
      "tags": {
        "ele": "1600",
        "name": "Ясновець",
        "natural": "peak",
        "source": "wikipedia",
        "wikidata": "Q4539366",
        "wikipedia": "uk:Ясновець",
        "wikipedia:ru": "Ясновец"
      }
    },
    {
      "type": "node",
      "id": 1762243357,
      "lat": 48.4982875,
      "lon": 23.7151667,
      "timestamp": "2021-06-04T03:06:38Z",
      "version": 6,
      "changeset": 105807602,
      "user": "muchichka_s",
      "uid": 10857625,
      "tags": {
        "ele": "1709",
        "name": "Негровець",
        "natural": "peak",
        "prominence": "517",
        "source": "wikipedia",
        "wikidata": "Q4316000",
        "wikipedia": "uk:Негровець (гора)"
      }
    },
    {
      "type": "node",
      "id": 1762286031,
      "lat": 48.4955729,
      "lon": 23.5644597,
      "timestamp": "2021-06-04T03:06:38Z",
      "version": 3,
      "changeset": 105807602,
      "user": "muchichka_s",
      "uid": 10857625,
      "tags": {
        "ele": "1317",
        "name": "Мерша",
        "natural": "peak",
        "source": "wikipedia",
        "wikidata": "Q31520907"
      }
    },
    {
      "type": "node",
      "id": 1762293412,
      "lat": 48.7041605,
      "lon": 23.8416198,
      "timestamp": "2016-04-06T13:35:52Z",
      "version": 3,
      "changeset": 38351491,
      "user": "Blackbird27",
      "uid": 3477765,
      "tags": {
        "ele": "1680",
        "name": "Яйко-Ілемське",
        "natural": "peak",
        "source": "wikipedia",
        "wikidata": "Q4536576",
        "wikipedia": "uk:Яйко-Ілемське",
        "wikipedia:pl": "Jajko Ilemskie",
        "wikipedia:ru": "Яйко-Илемске"
      }
    },
    {
      "type": "node",
      "id": 1762293416,
      "lat": 48.7405046,
      "lon": 23.858521,
      "timestamp": "2020-08-11T06:05:05Z",
      "version": 7,
      "changeset": 89229457,
      "user": "iWowik",
      "uid": 481934,
      "tags": {
        "ele": "1587",
        "name": "Горган-Ілемський",
        "name:ru": "Горган Илемский",
        "name:uk": "Горган-Ілемський",
        "natural": "peak",
        "source": "wikipedia",
        "wikidata": "Q4143777",
        "wikipedia": "uk:Ґорґан Ілемський",
        "wikipedia:ru": "Горган Илемский"
      }
    },
    {
      "type": "node",
      "id": 1762948366,
      "lat": 48.6193557,
      "lon": 23.2877413,
      "timestamp": "2020-05-20T21:33:01Z",
      "version": 5,
      "changeset": 85519279,
      "user": "Artem Kuz",
      "uid": 6935690,
      "tags": {
        "alt_name": "Маґура (Жиде)",
        "ele": "1517",
        "loc_name": "Магура-Жиде",
        "name": "Жид-Магура",
        "name:en": "Zhyd-Mahura",
        "natural": "peak",
        "source": "wikipedia",
        "wikidata": "Q4274208",
        "wikipedia": "uk:Жид-Магура"
      }
    },
    {
      "type": "node",
      "id": 1762950882,
      "lat": 48.6022707,
      "lon": 23.3052513,
      "timestamp": "2020-02-02T23:51:37Z",
      "version": 3,
      "changeset": 80449074,
      "user": "critical-mass",
      "uid": 7493003,
      "tags": {
        "ele": "1374",
        "name": "Граб",
        "name:en": "Hrab",
        "name:ru": "Граб",
        "name:uk": "Граб",
        "natural": "peak",
        "source": "wikipedia",
        "wikidata": "Q4147186",
        "wikipedia": "uk:Граб (гора)"
      }
    },
    {
      "type": "node",
      "id": 1762956447,
      "lat": 48.6680984,
      "lon": 23.9002151,
      "timestamp": "2018-06-23T17:30:44Z",
      "version": 4,
      "changeset": 60105621,
      "user": "Захар Кравцов",
      "uid": 4126487,
      "tags": {
        "ele": "1596",
        "name": "Яйко-Перегінське",
        "natural": "peak",
        "source": "wikipedia",
        "wikidata": "Q4536578",
        "wikipedia": "uk:Яйко-Перегінське",
        "wikipedia:ru": "Яйко-Перегинское"
      }
    },
    {
      "type": "node",
      "id": 1762970254,
      "lat": 48.4879383,
      "lon": 23.4057829,
      "timestamp": "2021-06-04T03:06:38Z",
      "version": 4,
      "changeset": 105807602,
      "user": "muchichka_s",
      "uid": 10857625,
      "tags": {
        "ele": "1361",
        "name": "Кук",
        "name:uk": "Кук",
        "natural": "peak",
        "source": "wikipedia",
        "wikidata": "Q44933",
        "wikipedia": "uk:Кук (гора)"
      }
    },
    {
      "type": "node",
      "id": 1772539452,
      "lat": 48.61987,
      "lon": 23.27947,
      "timestamp": "2019-09-25T20:04:26Z",
      "version": 2,
      "changeset": 74926851,
      "user": "critical-mass",
      "uid": 7493003,
      "tags": {
        "name": "Струмок",
        "name:ru": "Ручеек",
        "name:uk": "Струмок",
        "natural": "spring"
      }
    },
    {
      "type": "node",
      "id": 1784537898,
      "lat": 48.575077,
      "lon": 23.8921667,
      "timestamp": "2019-12-24T17:27:59Z",
      "version": 4,
      "changeset": 78828225,
      "user": "Захар Кравцов",
      "uid": 4126487,
      "tags": {
        "ele": "1597",
        "name": "Мала Попадя",
        "name:en": "Mala Popadia",
        "name:uk": "Мала Попадя",
        "natural": "peak",
        "source": "wikipedia",
        "wikidata": "Q4277229",
        "wikipedia": "uk:Мала Попадя",
        "wikipedia:pl": "Mała Popadia",
        "wikipedia:ru": "Малая Попадья"
      }
    },
    {
      "type": "node",
      "id": 1808653711,
      "lat": 48.8991108,
      "lon": 23.4160079,
      "timestamp": "2020-08-10T05:49:00Z",
      "version": 3,
      "changeset": 89176793,
      "user": "User4 - Lightcyphers",
      "uid": 7753484,
      "tags": {
        "amenity": "shelter"
      }
    },
    {
      "type": "node",
      "id": 1838945743,
      "lat": 48.547245,
      "lon": 23.468702,
      "timestamp": "2021-02-09T16:37:15Z",
      "version": 5,
      "changeset": 98989755,
      "user": "muchichka_s",
      "uid": 10857625,
      "tags": {
        "koatuu": "2122483201",
        "name": "Лозянський",
        "name:en": "Lozianskyi",
        "name:hu": "Cserjés",
        "name:prefix": "село",
        "name:ru": "Лозянский",
        "name:uk": "Лозянський",
        "place": "village",
        "population": "1592",
        "postal_code": "90034",
        "wikidata": "Q750511",
        "wikipedia": "uk:Лозянський"
      }
    },
    {
      "type": "node",
      "id": 1838945745,
      "lat": 48.611224,
      "lon": 23.4165581,
      "timestamp": "2012-07-26T17:03:46Z",
      "version": 1,
      "changeset": 12501559,
      "user": "Alexey_ND",
      "uid": 515330,
      "tags": {
        "name": "Место для палатки",
        "tourism": "camp_site"
      }
    },
    {
      "type": "node",
      "id": 1838945748,
      "lat": 48.5339774,
      "lon": 23.6043382,
      "timestamp": "2016-05-22T08:15:51Z",
      "version": 2,
      "changeset": 39482660,
      "user": "cava_lviv",
      "uid": 3903104,
      "tags": {
        "name": "Джерело",
        "natural": "spring"
      }
    },
    {
      "type": "node",
      "id": 1838947152,
      "lat": 48.721483,
      "lon": 23.4834695,
      "timestamp": "2020-12-31T06:36:49Z",
      "version": 4,
      "changeset": 96708979,
      "user": "opencarpatia",
      "uid": 10067215,
      "tags": {
        "ele": "912.6",
        "mountain_pass": "yes",
        "name": "Новоселицький перевал",
        "natural": "saddle"
      }
    },
    {
      "type": "node",
      "id": 1845358350,
      "lat": 48.5776294,
      "lon": 23.749347,
      "timestamp": "2021-06-04T03:06:38Z",
      "version": 3,
      "changeset": 105807602,
      "user": "muchichka_s",
      "uid": 10857625,
      "tags": {
        "ele": "1578",
        "name": "Канч",
        "natural": "peak",
        "source": "wikipedia",
        "wikidata": "Q16565256"
      }
    },
    {
      "type": "node",
      "id": 1845358372,
      "lat": 48.6097264,
      "lon": 23.663789,
      "timestamp": "2021-06-04T02:28:33Z",
      "version": 6,
      "changeset": 105806871,
      "user": "muchichka_s",
      "uid": 10857625,
      "tags": {
        "ele": "1496",
        "name": "Озерна",
        "name:en": "Ozerna",
        "name:ru": "Озерная",
        "name:uk": "Озерна",
        "natural": "peak",
        "prominence": "406",
        "wikidata": "Q16585043"
      }
    },
    {
      "type": "node",
      "id": 1845399409,
      "lat": 48.5036485,
      "lon": 23.8480437,
      "timestamp": "2021-06-04T03:06:38Z",
      "version": 3,
      "changeset": 105807602,
      "user": "muchichka_s",
      "uid": 10857625,
      "tags": {
        "ele": "1598",
        "name": "Передня",
        "natural": "peak",
        "source": "wikipedia",
        "wikidata": "Q4350262",
        "wikipedia": "uk:Передня (гора)"
      }
    },
    {
      "type": "node",
      "id": 1845399410,
      "lat": 48.5340876,
      "lon": 23.7680985,
      "timestamp": "2021-06-04T02:28:30Z",
      "version": 3,
      "changeset": 105806871,
      "user": "muchichka_s",
      "uid": 10857625,
      "tags": {
        "ele": "1405",
        "name": "Явірник",
        "natural": "peak",
        "wikidata": "Q195191",
        "wikipedia": "uk:Явірник (хребет)"
      }
    },
    {
      "type": "node",
      "id": 1845399411,
      "lat": 48.5269538,
      "lon": 23.8576653,
      "timestamp": "2021-06-04T03:06:38Z",
      "version": 3,
      "changeset": 105807602,
      "user": "muchichka_s",
      "uid": 10857625,
      "tags": {
        "ele": "1550",
        "name": "Задня",
        "natural": "peak",
        "source": "wikipedia",
        "wikidata": "Q16618465"
      }
    },
    {
      "type": "node",
      "id": 1873618205,
      "lat": 48.677383,
      "lon": 23.2854137,
      "timestamp": "2021-01-06T17:45:43Z",
      "version": 5,
      "changeset": 97064630,
      "user": "opencarpatia",
      "uid": 10067215,
      "tags": {
        "bottle": "yes",
        "drinking_water": "yes",
        "natural": "spring"
      }
    },
    {
      "type": "node",
      "id": 1873632580,
      "lat": 48.6104695,
      "lon": 23.4043891,
      "timestamp": "2014-12-30T01:38:17Z",
      "version": 2,
      "changeset": 27790942,
      "user": "benya_cat",
      "uid": 674929,
      "tags": {
        "drinking_water": "yes",
        "name": "Мінеральне джерело",
        "natural": "spring"
      }
    },
    {
      "type": "node",
      "id": 1873634612,
      "lat": 48.5604347,
      "lon": 23.4888972,
      "timestamp": "2015-08-11T11:41:18Z",
      "version": 2,
      "changeset": 33263873,
      "user": "Сергій Дубик",
      "uid": 423716,
      "tags": {
        "description": "минеральная вода",
        "natural": "spring"
      }
    },
    {
      "type": "node",
      "id": 2015090192,
      "lat": 48.8566001,
      "lon": 23.3909109,
      "timestamp": "2017-09-13T14:48:03Z",
      "version": 4,
      "changeset": 52009437,
      "user": "nyuriks",
      "uid": 339581,
      "tags": {
        "ele": "1232",
        "name": "Тростян",
        "name:ru": "Тростян",
        "name:uk": "Тростян",
        "natural": "peak",
        "wikidata": "Q73554",
        "wikipedia": "uk:Тростян"
      }
    },
    {
      "type": "node",
      "id": 2021470675,
      "lat": 48.6147968,
      "lon": 23.6818815,
      "timestamp": "2021-08-31T20:19:32Z",
      "version": 6,
      "changeset": 110531390,
      "user": "kapitansup",
      "uid": 13749532,
      "tags": {
        "drinking_water": "yes",
        "natural": "spring"
      }
    },
    {
      "type": "node",
      "id": 2036067657,
      "lat": 48.7952156,
      "lon": 23.2858521,
      "timestamp": "2020-08-10T14:01:17Z",
      "version": 3,
      "changeset": 89203477,
      "user": "User4 - Lightcyphers",
      "uid": 7753484,
      "tags": {
        "name": "Витік р. Стрий",
        "natural": "spring",
        "tourism": "attraction"
      }
    },
    {
      "type": "node",
      "id": 2058437195,
      "lat": 48.5587049,
      "lon": 23.6171983,
      "timestamp": "2012-12-09T17:32:42Z",
      "version": 1,
      "changeset": 14215872,
      "user": "oleh75",
      "uid": 1122213,
      "tags": {
        "natural": "spring"
      }
    },
    {
      "type": "node",
      "id": 2060704935,
      "lat": 48.4721421,
      "lon": 23.7056324,
      "timestamp": "2021-05-30T15:24:19Z",
      "version": 3,
      "changeset": 105572596,
      "user": "Agronom1983",
      "uid": 10483128,
      "tags": {
        "description": "Родник на тропе, не пересыхает, но нужна кружка для набора воды.",
        "natural": "spring"
      }
    },
    {
      "type": "node",
      "id": 2078501103,
      "lat": 48.8823923,
      "lon": 23.6090284,
      "timestamp": "2019-11-24T20:02:29Z",
      "version": 3,
      "changeset": 77491470,
      "user": "steol",
      "uid": 8739432,
      "tags": {
        "ele": "1362.7",
        "name": "Маґура",
        "name:uk": "Маґура",
        "natural": "peak",
        "wikidata": "Q4274211",
        "wikipedia": "uk:Маґура"
      }
    },
    {
      "type": "node",
      "id": 2140427410,
      "lat": 48.7579821,
      "lon": 23.3149638,
      "timestamp": "2020-10-06T21:36:38Z",
      "version": 7,
      "changeset": 92070976,
      "user": "muchichka_s",
      "uid": 10857625,
      "tags": {
        "alt_name": "Бескидський перевал",
        "ele": "974",
        "mountain_pass": "yes",
        "name": "Воловецький перевал",
        "name:en": "Volovets Pass",
        "name:hu": "Kisszolyvai-hágó",
        "name:nn": "Volovetspasset",
        "name:pl": "Przełęcz Beskid (Bieszczady Wschodnie)",
        "name:ru": "Воловецкий перевал",
        "name:uk": "Воловецький перевал",
        "natural": "saddle",
        "wikidata": "Q918642",
        "wikipedia": "uk:Воловецький перевал"
      }
    },
    {
      "type": "node",
      "id": 2317285164,
      "lat": 48.6570935,
      "lon": 23.2704551,
      "timestamp": "2017-11-01T00:50:07Z",
      "version": 2,
      "changeset": 53411984,
      "user": "Chieftl",
      "uid": 3225928,
      "tags": {
        "amenity": "shelter",
        "tourism": "picnic_site"
      }
    },
    {
      "type": "node",
      "id": 2353481737,
      "lat": 48.6781822,
      "lon": 23.2693557,
      "timestamp": "2021-01-06T17:45:43Z",
      "version": 3,
      "changeset": 97064630,
      "user": "opencarpatia",
      "uid": 10067215,
      "tags": {
        "ele": "731",
        "mountain_pass": "yes",
        "name": "Гукливий",
        "natural": "saddle"
      }
    },
    {
      "type": "node",
      "id": 2360339418,
      "lat": 48.8256143,
      "lon": 23.4481855,
      "timestamp": "2016-10-24T20:02:59Z",
      "version": 2,
      "changeset": 43137395,
      "user": "dimitrius00",
      "uid": 3961131,
      "tags": {
        "name": "Смерiчка",
        "name:uk": "Смерiчка",
        "shop": "convenience"
      }
    },
    {
      "type": "node",
      "id": 2368162249,
      "lat": 48.7366578,
      "lon": 23.3124743,
      "timestamp": "2013-07-01T07:50:43Z",
      "version": 1,
      "changeset": 16774026,
      "user": "alex___",
      "uid": 614988,
      "tags": {
        "natural": "spring"
      }
    },
    {
      "type": "node",
      "id": 2368162349,
      "lat": 48.7806869,
      "lon": 23.3383523,
      "timestamp": "2016-10-24T19:59:51Z",
      "version": 2,
      "changeset": 43137198,
      "user": "dimitrius00",
      "uid": 3961131,
      "tags": {
        "name": "Продукти",
        "name:uk": "Продукти",
        "shop": "convenience"
      }
    },
    {
      "type": "node",
      "id": 2376160457,
      "lat": 48.4846936,
      "lon": 23.8354887,
      "timestamp": "2021-06-04T02:33:07Z",
      "version": 2,
      "changeset": 105806931,
      "user": "muchichka_s",
      "uid": 10857625,
      "tags": {
        "ele": "1543",
        "name": "Стеняк",
        "name:uk": "Стеняк",
        "natural": "peak",
        "wikidata": "Q16606913"
      }
    },
    {
      "type": "node",
      "id": 2376765187,
      "lat": 48.5166567,
      "lon": 23.8524591,
      "timestamp": "2021-06-04T02:28:34Z",
      "version": 2,
      "changeset": 105806871,
      "user": "muchichka_s",
      "uid": 10857625,
      "tags": {
        "ele": "1502",
        "name": "Середня",
        "name:uk": "Середня",
        "natural": "peak",
        "wikidata": "Q16600570"
      }
    },
    {
      "type": "node",
      "id": 2379860999,
      "lat": 48.5676597,
      "lon": 23.6623532,
      "timestamp": "2013-07-10T08:43:30Z",
      "version": 1,
      "changeset": 16896624,
      "user": "Kaskad13",
      "uid": 1230692,
      "tags": {
        "natural": "spring"
      }
    },
    {
      "type": "node",
      "id": 2379861004,
      "lat": 48.6089377,
      "lon": 23.7006733,
      "timestamp": "2021-08-31T20:19:32Z",
      "version": 3,
      "changeset": 110531390,
      "user": "kapitansup",
      "uid": 13749532,
      "tags": {
        "bottle": "yes",
        "drinking_water": "yes",
        "natural": "spring"
      }
    },
    {
      "type": "node",
      "id": 2379861007,
      "lat": 48.6150787,
      "lon": 23.7010623,
      "timestamp": "2013-07-10T08:43:30Z",
      "version": 1,
      "changeset": 16896624,
      "user": "Kaskad13",
      "uid": 1230692,
      "tags": {
        "natural": "spring"
      }
    },
    {
      "type": "node",
      "id": 2379861011,
      "lat": 48.6160774,
      "lon": 23.6904449,
      "timestamp": "2013-07-10T08:43:31Z",
      "version": 1,
      "changeset": 16896624,
      "user": "Kaskad13",
      "uid": 1230692,
      "tags": {
        "natural": "spring"
      }
    },
    {
      "type": "node",
      "id": 2379861013,
      "lat": 48.6162652,
      "lon": 23.6893331,
      "timestamp": "2013-07-10T08:43:31Z",
      "version": 1,
      "changeset": 16896624,
      "user": "Kaskad13",
      "uid": 1230692,
      "tags": {
        "natural": "spring"
      }
    },
    {
      "type": "node",
      "id": 2379861709,
      "lat": 48.8357352,
      "lon": 23.8585931,
      "timestamp": "2020-10-06T02:17:35Z",
      "version": 4,
      "changeset": 92012377,
      "user": "opencarpatia",
      "uid": 10067215,
      "tags": {
        "bottle": "yes",
        "drinking_water": "yes",
        "natural": "spring"
      }
    },
    {
      "type": "node",
      "id": 2380318412,
      "lat": 48.7821505,
      "lon": 23.4824339,
      "timestamp": "2021-06-04T07:01:25Z",
      "version": 4,
      "changeset": 105818467,
      "user": "muchichka_s",
      "uid": 10857625,
      "tags": {
        "ele": "1242.8",
        "name": "Високий Верх",
        "name:pl": "Wysoki Wierch",
        "name:ru": "Высокий Верх",
        "name:uk": "Високий Верх",
        "natural": "peak",
        "wikidata": "Q22280531",
        "wikipedia": "uk:Високий Верх"
      }
    },
    {
      "type": "node",
      "id": 2385331304,
      "lat": 48.5138928,
      "lon": 23.6752301,
      "timestamp": "2013-07-15T12:49:17Z",
      "version": 1,
      "changeset": 16961863,
      "user": "Kaskad13",
      "uid": 1230692,
      "tags": {
        "natural": "spring"
      }
    },
    {
      "type": "node",
      "id": 2385331476,
      "lat": 48.5281979,
      "lon": 23.6730995,
      "timestamp": "2013-07-15T12:49:20Z",
      "version": 1,
      "changeset": 16961863,
      "user": "Kaskad13",
      "uid": 1230692,
      "tags": {
        "natural": "spring"
      }
    },
    {
      "type": "node",
      "id": 2392528593,
      "lat": 48.8802823,
      "lon": 23.2859874,
      "timestamp": "2013-07-22T08:34:32Z",
      "version": 1,
      "changeset": 17045372,
      "user": "alex___",
      "uid": 614988,
      "tags": {
        "name": "Мінімаркет",
        "shop": "convenience"
      }
    },
    {
      "type": "node",
      "id": 2392528629,
      "lat": 48.8125054,
      "lon": 23.3601914,
      "timestamp": "2016-10-24T19:59:59Z",
      "version": 2,
      "changeset": 43137198,
      "user": "dimitrius00",
      "uid": 3961131,
      "tags": {
        "name": "Продукти",
        "name:uk": "Продукти",
        "shop": "convenience"
      }
    },
    {
      "type": "node",
      "id": 2459212683,
      "lat": 48.6478971,
      "lon": 23.2567859,
      "timestamp": "2021-08-01T12:43:48Z",
      "version": 5,
      "changeset": 108972731,
      "user": "destnk",
      "uid": 2937439,
      "tags": {
        "natural": "spring"
      }
    },
    {
      "type": "node",
      "id": 2461452532,
      "lat": 48.6623051,
      "lon": 23.29142,
      "timestamp": "2017-07-09T07:32:50Z",
      "version": 2,
      "changeset": 50146019,
      "user": "lubomyr kinh",
      "uid": 6229636,
      "tags": {
        "addr:housenumber": "308",
        "addr:street": "пилипець",
        "name": "У Юли",
        "shop": "convenience"
      }
    },
    {
      "type": "node",
      "id": 2513822726,
      "lat": 48.6438969,
      "lon": 23.2732361,
      "timestamp": "2013-10-30T11:46:25Z",
      "version": 1,
      "changeset": 18616045,
      "user": "olehz",
      "uid": 204049,
      "tags": {
        "natural": "spring"
      }
    },
    {
      "type": "node",
      "id": 2812839743,
      "lat": 48.7664668,
      "lon": 23.3228627,
      "timestamp": "2014-04-24T08:54:00Z",
      "version": 1,
      "changeset": 21903035,
      "user": "zhvlnts",
      "uid": 443101,
      "tags": {
        "amenity": "drinking_water"
      }
    },
    {
      "type": "node",
      "id": 2859706423,
      "lat": 48.8228009,
      "lon": 23.5526439,
      "timestamp": "2021-06-04T07:01:28Z",
      "version": 4,
      "changeset": 105818467,
      "user": "muchichka_s",
      "uid": 10857625,
      "tags": {
        "ele": "1281",
        "name": "Магій (Чиряк)",
        "name:ru": "Магий",
        "natural": "peak",
        "wikidata": "Q31524558"
      }
    },
    {
      "type": "node",
      "id": 2859706424,
      "lat": 48.9036675,
      "lon": 23.4181382,
      "timestamp": "2021-05-25T16:51:26Z",
      "version": 4,
      "changeset": 105305658,
      "user": "muchichka_s",
      "uid": 10857625,
      "tags": {
        "ele": "933",
        "name": "Маківка",
        "name:en": "Makivka",
        "natural": "peak",
        "wikidata": "Q4275910",
        "wikipedia": "uk:Маківка (гора)"
      }
    },
    {
      "type": "node",
      "id": 2859706447,
      "lat": 48.7303627,
      "lon": 23.5188859,
      "timestamp": "2021-06-04T07:13:22Z",
      "version": 5,
      "changeset": 105819282,
      "user": "muchichka_s",
      "uid": 10857625,
      "tags": {
        "ele": "1285",
        "name": "Чорна Рипа",
        "name:pl": "Czorna Ripa",
        "name:ru": "Черная Рыпа",
        "name:uk": "Чорна Рипа",
        "natural": "peak",
        "wikidata": "Q16538106",
        "wikipedia": "pl:Czorna Ripa"
      }
    },
    {
      "type": "node",
      "id": 2912955341,
      "lat": 48.5104363,
      "lon": 23.3964513,
      "timestamp": "2021-08-16T17:41:56Z",
      "version": 3,
      "changeset": 109764722,
      "user": "kapitansup",
      "uid": 13749532,
      "tags": {
        "description": "Родник слабый и затоптанный стадами коз.",
        "intermittent": "yes",
        "natural": "spring"
      }
    },
    {
      "type": "node",
      "id": 2912955342,
      "lat": 48.538335,
      "lon": 23.3744986,
      "timestamp": "2018-07-07T20:54:54Z",
      "version": 2,
      "changeset": 60497104,
      "user": "Jiří Komárek",
      "uid": 524625,
      "tags": {
        "drinking_water": "yes",
        "natural": "spring"
      }
    },
    {
      "type": "node",
      "id": 2912955352,
      "lat": 48.5758807,
      "lon": 23.3227446,
      "timestamp": "2021-01-08T15:44:31Z",
      "version": 6,
      "changeset": 97178949,
      "user": "Agronom1983",
      "uid": 10483128,
      "tags": {
        "description": "Very reliable.\nХороший родник, надежный, вкусная вода, но нужна кружка для зачерпывания воды с родника",
        "intermittent": "yes",
        "natural": "spring"
      }
    },
    {
      "type": "node",
      "id": 2912955353,
      "lat": 48.5989361,
      "lon": 23.3088646,
      "timestamp": "2021-08-16T17:41:56Z",
      "version": 2,
      "changeset": 109764722,
      "user": "kapitansup",
      "uid": 13749532,
      "tags": {
        "natural": "spring"
      }
    },
    {
      "type": "node",
      "id": 2912955358,
      "lat": 48.6171222,
      "lon": 23.2858372,
      "timestamp": "2014-06-12T17:12:45Z",
      "version": 1,
      "changeset": 22893089,
      "user": "Ivan Dmytrenko",
      "uid": 729981,
      "tags": {
        "natural": "spring"
      }
    },
    {
      "type": "node",
      "id": 2998380875,
      "lat": 48.4631015,
      "lon": 23.7517684,
      "timestamp": "2014-08-05T19:35:02Z",
      "version": 1,
      "changeset": 24562648,
      "user": "oleh75",
      "uid": 1122213,
      "tags": {
        "natural": "spring"
      }
    },
    {
      "type": "node",
      "id": 2998380888,
      "lat": 48.4665517,
      "lon": 23.7604282,
      "timestamp": "2014-08-05T19:35:02Z",
      "version": 1,
      "changeset": 24562648,
      "user": "oleh75",
      "uid": 1122213,
      "tags": {
        "natural": "spring"
      }
    },
    {
      "type": "node",
      "id": 3017180934,
      "lat": 48.6962652,
      "lon": 23.2611256,
      "timestamp": "2014-08-14T21:17:36Z",
      "version": 1,
      "changeset": 24755306,
      "user": "benya_cat",
      "uid": 674929,
      "tags": {
        "natural": "spring"
      }
    },
    {
      "type": "node",
      "id": 3017200777,
      "lat": 48.6540998,
      "lon": 23.2688328,
      "timestamp": "2017-08-09T17:22:41Z",
      "version": 3,
      "changeset": 50979374,
      "user": "RostiTorth",
      "uid": 440222,
      "tags": {
        "tourism": "camp_site"
      }
    },
    {
      "type": "node",
      "id": 3017200778,
      "lat": 48.6579027,
      "lon": 23.2716269,
      "timestamp": "2014-08-14T21:26:54Z",
      "version": 1,
      "changeset": 24755461,
      "user": "benya_cat",
      "uid": 674929,
      "tags": {
        "natural": "spring"
      }
    },
    {
      "type": "node",
      "id": 3022195704,
      "lat": 48.64451,
      "lon": 23.2712,
      "timestamp": "2014-08-17T13:07:35Z",
      "version": 1,
      "changeset": 24806847,
      "user": "bakasana",
      "uid": 540071,
      "tags": {
        "natural": "spring"
      }
    },
    {
      "type": "node",
      "id": 3022195705,
      "lat": 48.6454384,
      "lon": 23.2813376,
      "timestamp": "2021-08-01T12:43:48Z",
      "version": 3,
      "changeset": 108972731,
      "user": "destnk",
      "uid": 2937439,
      "tags": {
        "intermittent": "yes",
        "natural": "spring"
      }
    },
    {
      "type": "node",
      "id": 3022195706,
      "lat": 48.6543464,
      "lon": 23.2671016,
      "timestamp": "2015-08-09T11:16:35Z",
      "version": 3,
      "changeset": 33216955,
      "user": "Сергій Дубик",
      "uid": 423716,
      "tags": {
        "natural": "spring"
      }
    },
    {
      "type": "node",
      "id": 3036838969,
      "lat": 48.791718,
      "lon": 23.4766988,
      "timestamp": "2019-09-05T10:31:01Z",
      "version": 3,
      "changeset": 74125109,
      "user": "destnk",
      "uid": 2937439,
      "tags": {
        "intermittent": "no",
        "name": "Писана Криниця",
        "name:pl": "Źródło \"Pisana Kiernica\"",
        "natural": "spring",
        "tourism": "attraction",
        "wikidata": "Q25431935",
        "wikipedia": "uk:Писана криниця"
      }
    },
    {
      "type": "node",
      "id": 3036838970,
      "lat": 48.7935641,
      "lon": 23.4784841,
      "timestamp": "2014-08-23T11:31:28Z",
      "version": 1,
      "changeset": 24953514,
      "user": "mandruy",
      "uid": 155636,
      "tags": {
        "natural": "spring"
      }
    },
    {
      "type": "node",
      "id": 3036838971,
      "lat": 48.796759,
      "lon": 23.4811576,
      "timestamp": "2020-11-13T10:55:26Z",
      "version": 3,
      "changeset": 94055960,
      "user": "Довгий",
      "uid": 3256892,
      "tags": {
        "fee": "no",
        "name": "RedБук",
        "operator": "VATRA",
        "tourism": "camp_site"
      }
    },
    {
      "type": "node",
      "id": 3036838972,
      "lat": 48.8085904,
      "lon": 23.4690125,
      "timestamp": "2016-07-25T20:06:33Z",
      "version": 2,
      "changeset": 41021633,
      "user": "Myazyk",
      "uid": 899942,
      "tags": {
        "natural": "spring"
      }
    },
    {
      "type": "node",
      "id": 3036844571,
      "lat": 48.7026821,
      "lon": 23.6350396,
      "timestamp": "2021-01-11T02:27:12Z",
      "version": 3,
      "changeset": 97270679,
      "user": "opencarpatia",
      "uid": 10067215,
      "tags": {
        "drinking_water": "seasonal",
        "name": "Не дуже чисте джерело",
        "natural": "spring"
      }
    },
    {
      "type": "node",
      "id": 3036844572,
      "lat": 48.6594126,
      "lon": 23.6731371,
      "timestamp": "2018-09-15T16:16:06Z",
      "version": 3,
      "changeset": 62615648,
      "user": "Захар Кравцов",
      "uid": 4126487,
      "tags": {
        "name": "Слабке джерело на схилі",
        "name:en": "Weak spring",
        "name:ru": "Слабый родник",
        "name:uk": "Слабке джерело",
        "natural": "spring"
      }
    },
    {
      "type": "node",
      "id": 3036847184,
      "lat": 48.6238292,
      "lon": 23.6763248,
      "timestamp": "2014-08-23T11:38:51Z",
      "version": 1,
      "changeset": 24953650,
      "user": "mandruy",
      "uid": 155636,
      "tags": {
        "natural": "spring"
      }
    },
    {
      "type": "node",
      "id": 3037334456,
      "lat": 48.6480533,
      "lon": 23.8410984,
      "timestamp": "2014-08-23T17:09:55Z",
      "version": 1,
      "changeset": 24960471,
      "user": "mandruy",
      "uid": 155636,
      "tags": {
        "natural": "spring"
      }
    },
    {
      "type": "node",
      "id": 3102818157,
      "lat": 48.6657833,
      "lon": 23.2516852,
      "timestamp": "2021-07-30T18:52:43Z",
      "version": 8,
      "changeset": 108906814,
      "user": "destnk",
      "uid": 2937439,
      "tags": {
        "ele": "1210",
        "name": "Ряпецка",
        "name:en": "Riapetska",
        "name:uk": "Ряпецка",
        "natural": "peak",
        "wikidata": "Q31520212",
        "wikipedia": "uk:Ряпецка"
      }
    },
    {
      "type": "node",
      "id": 3125522144,
      "lat": 48.648293,
      "lon": 23.2196161,
      "timestamp": "2014-10-12T09:46:06Z",
      "version": 1,
      "changeset": 26021972,
      "user": "iorant",
      "uid": 374661,
      "tags": {
        "natural": "spring"
      }
    },
    {
      "type": "node",
      "id": 3259192613,
      "lat": 48.552475,
      "lon": 23.4903937,
      "timestamp": "2014-12-30T01:54:11Z",
      "version": 1,
      "changeset": 27791060,
      "user": "benya_cat",
      "uid": 674929,
      "tags": {
        "amenity": "shelter"
      }
    },
    {
      "type": "node",
      "id": 3481423326,
      "lat": 48.7878202,
      "lon": 23.3537433,
      "timestamp": "2015-04-27T12:47:32Z",
      "version": 1,
      "changeset": 30539700,
      "user": "alex___",
      "uid": 614988,
      "tags": {
        "natural": "spring"
      }
    },
    {
      "type": "node",
      "id": 3498661977,
      "lat": 48.9216013,
      "lon": 23.7015172,
      "timestamp": "2015-05-05T08:34:48Z",
      "version": 1,
      "changeset": 30802125,
      "user": "alex___",
      "uid": 614988,
      "tags": {
        "natural": "spring"
      }
    },
    {
      "type": "node",
      "id": 3563344651,
      "lat": 48.8431715,
      "lon": 23.5206239,
      "timestamp": "2015-06-01T11:45:31Z",
      "version": 1,
      "changeset": 31631534,
      "user": "alex___",
      "uid": 614988,
      "tags": {
        "natural": "spring"
      }
    },
    {
      "type": "node",
      "id": 3563344814,
      "lat": 48.8461376,
      "lon": 23.5307975,
      "timestamp": "2015-06-01T11:45:35Z",
      "version": 1,
      "changeset": 31631534,
      "user": "alex___",
      "uid": 614988,
      "tags": {
        "natural": "spring"
      }
    },
    {
      "type": "node",
      "id": 3563346011,
      "lat": 48.8960432,
      "lon": 23.5073984,
      "timestamp": "2017-03-24T13:36:41Z",
      "version": 3,
      "changeset": 47124958,
      "user": "Myazyk",
      "uid": 899942,
      "tags": {
        "name": "Продукти",
        "name:uk": "Продукти",
        "shop": "convenience"
      }
    },
    {
      "type": "node",
      "id": 3563346045,
      "lat": 48.907853,
      "lon": 23.4746992,
      "timestamp": "2017-03-28T20:58:48Z",
      "version": 3,
      "changeset": 47242558,
      "user": "Myazyk",
      "uid": 899942,
      "tags": {
        "name": "Продукти",
        "name:uk": "Продукти",
        "shop": "convenience"
      }
    },
    {
      "type": "node",
      "id": 3566025216,
      "lat": 48.528171,
      "lon": 23.4140821,
      "timestamp": "2018-07-15T19:11:04Z",
      "version": 2,
      "changeset": 60738707,
      "user": "Jiří Komárek",
      "uid": 524625,
      "tags": {
        "drinking_water": "yes",
        "natural": "spring"
      }
    },
    {
      "type": "node",
      "id": 3656118302,
      "lat": 48.7442758,
      "lon": 23.9046486,
      "timestamp": "2021-03-20T14:22:53Z",
      "version": 2,
      "changeset": 101388991,
      "user": "AlexRiabtsev",
      "uid": 3244221,
      "tags": {
        "natural": "spring"
      }
    },
    {
      "type": "node",
      "id": 3666059893,
      "lat": 48.6701261,
      "lon": 23.2072444,
      "timestamp": "2015-07-25T15:33:09Z",
      "version": 1,
      "changeset": 32873500,
      "user": "Сергій Дубик",
      "uid": 423716,
      "tags": {
        "fixme": "додано за нотаткою, перевірити розташування",
        "natural": "spring"
      }
    },
    {
      "type": "node",
      "id": 3668318224,
      "lat": 48.6150432,
      "lon": 23.2893707,
      "timestamp": "2015-07-27T09:07:55Z",
      "version": 1,
      "changeset": 32904479,
      "user": "Сергій Дубик",
      "uid": 423716,
      "tags": {
        "fixme": "Уточнити місце!",
        "natural": "spring"
      }
    },
    {
      "type": "node",
      "id": 3668386413,
      "lat": 48.6438249,
      "lon": 23.2371531,
      "timestamp": "2015-07-27T10:05:49Z",
      "version": 1,
      "changeset": 32905747,
      "user": "Сергій Дубик",
      "uid": 423716,
      "tags": {
        "fixme": "Уточнити місце!",
        "natural": "spring"
      }
    },
    {
      "type": "node",
      "id": 3669238183,
      "lat": 48.4905452,
      "lon": 23.7529585,
      "timestamp": "2020-06-25T06:48:47Z",
      "version": 2,
      "changeset": 87119996,
      "user": "User5 - Lightcyphers",
      "uid": 9249148,
      "tags": {
        "natural": "spring"
      }
    },
    {
      "type": "node",
      "id": 3669255832,
      "lat": 48.5074758,
      "lon": 23.6710706,
      "timestamp": "2015-07-27T21:12:33Z",
      "version": 1,
      "changeset": 32918674,
      "user": "ExplorerUA",
      "uid": 3100177,
      "tags": {
        "natural": "spring"
      }
    },
    {
      "type": "node",
      "id": 3669255833,
      "lat": 48.5075074,
      "lon": 23.667406,
      "timestamp": "2015-07-27T21:12:33Z",
      "version": 1,
      "changeset": 32918674,
      "user": "ExplorerUA",
      "uid": 3100177,
      "tags": {
        "natural": "spring"
      }
    },
    {
      "type": "node",
      "id": 3670779578,
      "lat": 48.8607505,
      "lon": 23.4821517,
      "timestamp": "2015-07-28T19:24:07Z",
      "version": 1,
      "changeset": 32940556,
      "user": "angryukr",
      "uid": 3101668,
      "tags": {
        "natural": "spring"
      }
    },
    {
      "type": "node",
      "id": 3670836609,
      "lat": 48.8685512,
      "lon": 23.4675391,
      "timestamp": "2020-11-30T21:09:19Z",
      "version": 2,
      "changeset": 95068762,
      "user": "opencarpatia",
      "uid": 10067215,
      "tags": {
        "bottle": "yes",
        "natural": "spring"
      }
    },
    {
      "type": "node",
      "id": 3690305335,
      "lat": 48.8526039,
      "lon": 23.890044,
      "timestamp": "2021-01-11T02:48:47Z",
      "version": 2,
      "changeset": 97271204,
      "user": "opencarpatia",
      "uid": 10067215,
      "tags": {
        "amenity": "drinking_water",
        "bottle": "yes",
        "fee": "no",
        "indoor": "no",
        "name": "Мінеральна вода",
        "name:ru": "Минеральная вода",
        "natural": "spring"
      }
    },
    {
      "type": "node",
      "id": 3691488772,
      "lat": 48.5229624,
      "lon": 23.5016369,
      "timestamp": "2015-08-11T14:35:51Z",
      "version": 1,
      "changeset": 33268304,
      "user": "Сергій Дубик",
      "uid": 423716,
      "tags": {
        "name": "Продукти",
        "shop": "convenience"
      }
    },
    {
      "type": "node",
      "id": 3723210782,
      "lat": 48.5731552,
      "lon": 23.2312365,
      "timestamp": "2018-07-15T19:11:05Z",
      "version": 2,
      "changeset": 60738707,
      "user": "Jiří Komárek",
      "uid": 524625,
      "tags": {
        "drinking_water": "yes",
        "natural": "spring"
      }
    },
    {
      "type": "node",
      "id": 3743886150,
      "lat": 48.6578591,
      "lon": 23.2714945,
      "timestamp": "2018-07-15T19:11:06Z",
      "version": 2,
      "changeset": 60738707,
      "user": "Jiří Komárek",
      "uid": 524625,
      "tags": {
        "drinking_water": "yes",
        "natural": "spring"
      }
    },
    {
      "type": "node",
      "id": 3750496989,
      "lat": 48.5954735,
      "lon": 23.2900708,
      "timestamp": "2020-10-23T11:10:02Z",
      "version": 6,
      "changeset": 92945961,
      "user": "Agronom1983",
      "uid": 10483128,
      "tags": {
        "description": "Колыба топиться на черную, есть маленькая комната-кухня с кострищем. И вторая, побольше, которая полностью занята большим лежаком. \nПримерная вместимость лежака - 5-6 человек.\nЕще в колыбу могут залазить \"волчки\" - мелкие серые белки.",
        "shelter_type": "basic_hut",
        "tourism": "wilderness_hut"
      }
    },
    {
      "type": "node",
      "id": 3771551547,
      "lat": 48.6565875,
      "lon": 23.2201057,
      "timestamp": "2015-10-04T09:39:20Z",
      "version": 1,
      "changeset": 34423064,
      "user": "knusperfrosch",
      "uid": 13998,
      "tags": {
        "drinking_water": "yes",
        "natural": "spring"
      }
    },
    {
      "type": "node",
      "id": 3863024151,
      "lat": 48.6686336,
      "lon": 23.2069405,
      "timestamp": "2015-11-27T17:17:06Z",
      "version": 1,
      "changeset": 35615192,
      "user": "SmokBeljy",
      "uid": 3418320,
      "tags": {
        "natural": "spring"
      }
    },
    {
      "type": "node",
      "id": 3918190909,
      "lat": 48.8988188,
      "lon": 23.3284046,
      "timestamp": "2018-02-01T16:06:47Z",
      "version": 2,
      "changeset": 55970032,
      "user": "Myazyk",
      "uid": 899942,
      "tags": {
        "description": "продукты",
        "name": "Магазин",
        "shop": "convenience"
      }
    },
    {
      "type": "node",
      "id": 3923182524,
      "lat": 48.894738,
      "lon": 23.3395658,
      "timestamp": "2018-02-02T15:40:52Z",
      "version": 2,
      "changeset": 55999473,
      "user": "Myazyk",
      "uid": 899942,
      "tags": {
        "description": "Продуктовый магазин с большим камином",
        "name": "Магазин",
        "shop": "convenience"
      }
    },
    {
      "type": "node",
      "id": 4095825139,
      "lat": 48.7287173,
      "lon": 23.5218952,
      "timestamp": "2021-06-13T07:53:16Z",
      "version": 3,
      "changeset": 106274181,
      "user": "Oleg Voron",
      "uid": 6525050,
      "tags": {
        "name": "Витік р. Ріка",
        "name:uk": "Витік р. Ріка. Стояча. Бажано фільтрувати.",
        "natural": "spring"
      }
    },
    {
      "type": "node",
      "id": 4105341889,
      "lat": 48.4785423,
      "lon": 23.2209206,
      "timestamp": "2020-06-13T10:50:33Z",
      "version": 3,
      "changeset": 86596124,
      "user": "iWowik",
      "uid": 481934,
      "tags": {
        "addr:housenumber": "7",
        "addr:street": "Головна вулиця",
        "name": "Мій магазин",
        "shop": "convenience"
      }
    },
    {
      "type": "node",
      "id": 4118423990,
      "lat": 48.6108585,
      "lon": 23.3898613,
      "timestamp": "2017-10-03T18:45:35Z",
      "version": 2,
      "changeset": 52605252,
      "user": "Pavlo K",
      "uid": 6249419,
      "tags": {
        "name": "Мінеральне джерело",
        "natural": "spring"
      }
    },
    {
      "type": "node",
      "id": 4118424189,
      "lat": 48.6098298,
      "lon": 23.405646,
      "timestamp": "2016-04-13T08:28:48Z",
      "version": 1,
      "changeset": 38518641,
      "user": "Vasco G",
      "uid": 3564486,
      "tags": {
        "name": "Місце для відпочинку",
        "tourism": "camp_site"
      }
    },
    {
      "type": "node",
      "id": 4195840797,
      "lat": 48.7025609,
      "lon": 23.6342921,
      "timestamp": "2020-06-09T12:27:22Z",
      "version": 3,
      "changeset": 86408775,
      "user": "User7 - Lightcyphers",
      "uid": 10493430,
      "tags": {
        "ele": "930.6",
        "mountain_pass": "yes",
        "name": "Торунський перевал",
        "name:hu": "Toronyai-hágó",
        "name:pl": "Przełęcz Toruńska",
        "name:ru": "Торуньский перевал",
        "name:uk": "Торунський перевал",
        "natural": "saddle",
        "wikidata": "Q820967",
        "wikipedia": "uk:Торунський перевал"
      }
    },
    {
      "type": "node",
      "id": 4228533191,
      "lat": 48.5688947,
      "lon": 23.3274303,
      "timestamp": "2021-08-16T17:41:56Z",
      "version": 3,
      "changeset": 109764722,
      "user": "kapitansup",
      "uid": 13749532,
      "tags": {
        "backcountry": "yes",
        "name": "Місце для кемпінгу",
        "tourism": "camp_site"
      }
    },
    {
      "type": "node",
      "id": 4228617304,
      "lat": 48.7199577,
      "lon": 23.8454951,
      "timestamp": "2020-11-01T13:34:46Z",
      "version": 3,
      "changeset": 93368115,
      "user": "OleLeb",
      "uid": 2338533,
      "tags": {
        "intermittent": "yes",
        "natural": "spring"
      }
    },
    {
      "type": "node",
      "id": 4228617311,
      "lat": 48.7596208,
      "lon": 23.8476724,
      "timestamp": "2020-10-06T15:35:17Z",
      "version": 2,
      "changeset": 92058561,
      "user": "zlyisalat",
      "uid": 357342,
      "tags": {
        "intermittent": "yes",
        "natural": "spring"
      }
    },
    {
      "type": "node",
      "id": 4242685254,
      "lat": 48.8616831,
      "lon": 23.4620831,
      "timestamp": "2016-06-14T10:26:01Z",
      "version": 1,
      "changeset": 40014326,
      "user": "Cabeleira",
      "uid": 348674,
      "tags": {
        "amenity": "shelter"
      }
    },
    {
      "type": "node",
      "id": 4242685257,
      "lat": 48.8617219,
      "lon": 23.4622083,
      "timestamp": "2016-06-14T10:26:01Z",
      "version": 1,
      "changeset": 40014326,
      "user": "Cabeleira",
      "uid": 348674,
      "tags": {
        "amenity": "shelter"
      }
    },
    {
      "type": "node",
      "id": 4242685259,
      "lat": 48.8617501,
      "lon": 23.4615894,
      "timestamp": "2016-06-14T10:26:02Z",
      "version": 1,
      "changeset": 40014326,
      "user": "Cabeleira",
      "uid": 348674,
      "tags": {
        "amenity": "shelter"
      }
    },
    {
      "type": "node",
      "id": 4242685276,
      "lat": 48.862181,
      "lon": 23.4619005,
      "timestamp": "2016-06-14T10:26:02Z",
      "version": 1,
      "changeset": 40014326,
      "user": "Cabeleira",
      "uid": 348674,
      "tags": {
        "amenity": "shelter"
      }
    },
    {
      "type": "node",
      "id": 4242685331,
      "lat": 48.8636407,
      "lon": 23.4582404,
      "timestamp": "2016-06-14T10:26:03Z",
      "version": 1,
      "changeset": 40014326,
      "user": "Cabeleira",
      "uid": 348674,
      "tags": {
        "amenity": "shelter"
      }
    },
    {
      "type": "node",
      "id": 4291609297,
      "lat": 48.7133159,
      "lon": 23.8305988,
      "timestamp": "2020-10-17T20:14:31Z",
      "version": 3,
      "changeset": 92640988,
      "user": "Agronom1983",
      "uid": 10483128,
      "tags": {
        "name": "Пересихаюче джерело",
        "natural": "spring"
      }
    },
    {
      "type": "node",
      "id": 4291609379,
      "lat": 48.7811416,
      "lon": 23.789354,
      "timestamp": "2016-07-08T22:06:46Z",
      "version": 1,
      "changeset": 40601592,
      "user": "Kaskad13",
      "uid": 1230692,
      "tags": {
        "natural": "spring"
      }
    },
    {
      "type": "node",
      "id": 4301361398,
      "lat": 48.6282847,
      "lon": 23.2831314,
      "timestamp": "2017-01-31T21:40:40Z",
      "version": 2,
      "changeset": 45698592,
      "user": "marcis60",
      "uid": 2787960,
      "tags": {
        "natural": "spring"
      }
    },