{
  "osm3s": {
    "timestamp_osm_date": "2022-01-29T23:59:59Z",
    "timestamp_osm_base": "2022-01-30T05:59:38Z",
    "copyright": "The data included in this document is from www.openstreetmap.org. The data is made available under ODbL."
  },
  "elements": [
    {
      "type": "node",
      "id": 53190047,
      "lat": -41.2710849,
      "lon": 173.2836756,
      "timestamp": "2020-12-30T13:59:33Z",
      "version": 20,
      "changeset": 96672791,
      "user": "AhmadHB",
      "uid": 10182045,
      "tags": {
        "is_in:country": "New Zealand",
        "is_in:country_code": "NZ",
        "is_in:ocean": "Pacific",
        "is_in:state": "Nelson",
        "name": "Nelson",
        "name:ckb": "نیڵسۆن",
        "name:en": "Nelson",
        "name:fa": "نلسون",
        "name:ja": "ネルソン",
        "name:mi": "Whakatū",
        "name:mk": "Нелсон",
        "name:ru": "Нельсон",
        "name:uk": "Нельсон",
        "place": "city",
        "population": "61100",
        "wikidata": "Q206687"
      }
    },
    {
      "type": "node",
      "id": 53190048,
      "lat": -41.112493,
      "lon": 173.0094875,
      "timestamp": "2020-10-06T08:22:39Z",
      "version": 9,
      "changeset": 92031657,
      "user": "lcmortensen",
      "uid": 341519,
      "tags": {
        "name": "Motueka",
        "name:mi": "Motuweka",
        "name:mk": "Мотуека",
        "place": "town",
        "population": "8340",
        "source:population": "Statistics NZ 2019",
        "wikidata": "Q489458"
      }
    },
    {
      "type": "node",
      "id": 55467684,
      "lat": -41.210023,
      "lon": 173.379716,
      "timestamp": "2021-09-26T01:57:36Z",
      "version": 5,
      "changeset": 111705184,
      "user": "kylenz_linz",
      "uid": 8389777,
      "tags": {
        "direction": "119",
        "ele": "106",
        "mountain_pass": "yes",
        "name": "Gentle Annie Saddle",
        "natural": "saddle",
        "ref:linz:topo50_id": "3338926"
      }
    },
    {
      "type": "node",
      "id": 82799650,
      "lat": -41.0369592,
      "lon": 173.0166609,
      "timestamp": "2018-09-27T03:31:42Z",
      "version": 7,
      "changeset": 62963600,
      "user": "lcmortensen",
      "uid": 341519,
      "tags": {
        "name": "Kaiteriteri",
        "name:mi": "Kaiteriteri",
        "place": "village",
        "wikidata": "Q15232588"
      }
    },
    {
      "type": "node",
      "id": 204469486,
      "lat": -41.2724691,
      "lon": 173.287298,
      "timestamp": "2022-01-01T07:23:23Z",
      "version": 6,
      "changeset": 115628494,
      "user": "lcmortensen",
      "uid": 341519,
      "tags": {
        "addr:city": "Nelson",
        "brand": "FreshChoice",
        "brand:wikidata": "Q22271877",
        "brand:wikipedia": "en:FreshChoice",
        "name": "FreshChoice",
        "opening_hours": "Mo-Su 07:00-21:00",
        "shop": "supermarket"
      }
    },
    {
      "type": "node",
      "id": 204499880,
      "lat": -41.3380953,
      "lon": 173.1872264,
      "timestamp": "2020-10-06T08:22:39Z",
      "version": 9,
      "changeset": 92031657,
      "user": "lcmortensen",
      "uid": 341519,
      "tags": {
        "name": "Richmond",
        "name:ckb": "ڕیچمۆند",
        "name:mk": "Ричмонд",
        "place": "town",
        "population": "16300",
        "source:population": "Statistics NZ 2019",
        "wikidata": "Q1208462"
      }
    },
    {
      "type": "node",
      "id": 204503615,
      "lat": -41.0061336,
      "lon": 173.0086156,
      "timestamp": "2021-10-24T04:32:44Z",
      "version": 15,
      "changeset": 112892831,
      "user": "kiwiAs",
      "uid": 9850906,
      "tags": {
        "is_in": "Tasman District",
        "name": "Marahau",
        "name:en": "Marahau",
        "name:mi": "Mārahau",
        "official_name": "Mārahau",
        "place": "village",
        "wikidata": "Q6754658"
      }
    },
    {
      "type": "node",
      "id": 205806460,
      "lat": -41.25321,
      "lon": 173.0962191,
      "timestamp": "2021-10-24T04:28:18Z",
      "version": 15,
      "changeset": 112892773,
      "user": "kiwiAs",
      "uid": 9850906,
      "tags": {
        "is_in": "Tasman",
        "name": "Mapua",
        "name:en": "Mapua",
        "name:mi": "Māpua",
        "name:mk": "Мапуа",
        "official_name": "Māpua",
        "place": "town",
        "population": "1320",
        "source:population": "Statistics NZ 2019",
        "wikidata": "Q1892126"
      }
    },
    {
      "type": "node",
      "id": 251080856,
      "lat": -41.3748768,
      "lon": 173.1065596,
      "timestamp": "2020-10-06T08:22:39Z",
      "version": 7,
      "changeset": 92031657,
      "user": "lcmortensen",
      "uid": 341519,
      "tags": {
        "name": "Brightwater",
        "name:mk": "Брајтвотер",
        "place": "town",
        "population": "2220",
        "source:population": "Statistics NZ 2019",
        "wikidata": "Q915930"
      }
    },
    {
      "type": "node",
      "id": 253307560,
      "lat": -41.4056242,
      "lon": 173.0428332,
      "timestamp": "2020-10-06T08:22:39Z",
      "version": 8,
      "changeset": 92031657,
      "user": "lcmortensen",
      "uid": 341519,
      "tags": {
        "name": "Wakefield",
        "name:mk": "Вејкфилд",
        "place": "town",
        "population": "2520",
        "source:population": "Statistics NZ 2019",
        "wikidata": "Q683323"
      }
    },
    {
      "type": "node",
      "id": 321553623,
      "lat": -41.137119,
      "lon": 172.9913811,
      "timestamp": "2020-12-07T00:11:53Z",
      "version": 3,
      "changeset": 95385074,
      "user": "pizzaiolo",
      "uid": 1772368,
      "tags": {
        "name": "Lower Moutere",
        "place": "hamlet",
        "wikidata": "Q25661977"
      }
    },
    {
      "type": "node",
      "id": 321553706,
      "lat": -41.188206,
      "lon": 172.9949061,
      "timestamp": "2018-11-02T06:24:22Z",
      "version": 2,
      "changeset": 64102072,
      "user": "lcmortensen",
      "uid": 341519,
      "tags": {
        "name": "Braeburn",
        "place": "hamlet"
      }
    },
    {
      "type": "node",
      "id": 321553707,
      "lat": -41.2350885,
      "lon": 173.0863455,
      "timestamp": "2018-11-02T05:51:30Z",
      "version": 3,
      "changeset": 64101519,
      "user": "lcmortensen",
      "uid": 341519,
      "tags": {
        "name": "Ruby Bay",
        "name:mi": "Te Mamaku",
        "place": "village"
      }
    },
    {
      "type": "node",
      "id": 339473991,
      "lat": -41.1842288,
      "lon": 173.3633867,
      "timestamp": "2009-01-31T22:15:30Z",
      "version": 2,
      "changeset": 859620,
      "user": "InTheSand",
      "uid": 22549,
      "tags": {
        "created_by": "Potlatch 0.10f",
        "is_in": "Nelson",
        "name": "The Glen",
        "place": "hamlet"
      }
    },
    {
      "type": "node",
      "id": 339474860,
      "lat": -41.1882465,
      "lon": 173.3618332,
      "timestamp": "2018-09-27T00:03:29Z",
      "version": 2,
      "changeset": 62961431,
      "user": "lcmortensen",
      "uid": 341519,
      "tags": {
        "created_by": "Potlatch 0.10f",
        "is_in": "Nelson",
        "name": "Glenduan",
        "place": "hamlet",
        "wikidata": "Q24885134"
      }
    },
    {
      "type": "node",
      "id": 425053448,
      "lat": -41.2916341,
      "lon": 173.670074,
      "timestamp": "2019-06-06T02:40:34Z",
      "version": 4,
      "changeset": 70972532,
      "user": "bjankuloski",
      "uid": 158784,
      "tags": {
        "name": "Canvastown",
        "name:mk": "Канвастаун",
        "place": "hamlet",
        "wikidata": "Q5034151"
      }
    },
    {
      "type": "node",
      "id": 608995994,
      "lat": -41.2209135,
      "lon": 173.4392382,
      "timestamp": "2021-09-26T01:57:36Z",
      "version": 9,
      "changeset": 111705184,
      "user": "kylenz_linz",
      "uid": 8389777,
      "tags": {
        "direction": "113",
        "ele": "466",
        "mountain_pass": "yes",
        "name": "Whangamoa Saddle",
        "name:mi": "Whangamoa",
        "natural": "saddle",
        "ref:linz:topo50_id": "3338927",
        "wikidata": "Q24886731"
      }
    },
    {
      "type": "node",
      "id": 832120355,
      "lat": -41.3468714,
      "lon": 172.9870768,
      "timestamp": "2021-04-18T09:21:51Z",
      "version": 3,
      "changeset": 103129146,
      "user": "skgrange",
      "uid": 1892481,
      "tags": {
        "ele": "348",
        "name": "Dovedale Saddle",
        "natural": "saddle"
      }
    },
    {
      "type": "node",
      "id": 988497761,
      "lat": -41.2661862,
      "lon": 173.0448719,
      "timestamp": "2010-11-14T05:05:15Z",
      "version": 1,
      "changeset": 6363805,
      "user": "InTheSand",
      "uid": 22549,
      "tags": {
        "is_in": "Tasman",
        "name": "Mahana",
        "place": "hamlet"
      }
    },
    {
      "type": "node",
      "id": 988510767,
      "lat": -41.4137102,
      "lon": 173.2767929,
      "timestamp": "2020-04-01T11:07:44Z",
      "version": 8,
      "changeset": 82919334,
      "user": "Sarvihepo",
      "uid": 2057798,
      "tags": {
        "capacity": "8",
        "drinking_water": "stream",
        "fee": "yes",
        "fireplace": "yes",
        "mattress": "yes",
        "name": "Browning Hut",
        "operator": "Department of Conservation",
        "payment:prepaid_card": "yes",
        "payment:prepaid_ticket": "yes",
        "ref:doc": "100065092",
        "reservation": "no",
        "toilets": "yes",
        "tourism": "wilderness_hut",
        "website": "https://www.doc.govt.nz/parks-and-recreation/places-to-go/marlborough/places/mount-richmond-forest-park/things-to-do/huts/browning-hut/"
      }
    },
    {
      "type": "node",
      "id": 988521429,
      "lat": -41.3458205,
      "lon": 173.3574676,
      "timestamp": "2021-09-26T01:57:36Z",
      "version": 3,
      "changeset": 111705184,
      "user": "kylenz_linz",
      "uid": 8389777,
      "tags": {
        "direction": "50",
        "ele": "883",
        "name": "Coppermine Saddle",
        "natural": "saddle",
        "ref:linz:topo50_id": "3338923"
      }
    },
    {
      "type": "node",
      "id": 1006210003,
      "lat": -41.3040306,
      "lon": 173.4192321,
      "timestamp": "2021-09-26T01:57:36Z",
      "version": 3,
      "changeset": 111705184,
      "user": "kylenz_linz",
      "uid": 8389777,
      "tags": {
        "direction": "79",
        "ele": "940",
        "name": "Maungatapu Saddle",
        "name:mi": "Maungatapu",
        "natural": "saddle",
        "ref:linz:topo50_id": "3338925"
      }
    },
    {
      "type": "node",
      "id": 1111331932,
      "lat": -41.0418379,
      "lon": 173.0158789,
      "timestamp": "2018-11-02T06:24:22Z",
      "version": 3,
      "changeset": 64102072,
      "user": "lcmortensen",
      "uid": 341519,
      "tags": {
        "name": "Little Kaiteriteri",
        "place": "hamlet"
      }
    },
    {
      "type": "node",
      "id": 1123061393,
      "lat": -41.32202,
      "lon": 173.352659,
      "timestamp": "2014-01-04T08:17:27Z",
      "version": 2,
      "changeset": 19800260,
      "user": "GISmate",
      "uid": 1796076,
      "tags": {
        "LINZ:source_version": "V16",
        "attribution": "http://wiki.osm.org/wiki/Attribution#LINZ",
        "name": "Maitai Caves",
        "natural": "cave_entrance",
        "source_ref": "http://www.linz.govt.nz/topography/topo-maps/"
      }
    },
    {
      "type": "node",
      "id": 1150595959,
      "lat": -41.2987635,
      "lon": 173.5725325,
      "timestamp": "2020-12-09T01:16:24Z",
      "version": 6,
      "changeset": 95517188,
      "user": "StenSoft",
      "uid": 255936,
      "tags": {
        "name": "Pelorus Bridge",
        "name:mi": "Te Hoiere",
        "place": "hamlet",
        "wikidata": "Q7161691"
      }
    },
    {
      "type": "node",
      "id": 1214530406,
      "lat": -41.3387236,
      "lon": 173.1866589,
      "timestamp": "2016-11-01T04:16:27Z",
      "version": 3,
      "changeset": 43318364,
      "user": "kennylogans",
      "uid": 4804392,
      "tags": {
        "name": "Pak'n'Save",
        "name:en": "Pak'nSave Richmond",
        "shop": "supermarket"
      }
    },
    {
      "type": "node",
      "id": 1214530417,
      "lat": -41.3393681,
      "lon": 173.1860688,
      "timestamp": "2021-12-31T01:01:28Z",
      "version": 3,
      "changeset": 115588305,
      "user": "Mortein",
      "uid": 10823038,
      "tags": {
        "brand": "FreshChoice",
        "brand:wikidata": "Q22271877",
        "brand:wikipedia": "en:FreshChoice",
        "name": "FreshChoice",
        "opening_hours": "Mo-Su 07:00-21:00",
        "shop": "supermarket"
      }
    },
    {
      "type": "node",
      "id": 1225195678,
      "lat": -41.1120074,
      "lon": 173.6549546,
      "timestamp": "2021-06-21T06:15:16Z",
      "version": 6,
      "changeset": 106693716,
      "user": "kylenz_linz",
      "uid": 8389777,
      "tags": {
        "addr:city": "Okiwi Bay",
        "addr:country": "NZ",
        "addr:hamlet": "Ōkiwi Bay",
        "addr:housenumber": "15",
        "addr:postcode": "7193",
        "addr:street": "Renata Road",
        "cabins": "1",
        "caravans": "12",
        "contact:website": "http://www.okiwi.co.nz/",
        "dryer": "yes",
        "kitchen": "yes",
        "power_supply": "yes",
        "ref:linz:address_id": "321724",
        "tents": "3",
        "tourism": "camp_site",
        "washing_machine": "yes"
      }
    },
    {
      "type": "node",
      "id": 1225285106,
      "lat": -41.347973,
      "lon": 173.6372172,
      "timestamp": "2021-09-24T06:19:49Z",
      "version": 3,
      "changeset": 111629145,
      "user": "kylenz_linz",
      "uid": 8389777,
      "tags": {
        "name": "Pinedale Camping Ground",
        "source": "LINZ",
        "tourism": "camp_site"
      }
    },
    {
      "type": "node",
      "id": 1225313590,
      "lat": -41.4283879,
      "lon": 173.5868455,
      "timestamp": "2021-10-03T23:49:37Z",
      "version": 3,
      "changeset": 112051951,
      "user": "kylenz",
      "uid": 10140394,
      "tags": {
        "amenity": "shelter",
        "name": "Derelict hut",
        "source": "LINZ"
      }
    },
    {
      "type": "node",
      "id": 1232133161,
      "lat": -41.1120967,
      "lon": 173.6581263,
      "timestamp": "2021-10-24T04:32:07Z",
      "version": 11,
      "changeset": 112892824,
      "user": "kiwiAs",
      "uid": 9850906,
      "tags": {
        "name": "Okiwi Bay",
        "name:en": "Okiwi Bay",
        "name:mi": "О̄kiwi",
        "name:mk": "Окиви Беј",
        "official_name": "О̄kiwi Bay",
        "place": "village",
        "wikidata": "Q25661983",
        "wikipedia": "en:Ōkiwi Bay"
      }
    },
    {
      "type": "node",
      "id": 1232141074,
      "lat": -41.2278927,
      "lon": 173.5834466,
      "timestamp": "2020-10-02T09:59:01Z",
      "version": 5,
      "changeset": 91861235,
      "user": "lcmortensen",
      "uid": 341519,
      "tags": {
        "name": "Rai Valley",
        "name:mi": "Rai",
        "name:mk": "Раи Вели",
        "place": "village",
        "population": "177",
        "wikidata": "Q7283684"
      }
    },
    {
      "type": "node",
      "id": 1573679792,
      "lat": -41.3123786,
      "lon": 173.2343759,
      "timestamp": "2016-04-14T02:50:06Z",
      "version": 2,
      "changeset": 38544011,
      "user": "Rudy355",
      "uid": 142831,
      "tags": {
        "name": "Night and Day",
        "shop": "convenience"
      }
    },
    {
      "type": "node",
      "id": 1598776314,
      "lat": -41.496536,
      "lon": 173.086582,
      "timestamp": "2012-01-20T11:05:49Z",
      "version": 1,
      "changeset": 10445190,
      "user": "rediguana",
      "uid": 22180,
      "tags": {
        "natural": "cave_entrance",
        "source": "survey"
      }
    },
    {
      "type": "node",
      "id": 1656895059,
      "lat": -40.9886023,
      "lon": 173.024813,
      "timestamp": "2017-01-30T15:03:36Z",
      "version": 3,
      "changeset": 45654298,
      "user": "juhanjuku",
      "uid": 152305,
      "tags": {
        "name": "Tinline Bay Camp",
        "tourism": "camp_site"
      }
    },
    {
      "type": "node",
      "id": 2017672193,
      "lat": -41.1287194,
      "lon": 173.6041502,
      "timestamp": "2021-09-26T01:57:36Z",
      "version": 5,
      "changeset": 111705184,
      "user": "kylenz_linz",
      "uid": 8389777,
      "tags": {
        "direction": "22",
        "ele": "308",
        "name": "Ronga Saddle",
        "name:mi": "Ronga",
        "natural": "saddle",
        "ref:linz:topo50_id": "3338936"
      }
    },
    {
      "type": "node",
      "id": 2149448813,
      "lat": -41.2933692,
      "lon": 173.3093566,
      "timestamp": "2021-09-26T01:57:36Z",
      "version": 3,
      "changeset": 111705184,
      "user": "kylenz_linz",
      "uid": 8389777,
      "tags": {
        "direction": "107",
        "ele": "180",
        "name": "Tantragee Saddle",
        "natural": "saddle",
        "ref:linz:topo50_id": "3338924"
      }
    },
    {
      "type": "node",
      "id": 2166313594,
      "lat": -41.2531434,
      "lon": 173.095935,
      "timestamp": "2021-10-02T04:10:23Z",
      "version": 5,
      "changeset": 111987430,
      "user": "cloventt",
      "uid": 11127399,
      "tags": {
        "addr:city": "Mapua",
        "addr:housenumber": "64",
        "addr:postcode": "7005",
        "addr:street": "Aranui Road",
        "brand": "Four Square",
        "brand:wikidata": "Q5475558",
        "brand:wikipedia": "en:Four Square (supermarket)",
        "name": "Four Square",
        "opening_hours": "Mo-Fr 07:30-19:00, Sa-Su 08:30-19:00",
        "phone": "+64 3 3 540 2890",
        "shop": "convenience",
        "website": "https://www.foursquare.co.nz/south-island/nelson/mapua"
      }
    },
    {
      "type": "node",
      "id": 2196592153,
      "lat": -41.4578859,
      "lon": 173.2411754,
      "timestamp": "2020-04-01T11:07:44Z",
      "version": 7,
      "changeset": 82919334,
      "user": "Sarvihepo",
      "uid": 2057798,
      "tags": {
        "building": "yes",
        "capacity": "6",
        "drinking_water": "boil",
        "ele": "1170",
        "fee": "yes",
        "fireplace": "yes",
        "mattress": "yes",
        "name": "Starveall Hut",
        "operator": "Department of Conservation",
        "payment:prepaid_card": "yes",
        "payment:prepaid_ticket": "yes",
        "ref:doc": "100061740",
        "reservation": "no",
        "toilets": "yes",
        "tourism": "wilderness_hut",
        "website": "https://www.doc.govt.nz/parks-and-recreation/places-to-go/marlborough/places/mount-richmond-forest-park/things-to-do/huts/starveall-hut/"
      }
    },
    {
      "type": "node",
      "id": 2196616187,
      "lat": -41.485479,
      "lon": 173.2784495,
      "timestamp": "2020-04-01T11:07:44Z",
      "version": 7,
      "changeset": 82919334,
      "user": "Sarvihepo",
      "uid": 2057798,
      "tags": {
        "building": "yes",
        "capacity": "6",
        "drinking_water": "boil",
        "ele": "1400",
        "fee": "yes",
        "fireplace": "yes",
        "mattress": "yes",
        "name": "Slaty Hut",
        "operator": "DoC",
        "payment:prepaid_card": "yes",
        "payment:prepaid_ticket": "yes",
        "ref:doc": "100061149",
        "reservation": "no",
        "toilets": "yes",
        "tourism": "wilderness_hut",
        "website": "https://www.doc.govt.nz/parks-and-recreation/places-to-go/marlborough/places/mount-richmond-forest-park/things-to-do/huts/slaty-hut/"
      }
    },
    {
      "type": "node",
      "id": 2196759327,
      "lat": -41.4158249,
      "lon": 173.2459161,
      "timestamp": "2020-04-01T11:07:44Z",
      "version": 8,
      "changeset": 82919334,
      "user": "Sarvihepo",
      "uid": 2057798,
      "tags": {
        "capacity": "6",
        "drinking_water": "stream",
        "ele": "270",
        "fee": "yes",
        "fireplace": "yes",
        "mattress": "yes",
        "name": "Hacket Hut",
        "operator": "DoC",
        "payment:prepaid_card": "yes",
        "payment:prepaid_ticket": "yes",
        "ref:doc": "100061147",
        "reservation": "no",
        "toilets": "yes",
        "tourism": "wilderness_hut",
        "website": "https://www.doc.govt.nz/parks-and-recreation/places-to-go/marlborough/places/mount-richmond-forest-park/things-to-do/huts/hacket-hut/"
      }
    },
    {
      "type": "node",
      "id": 2247766255,
      "lat": -41.3282099,
      "lon": 173.216042,
      "timestamp": "2016-04-14T02:50:10Z",
      "version": 2,
      "changeset": 38544011,
      "user": "Rudy355",
      "uid": 142831,
      "tags": {
        "amenity": "drinking_water"
      }
    },
    {
      "type": "node",
      "id": 2261562331,
      "lat": -41.4062451,
      "lon": 173.0429152,
      "timestamp": "2019-09-26T05:57:12Z",
      "version": 2,
      "changeset": 74938152,
      "user": "Adr1en",
      "uid": 3366289,
      "tags": {
        "name": "Four Square",
        "opening_hours": "Mo-Su 08:00-20:00",
        "shop": "supermarket"
      }
    },
    {
      "type": "node",
      "id": 2261562339,
      "lat": -41.3542499,
      "lon": 173.1540004,
      "timestamp": "2013-04-10T13:26:31Z",
      "version": 1,
      "changeset": 15677826,
      "user": "aighes",
      "uid": 110639,
      "tags": {
        "name": "On the Spot",
        "shop": "convenience"
      }
    },
    {
      "type": "node",
      "id": 2261563501,
      "lat": -41.3944518,
      "lon": 173.0670133,
      "timestamp": "2018-11-02T06:24:25Z",
      "version": 2,
      "changeset": 64102072,
      "user": "lcmortensen",
      "uid": 341519,
      "tags": {
        "name": "Spring Grove",
        "place": "hamlet"
      }
    },
    {
      "type": "node",
      "id": 2261563502,
      "lat": -41.4276565,
      "lon": 172.9914255,
      "timestamp": "2018-11-02T06:24:25Z",
      "version": 3,
      "changeset": 64102072,
      "user": "lcmortensen",
      "uid": 341519,
      "tags": {
        "name": "Wai-iti",
        "name:mi": "Wai-iti",
        "place": "hamlet"
      }
    },
    {
      "type": "node",
      "id": 2262510900,
      "lat": -41.348796,
      "lon": 173.3640747,
      "timestamp": "2021-09-26T01:57:36Z",
      "version": 3,
      "changeset": 111705184,
      "user": "kylenz_linz",
      "uid": 8389777,
      "tags": {
        "direction": "324",
        "ele": "982",
        "name": "Dun Saddle",
        "natural": "saddle",
        "ref:linz:topo50_id": "3338922"
      }
    },
    {
      "type": "node",
      "id": 2264684046,
      "lat": -41.3739636,
      "lon": 173.4352671,
      "timestamp": "2021-03-31T07:04:27Z",
      "version": 7,
      "changeset": 102031882,
      "user": "skgrange",
      "uid": 1892481,
      "tags": {
        "capacity": "6",
        "drinking_water": "stream",
        "fee": "yes",
        "fireplace": "yes",
        "mattress": "yes",
        "name": "Captains Creek Hut",
        "operator": "Department of Conservation",
        "payment:prepaid_card": "yes",
        "payment:prepaid_ticket": "yes",
        "ref:doc": "100061254",
        "reservation": "no",
        "toilets": "yes",
        "tourism": "wilderness_hut",
        "website": "https://www.doc.govt.nz/parks-and-recreation/places-to-go/marlborough/places/mount-richmond-forest-park/things-to-do/huts/captains-creek-hut/"
      }
    },
    {
      "type": "node",
      "id": 2264684049,
      "lat": -41.3842358,
      "lon": 173.392726,
      "timestamp": "2021-03-30T20:26:24Z",
      "version": 9,
      "changeset": 102007940,
      "user": "skgrange",
      "uid": 1892481,
      "tags": {
        "capacity": "6",
        "drinking_water": "stream",
        "fee": "yes",
        "fireplace": "yes",
        "mattress": "yes",
        "name": "Middy Creek Hut",
        "operator": "Department of Conservation",
        "payment:prepaid_card": "yes",
        "payment:prepaid_ticket": "yes",
        "ref:doc": "100059887",
        "reservation": "no",
        "toilets": "yes",
        "tourism": "wilderness_hut",
        "website": "https://www.doc.govt.nz/parks-and-recreation/places-to-go/marlborough/places/mount-richmond-forest-park/things-to-do/huts/middy-creek-hut/"
      }
    },
    {
      "type": "node",
      "id": 2264690300,
      "lat": -41.4110798,
      "lon": 173.287951,
      "timestamp": "2021-09-26T01:57:36Z",
      "version": 6,
      "changeset": 111705184,
      "user": "kylenz_linz",
      "uid": 8389777,
      "tags": {
        "direction": "79",
        "ele": "695",
        "name": "Tōtara Saddle",
        "name:mi": "Tōtara",
        "natural": "saddle",
        "ref:linz:topo50_id": "3338921"
      }
    },
    {
      "type": "node",
      "id": 2264698089,
      "lat": -41.3671861,
      "lon": 173.3549261,
      "timestamp": "2020-04-01T11:07:44Z",
      "version": 10,
      "changeset": 82919334,
      "user": "Sarvihepo",
      "uid": 2057798,
      "tags": {
        "capacity": "16",
        "drinking_water": "boil",
        "fee": "yes",
        "fireplace": "yes",
        "mattress": "yes",
        "name": "Rocks Hut",
        "operator": "Department of Conservation",
        "payment:prepaid_card": "yes",
        "payment:prepaid_ticket": "yes",
        "ref:doc": "100061255",
        "reservation": "no",
        "toilets": "yes",
        "tourism": "wilderness_hut",
        "website": "https://www.doc.govt.nz/parks-and-recreation/places-to-go/marlborough/places/mount-richmond-forest-park/things-to-do/huts/rocks-hut/"
      }
    },
    {
      "type": "node",
      "id": 2264698090,
      "lat": -41.4119216,
      "lon": 173.3572952,
      "timestamp": "2018-06-23T19:50:46Z",
      "version": 4,
      "changeset": 60107869,
      "user": "gaddman",
      "uid": 365177,
      "tags": {
        "name": "Roebuck Hut",
        "operator": "Department of Conservation",
        "ref:doc": "100059888",
        "tourism": "wilderness_hut"
      }
    },
    {
      "type": "node",
      "id": 2297985291,
      "lat": -41.2651783,
      "lon": 173.2721431,
      "timestamp": "2013-05-10T09:08:31Z",
      "version": 2,
      "changeset": 16060977,
      "user": "setti",
      "uid": 1173879,
      "tags": {
        "name": "Haven Road Store",
        "shop": "convenience"
      }
    },
    {
      "type": "node",
      "id": 2300497767,
      "lat": -41.2738621,
      "lon": 173.2945839,
      "timestamp": "2016-12-15T00:01:22Z",
      "version": 2,
      "changeset": 44411223,
      "user": "skgrange",
      "uid": 1892481,
      "tags": {
        "amenity": "drinking_water"
      }
    },
    {
      "type": "node",
      "id": 2304353251,
      "lat": -41.3756859,
      "lon": 173.5938214,
      "timestamp": "2018-06-02T04:04:37Z",
      "version": 2,
      "changeset": 59476595,
      "user": "gaddman",
      "uid": 365177,
      "tags": {
        "caravans": "yes",
        "name": "Butchers Flat",
        "operator": "Department of Conservation",
        "tents": "yes",
        "tourism": "camp_site"
      }
    },
    {
      "type": "node",
      "id": 2304353263,
      "lat": -41.501058,
      "lon": 173.5108873,
      "timestamp": "2018-06-02T04:04:38Z",
      "version": 2,
      "changeset": 59476595,
      "user": "gaddman",
      "uid": 365177,
      "tags": {
        "caravans": "yes",
        "name": "Mill Flat",
        "operator": "Department of Conservation",
        "tents": "yes",
        "tourism": "camp_site"
      }
    },
    {
      "type": "node",
      "id": 2306023240,
      "lat": -41.2743652,
      "lon": 173.2819905,
      "timestamp": "2020-12-30T13:58:26Z",
      "version": 2,
      "changeset": 96672707,
      "user": "AhmadHB",
      "uid": 10182045,
      "tags": {
        "addr:city": "Nelson",
        "name": "Wakatu Mini Market",
        "shop": "convenience"
      }
    },
    {
      "type": "node",
      "id": 2320516981,
      "lat": -41.2810162,
      "lon": 173.2700195,
      "timestamp": "2013-06-21T09:53:47Z",
      "version": 2,
      "changeset": 16641373,
      "user": "setti",
      "uid": 1173879,
      "tags": {
        "name": "On the Spot",
        "shop": "convenience"
      }
    },
    {
      "type": "node",
      "id": 2344331172,
      "lat": -41.3054678,
      "lon": 173.121258,
      "timestamp": "2018-11-02T05:51:30Z",
      "version": 5,
      "changeset": 64101519,
      "user": "lcmortensen",
      "uid": 341519,
      "tags": {
        "name": "Appleby",
        "place": "hamlet",
        "wikidata": "Q16961770"
      }
    },
    {
      "type": "node",
      "id": 2356819159,
      "lat": -41.3542393,
      "lon": 173.1533798,
      "timestamp": "2020-10-06T08:22:39Z",
      "version": 6,
      "changeset": 92031657,
      "user": "lcmortensen",
      "uid": 341519,
      "tags": {
        "name": "Hope",
        "name:mk": "Хоуп",
        "place": "town",
        "population": "960",
        "source:population": "Statistics NZ 2019",
        "wikidata": "Q3610579"
      }
    },
    {
      "type": "node",
      "id": 2366810131,
      "lat": -41.2713131,
      "lon": 173.2605194,
      "timestamp": "2017-02-18T23:52:53Z",
      "version": 2,
      "changeset": 46204287,
      "user": "Rudy355",
      "uid": 142831,
      "tags": {
        "amenity": "drinking_water"
      }
    },
    {
      "type": "node",
      "id": 2383864082,
      "lat": -41.27643,
      "lon": 173.2869383,
      "timestamp": "2013-07-14T04:20:49Z",
      "version": 1,
      "changeset": 16944341,
      "user": "setti",
      "uid": 1173879,
      "tags": {
        "name": "Kandy Korner Store",
        "shop": "convenience"
      }
    },
    {
      "type": "node",
      "id": 2406796502,
      "lat": -41.2631646,
      "lon": 173.2935448,
      "timestamp": "2021-06-27T04:25:48Z",
      "version": 4,
      "changeset": 107021936,
      "user": "Rudy355",
      "uid": 142831,
      "tags": {
        "amenity": "drinking_water"
      }
    },
    {
      "type": "node",
      "id": 2537472713,
      "lat": -41.3195972,
      "lon": 173.2286788,
      "timestamp": "2021-03-31T19:27:15Z",
      "version": 2,
      "changeset": 102075650,
      "user": "kylenz_linz",
      "uid": 8389777,
      "tags": {
        "addr:housenumber": "18",
        "addr:street": "Polstead Road",
        "addr:suburb": "Stoke",
        "name": "Polstead Road Minimarket",
        "ref:linz:address_id": "308148",
        "shop": "convenience"
      }
    },
    {
      "type": "node",
      "id": 2597917442,
      "lat": -41.3425809,
      "lon": 173.3759097,
      "timestamp": "2017-08-13T11:49:45Z",
      "version": 5,
      "changeset": 51079624,
      "user": "lcmortensen",
      "uid": 341519,
      "tags": {
        "ele": "1129",
        "name": "Dun Mountain",
        "natural": "peak",
        "wikidata": "Q31700319"
      }
    },
    {
      "type": "node",
      "id": 2623881034,
      "lat": -41.0435738,
      "lon": 173.006538,
      "timestamp": "2014-01-15T19:51:16Z",
      "version": 1,
      "changeset": 20021267,
      "user": "aluka",
      "uid": 16330,
      "tags": {
        "amenity": "drinking_water"
      }
    },
    {
      "type": "node",
      "id": 3162332074,
      "lat": -41.4069669,
      "lon": 173.0357942,
      "timestamp": "2016-04-01T12:41:58Z",
      "version": 2,
      "changeset": 38225301,
      "user": "Aleks-Berlin",
      "uid": 85218,
      "tags": {
        "note": "BBQ's Council, Overnight Camping - Council",
        "operator": "Council",
        "tourism": "camp_site"
      }
    },
    {
      "type": "node",
      "id": 3218345814,
      "lat": -41.3360813,
      "lon": 173.3936003,
      "timestamp": "2021-02-19T06:16:11Z",
      "version": 2,
      "changeset": 99566849,
      "user": "lcmortensen",
      "uid": 341519,
      "tags": {
        "ele": "1143",
        "name": "Little Twin",
        "natural": "peak",
        "wikidata": "Q31687773"
      }
    },
    {
      "type": "node",
      "id": 3229441672,
      "lat": -41.1905492,
      "lon": 173.5541269,
      "timestamp": "2021-09-26T01:57:36Z",
      "version": 3,
      "changeset": 111705184,
      "user": "kylenz_linz",
      "uid": 8389777,
      "tags": {
        "direction": "16",
        "ele": "247",
        "mountain_pass": "yes",
        "name": "Rai Saddle",
        "natural": "saddle",
        "ref:linz:topo50_id": "3338928"
      }
    },
    {
      "type": "node",
      "id": 3308744130,
      "lat": -41.31062,
      "lon": 173.3167324,
      "timestamp": "2021-02-19T06:16:12Z",
      "version": 2,
      "changeset": 99566849,
      "user": "lcmortensen",
      "uid": 341519,
      "tags": {
        "ele": "793",
        "name": "Fringed Hill",
        "natural": "peak",
        "wikidata": "Q31697594"
      }
    },
    {
      "type": "node",
      "id": 3308744141,
      "lat": -41.3229592,
      "lon": 173.4149764,
      "timestamp": "2019-05-03T04:33:42Z",
      "version": 4,
      "changeset": 69826768,
      "user": "pizzaiolo",
      "uid": 1772368,
      "tags": {
        "ele": "1014",
        "name": "Maungatapu",
        "name:mi": "Maungatapu",
        "natural": "peak",
        "wikidata": "Q6792564"
      }
    },
    {
      "type": "node",
      "id": 3308749996,
      "lat": -41.2758462,
      "lon": 173.4319966,
      "timestamp": "2017-08-13T11:49:36Z",
      "version": 4,
      "changeset": 51079624,
      "user": "lcmortensen",
      "uid": 341519,
      "tags": {
        "ele": "1215",
        "name": "Saddle Hill",
        "natural": "peak",
        "wikidata": "Q31669229"
      }
    },
    {
      "type": "node",
      "id": 3308749997,
      "lat": -41.2652938,
      "lon": 173.3255182,
      "timestamp": "2020-12-07T00:12:27Z",
      "version": 3,
      "changeset": 95385074,
      "user": "pizzaiolo",
      "uid": 1772368,
      "tags": {
        "ele": "459",
        "name": "Kaka Hill",
        "name:mi": "Kākā",
        "natural": "peak",
        "wikidata": "Q30508646"
      }
    },
    {
      "type": "node",
      "id": 3308749998,
      "lat": -41.2728159,
      "lon": 173.299576,
      "timestamp": "2020-12-07T00:12:28Z",
      "version": 2,
      "changeset": 95385074,
      "user": "pizzaiolo",
      "uid": 1772368,
      "tags": {
        "ele": "147",
        "name": "Botanical Hill",
        "natural": "peak",
        "wikidata": "Q30509343"
      }
    },
    {
      "type": "node",
      "id": 3308749999,
      "lat": -41.2980158,
      "lon": 173.279772,
      "timestamp": "2018-09-27T00:03:21Z",
      "version": 2,
      "changeset": 62961431,
      "user": "lcmortensen",
      "uid": 341519,
      "tags": {
        "ele": "390",
        "name": "Grampians",
        "natural": "peak",
        "wikidata": "Q7737457"
      }
    },
    {
      "type": "node",
      "id": 3310759261,
      "lat": -41.3355789,
      "lon": 173.3484659,
      "timestamp": "2021-02-19T06:16:11Z",
      "version": 2,
      "changeset": 99566849,
      "user": "lcmortensen",
      "uid": 341519,
      "tags": {
        "ele": "1111",
        "name": "Wooded Peak",
        "natural": "peak",
        "wikidata": "Q31655167"
      }
    },
    {
      "type": "node",
      "id": 3310759263,
      "lat": -41.4170005,
      "lon": 173.3965004,
      "timestamp": "2020-07-26T08:57:38Z",
      "version": 2,
      "changeset": 88514734,
      "user": "lcmortensen",
      "uid": 341519,
      "tags": {
        "ele": "1216",
        "name": "Conical Knob",
        "natural": "peak",
        "wikidata": "Q31469359"
      }
    },
    {
      "type": "node",
      "id": 3310867563,
      "lat": -41.3722993,
      "lon": 173.3455596,
      "timestamp": "2021-02-19T06:16:11Z",
      "version": 2,
      "changeset": 99566849,
      "user": "lcmortensen",
      "uid": 341519,
      "tags": {
        "ele": "939",
        "name": "The Rocks",
        "natural": "peak",
        "wikidata": "Q31670586"
      }
    },
    {
      "type": "node",
      "id": 3310867565,
      "lat": -41.3504493,
      "lon": 173.3280787,
      "timestamp": "2020-12-07T00:12:34Z",
      "version": 2,
      "changeset": 95385074,
      "user": "pizzaiolo",
      "uid": 1772368,
      "tags": {
        "ele": "938",
        "name": "Blue Knob",
        "natural": "peak",
        "wikidata": "Q31469047"
      }
    },
    {
      "type": "node",
      "id": 3310867567,
      "lat": -41.3784999,
      "lon": 173.2731475,
      "timestamp": "2021-02-19T06:34:15Z",
      "version": 2,
      "changeset": 99568215,
      "user": "lcmortensen",
      "uid": 341519,
      "tags": {
        "ele": "959",
        "name": "Mt Malita",
        "natural": "peak",
        "wikidata": "Q31468970"
      }
    },
    {
      "type": "node",
      "id": 3310867568,
      "lat": -41.3604867,
      "lon": 173.2253858,
      "timestamp": "2020-12-07T00:12:32Z",
      "version": 2,
      "changeset": 95385074,
      "user": "pizzaiolo",
      "uid": 1772368,
      "tags": {
        "ele": "516",
        "name": "Saxton Hill",
        "natural": "peak",
        "wikidata": "Q31468383"
      }
    },
    {
      "type": "node",
      "id": 3310867570,
      "lat": -41.379595,
      "lon": 173.1531665,
      "timestamp": "2020-12-07T00:12:33Z",
      "version": 2,
      "changeset": 95385074,
      "user": "pizzaiolo",
      "uid": 1772368,
      "tags": {
        "ele": "173",
        "name": "Aniseed Hill",
        "natural": "peak",
        "wikidata": "Q31468409"
      }
    },
    {
      "type": "node",
      "id": 3310867573,
      "lat": -41.2183551,
      "lon": 173.4974477,
      "timestamp": "2021-09-22T04:15:52Z",
      "version": 3,
      "changeset": 111521038,
      "user": "lcmortensen",
      "uid": 341519,
      "tags": {
        "ele": "1143",
        "name": "Mount Duppa",
        "natural": "peak",
        "wikidata": "Q31700238"
      }
    },
    {
      "type": "node",
      "id": 3310867574,
      "lat": -41.203063,
      "lon": 173.4466261,
      "timestamp": "2021-02-19T06:16:13Z",
      "version": 2,
      "changeset": 99566849,
      "user": "lcmortensen",
      "uid": 341519,
      "tags": {
        "ele": "609",
        "name": "Blue Hill",
        "natural": "peak",
        "wikidata": "Q31707175"
      }
    },
    {
      "type": "node",
      "id": 3310867575,
      "lat": -41.1841717,
      "lon": 173.3979331,
      "timestamp": "2021-02-19T06:16:12Z",
      "version": 4,
      "changeset": 99566849,
      "user": "lcmortensen",
      "uid": 341519,
      "tags": {
        "ele": "657",
        "name": "Horoirangi / Drumduan",
        "name:en": "Drumduan",
        "name:mi": "Horoirangi",
        "natural": "peak",
        "wikidata": "Q31700521"
      }
    },
    {
      "type": "node",
      "id": 3310867576,
      "lat": -41.1601563,
      "lon": 173.4038734,
      "timestamp": "2020-12-07T00:12:37Z",
      "version": 2,
      "changeset": 95385074,
      "user": "pizzaiolo",
      "uid": 1772368,
      "tags": {
        "ele": "250",
        "name": "Sentinel Hill",
        "natural": "peak",
        "wikidata": "Q31643409"
      }
    },
    {
      "type": "node",
      "id": 3310867577,
      "lat": -41.1670544,
      "lon": 173.4910039,
      "timestamp": "2021-02-19T06:16:12Z",
      "version": 2,
      "changeset": 99566849,
      "user": "lcmortensen",
      "uid": 341519,
      "tags": {
        "ele": "503",
        "name": "Gentle Annie",
        "natural": "peak",
        "wikidata": "Q31697367"
      }
    },
    {
      "type": "node",
      "id": 3324020934,
      "lat": -41.2129625,
      "lon": 173.3967573,
      "timestamp": "2018-11-02T06:24:25Z",
      "version": 5,
      "changeset": 64102072,
      "user": "lcmortensen",
      "uid": 341519,
      "tags": {
        "name": "Hira",
        "name:mi": "Hira",
        "place": "hamlet",
        "wikidata": "Q24190020"
      }
    },
    {
      "type": "node",
      "id": 3324057161,
      "lat": -41.1497593,
      "lon": 173.4258769,
      "timestamp": "2020-12-07T00:12:37Z",
      "version": 2,
      "changeset": 95385074,
      "user": "pizzaiolo",
      "uid": 1772368,
      "tags": {
        "ele": "401",
        "name": "Stuart Hill",
        "natural": "peak",
        "wikidata": "Q31643413"
      }
    },
    {
      "type": "node",
      "id": 3324057168,
      "lat": -41.1032208,
      "lon": 173.6371204,
      "timestamp": "2017-08-13T11:49:39Z",
      "version": 2,
      "changeset": 51079624,
      "user": "lcmortensen",
      "uid": 341519,
      "tags": {
        "ele": "395",
        "name": "Goat Hill",
        "natural": "peak",
        "wikidata": "Q31696770"
      }
    },
    {
      "type": "node",
      "id": 3324057170,
      "lat": -41.0832402,
      "lon": 173.670507,
      "timestamp": "2017-08-13T11:49:34Z",
      "version": 2,
      "changeset": 51079624,
      "user": "lcmortensen",
      "uid": 341519,
      "tags": {
        "ele": "355",
        "name": "Symonds Hill",
        "natural": "peak",
        "wikidata": "Q31665718"
      }
    },
    {
      "type": "node",
      "id": 3324061960,
      "lat": -41.219768,
      "lon": 173.5817164,
      "timestamp": "2020-07-26T08:57:37Z",
      "version": 2,
      "changeset": 88514734,
      "user": "lcmortensen",
      "uid": 341519,
      "tags": {
        "ele": "262",
        "name": "Mt Barrett",
        "natural": "peak",
        "wikidata": "Q30509610"
      }
    },
    {
      "type": "node",
      "id": 3324063461,
      "lat": -41.2331146,
      "lon": 173.6153736,
      "timestamp": "2020-12-07T00:12:28Z",
      "version": 3,
      "changeset": 95385074,
      "user": "pizzaiolo",
      "uid": 1772368,
      "tags": {
        "ele": "616",
        "name": "Mt Rimu",
        "name:mi": "Rimu",
        "natural": "peak",
        "wikidata": "Q30509628"
      }
    },
    {
      "type": "node",
      "id": 3324063462,
      "lat": -41.2206583,
      "lon": 173.6331477,
      "timestamp": "2017-08-13T11:49:47Z",
      "version": 2,
      "changeset": 51079624,
      "user": "lcmortensen",
      "uid": 341519,
      "tags": {
        "ele": "502",
        "name": "Camp Hill",
        "natural": "peak",
        "wikidata": "Q31705114"
      }
    },
    {
      "type": "node",
      "id": 4118676005,
      "lat": -41.1352474,
      "lon": 173.0232425,
      "timestamp": "2016-06-01T00:00:00Z",
      "version": 2,
      "changeset": 39700160,
      "user": "Rudy355",
      "uid": 142831,
      "tags": {
        "addr:street": "Everett Street",
        "name": "Motueka Beach Reserve",
        "tourism": "camp_site"
      }
    },
    {
      "type": "node",
      "id": 4154994655,
      "lat": -41.0369143,
      "lon": 173.0171735,
      "timestamp": "2019-10-14T08:13:37Z",
      "version": 4,
      "changeset": 75648839,
      "user": "mtmail",
      "uid": 8339,
      "tags": {
        "name": "On the spot express",
        "opening_hours": "Mo-Su 08:30-17:30",
        "shop": "convenience"
      }
    },
    {
      "type": "node",
      "id": 4154994657,
      "lat": -40.9887494,
      "lon": 173.0250353,
      "timestamp": "2018-05-23T05:36:24Z",
      "version": 3,
      "changeset": 59198672,
      "user": "fxguenther",
      "uid": 3413821,
      "tags": {
        "amenity": "drinking_water",
        "description": "filter, treat or boil water for 3 mins before drinking"
      }
    },
    {
      "type": "node",
      "id": 4271384707,
      "lat": -41.0802399,
      "lon": 172.9967803,
      "timestamp": "2019-09-11T08:47:15Z",
      "version": 7,
      "changeset": 74342283,
      "user": "andrew_dc",
      "uid": 1833351,
      "tags": {
        "name": "Riwaka",
        "name:mi": "Riuwaka",
        "name:mk": "Ривака",
        "place": "village",
        "wikidata": "Q2155783"
      }
    },
    {
      "type": "node",
      "id": 4435103878,
      "lat": -41.269478,
      "lon": 173.0064178,
      "timestamp": "2019-12-09T10:36:46Z",
      "version": 7,
      "changeset": 78144768,
      "user": "corrector_91",
      "uid": 3418742,
      "tags": {
        "alt_name:mk": "Апер Моутере",
        "name": "Upper Moutere",
        "name:mk": "Горно Моутере",
        "old_name": "Sarau",
        "place": "village",
        "population": "<1000",
        "wikidata": "Q2499767",
        "wikipedia": "en:Upper Moutere"
      }
    },
    {
      "type": "node",
      "id": 4550104669,
      "lat": -41.2574132,
      "lon": 173.3166909,
      "timestamp": "2021-07-22T06:57:06Z",
      "version": 2,
      "changeset": 108404893,
      "user": "skgrange",
      "uid": 1892481,
      "tags": {
        "ele": "224",
        "name": "Brooklyns Saddle",
        "natural": "saddle"
      }
    },
    {
      "type": "node",
      "id": 4551579850,
      "lat": -41.2677678,
      "lon": 173.2811608,
      "timestamp": "2016-12-13T00:36:29Z",
      "version": 1,
      "changeset": 44361310,
      "user": "skgrange",
      "uid": 1892481,
      "tags": {
        "amenity": "drinking_water"
      }
    },
    {
      "type": "node",
      "id": 4648366176,
      "lat": -40.9895522,
      "lon": 173.0255915,
      "timestamp": "2017-01-31T14:08:58Z",
      "version": 1,
      "changeset": 45686301,
      "user": "juhanjuku",
      "uid": 152305,
      "tags": {
        "natural": "cave_entrance"
      }
    },
    {
      "type": "node",
      "id": 4692947902,
      "lat": -41.2690889,
      "lon": 173.2945137,
      "timestamp": "2017-02-18T23:52:28Z",
      "version": 1,
      "changeset": 46204287,
      "user": "Rudy355",
      "uid": 142831,
      "tags": {
        "name": "Milton Street Store",
        "shop": "convenience"
      }
    },
    {
      "type": "node",
      "id": 4768623121,
      "lat": -41.2190114,
      "lon": 173.5871826,
      "timestamp": "2017-03-31T23:26:16Z",
      "version": 1,
      "changeset": 47342780,
      "user": "JCP14",
      "uid": 5089185,
      "tags": {
        "name": "Brown River reserve",
        "name:en": "Brown River reserve",
        "tourism": "camp_site"
      }
    },
    {
      "type": "node",
      "id": 4787425831,
      "lat": -41.2188828,
      "lon": 173.5865759,
      "timestamp": "2017-04-11T02:55:00Z",
      "version": 1,
      "changeset": 47643921,
      "user": "NataliXen",
      "uid": 4354045,
      "tags": {
        "name": "Brown River Reserve",
        "name:en": "Brown River Reserve",
        "tourism": "camp_site"
      }
    },
    {
      "type": "node",
      "id": 4832028022,
      "lat": -41.2730311,
      "lon": 173.2906853,
      "timestamp": "2017-05-03T05:24:52Z",
      "version": 1,
      "changeset": 48353834,
      "user": "jameshiew",
      "uid": 5648864,
      "tags": {
        "amenity": "drinking_water"
      }
    },
    {
      "type": "node",
      "id": 4879718422,
      "lat": -41.2744584,
      "lon": 173.283826,
      "timestamp": "2021-12-31T01:55:04Z",
      "version": 2,
      "changeset": 115589234,
      "user": "Mortein",
      "uid": 10823038,
      "tags": {
        "amenity": "drinking_water"
      }
    },
    {
      "type": "node",
      "id": 4917835324,
      "lat": -41.1891054,
      "lon": 173.0526542,
      "timestamp": "2020-12-07T00:18:23Z",
      "version": 3,
      "changeset": 95385074,
      "user": "pizzaiolo",
      "uid": 1772368,
      "tags": {
        "name": "Tasman",
        "name:mk": "Тасман",
        "place": "village",
        "wikidata": "Q65430826"
      }
    },
    {
      "type": "node",
      "id": 4927580121,
      "lat": -41.2318103,
      "lon": 173.5811276,
      "timestamp": "2020-01-13T09:54:40Z",
      "version": 3,
      "changeset": 79508984,
      "user": "palkeo",
      "uid": 3207486,
      "tags": {
        "name": "Alfred Stream Reserve",
        "name:en": "Free Campsite",
        "tourism": "camp_site"
      }
    },
    {
      "type": "node",
      "id": 5149613223,
      "lat": -41.0199356,
      "lon": 172.9733507,
      "timestamp": "2017-10-05T11:59:12Z",
      "version": 1,
      "changeset": 52652583,
      "user": "Antoine Félio",
      "uid": 6754349,
      "tags": {
        "name": "Marble Hills",
        "name:en": "Marble Hills",
        "tourism": "camp_site"
      }
    },
    {
      "type": "node",
      "id": 5304111581,
      "lat": -41.0709731,
      "lon": 173.5744833,
      "timestamp": "2020-12-07T00:12:33Z",
      "version": 2,
      "changeset": 95385074,
      "user": "pizzaiolo",
      "uid": 1772368,
      "tags": {
        "ele": "248",
        "name": "Charleys Head",
        "natural": "peak",
        "wikidata": "Q31468867"
      }
    },
    {
      "type": "node",
      "id": 5307514622,
      "lat": -41.1246531,
      "lon": 173.0167618,
      "timestamp": "2021-12-23T22:50:49Z",
      "version": 2,
      "changeset": 115315220,
      "user": "CoyKoi",
      "uid": 3757297,
      "tags": {
        "amenity": "drinking_water"
      }
    },
    {
      "type": "node",
      "id": 5561081222,
      "lat": -41.3090206,
      "lon": 173.291986,
      "timestamp": "2021-05-01T18:37:10Z",
      "version": 2,
      "changeset": 103969716,
      "user": "skgrange",
      "uid": 1892481,
      "tags": {
        "name": "The Brook Valley Holiday Park",
        "tourism": "camp_site"
      }
    },
    {
      "type": "node",
      "id": 5657534422,
      "lat": -41.2779877,
      "lon": 173.272939,
      "timestamp": "2021-06-27T07:02:10Z",
      "version": 4,
      "changeset": 107024447,
      "user": "Rudy355",
      "uid": 142831,
      "tags": {
        "addr:housenumber": "117",
        "addr:street": "St. Vincent Street",
        "name": "Mean Greens Fruit and Veges",
        "opening_hours": "Mo-Fr 08:00-18:00; Sa 08:30-16:00; Su 09:30-15:30",
        "shop": "convenience"
      }
    },
    {
      "type": "node",
      "id": 5700908755,
      "lat": -41.3333531,
      "lon": 173.5832986,
      "timestamp": "2020-07-26T08:57:38Z",
      "version": 2,
      "changeset": 88514734,
      "user": "lcmortensen",
      "uid": 341519,
      "tags": {
        "ele": "1043",
        "name": "Benbown",
        "natural": "peak",
        "source": "LINZ NZ Topo50 Gridless Maps",
        "wikidata": "Q30509638"
      }
    },
    {
      "type": "node",
      "id": 5700908756,
      "lat": -41.4744357,
      "lon": 173.3635313,
      "timestamp": "2020-12-07T00:12:34Z",
      "version": 2,
      "changeset": 95385074,
      "user": "pizzaiolo",
      "uid": 1772368,
      "tags": {
        "ele": "1495",
        "name": "Grass Knob",
        "natural": "peak",
        "source": "LINZ NZ Topo50 Gridless Maps",
        "wikidata": "Q31469403"
      }
    },
    {
      "type": "node",
      "id": 5862604385,
      "lat": -41.2912515,
      "lon": 173.2698607,
      "timestamp": "2021-06-27T03:26:24Z",
      "version": 2,
      "changeset": 107021348,
      "user": "Rudy355",
      "uid": 142831,
      "tags": {
        "addr:postcode": "7010",
        "addr:street": "Waimea Road",
        "name": "Hales corner Dairy",
        "opening_hours": "Mo-Su 09:00-18:00",
        "shop": "convenience"
      }
    },
    {
      "type": "node",
      "id": 5928078885,
      "lat": -41.2718912,
      "lon": 173.2818173,
      "timestamp": "2018-09-25T05:24:49Z",
      "version": 1,
      "changeset": 62901224,
      "user": "Blondie00",
      "uid": 8828995,
      "tags": {
        "name": "Free self contained camping",
        "tourism": "camp_site"
      }
    },
    {
      "type": "node",
      "id": 5928081485,
      "lat": -41.2743436,
      "lon": 173.2856148,
      "timestamp": "2020-12-30T14:00:13Z",
      "version": 3,
      "changeset": 96672843,
      "user": "AhmadHB",
      "uid": 10182045,
      "tags": {
        "addr:city": "Nelson",
        "name": "Market",
        "opening_hours": "We 12:00-16:30",
        "shop": "supermarket"
      }
    },
    {
      "type": "node",
      "id": 6221990439,
      "lat": -41.3124835,
      "lon": 173.2347392,
      "timestamp": "2019-03-24T21:20:18Z",
      "version": 2,
      "changeset": 68484732,
      "user": "BWNZ",
      "uid": 577854,
      "tags": {
        "amenity": "drinking_water",
        "name": "water"
      }
    },
    {
      "type": "node",
      "id": 6223683151,
      "lat": -41.2797145,
      "lon": 173.2473722,
      "timestamp": "2019-01-20T22:03:09Z",
      "version": 1,
      "changeset": 66486561,
      "user": "gds",
      "uid": 169878,
      "tags": {
        "amenity": "drinking_water"
      }
    },
    {
      "type": "node",
      "id": 6223689720,
      "lat": -41.2797882,
      "lon": 173.2464939,
      "timestamp": "2019-01-20T22:04:52Z",
      "version": 1,
      "changeset": 66486600,
      "user": "gds",
      "uid": 169878,
      "tags": {
        "amenity": "drinking_water"
      }
    },
    {
      "type": "node",
      "id": 6223690408,
      "lat": -41.2799996,
      "lon": 173.2458326,
      "timestamp": "2019-01-20T22:06:17Z",
      "version": 1,
      "changeset": 66486631,
      "user": "gds",
      "uid": 169878,
      "tags": {
        "amenity": "drinking_water"
      }
    },
    {
      "type": "node",
      "id": 6223700501,
      "lat": -41.2801028,
      "lon": 173.2438964,
      "timestamp": "2019-01-20T22:11:55Z",
      "version": 1,
      "changeset": 66486755,
      "user": "gds",
      "uid": 169878,
      "tags": {
        "amenity": "drinking_water"
      }
    },
    {
      "type": "node",
      "id": 6224102798,
      "lat": -41.3128775,
      "lon": 173.2397908,
      "timestamp": "2019-01-21T04:01:17Z",
      "version": 1,
      "changeset": 66491909,
      "user": "gds",
      "uid": 169878,
      "tags": {
        "amenity": "drinking_water"
      }
    },
    {
      "type": "node",
      "id": 6245577266,
      "lat": -41.3008143,
      "lon": 173.57565,
      "timestamp": "2021-01-31T01:49:56Z",
      "version": 2,
      "changeset": 98434665,
      "user": "kylenz",
      "uid": 10140394,
      "tags": {
        "amenity": "drinking_water",
        "drinking_water": "no"
      }
    },
    {
      "type": "node",
      "id": 6304551685,
      "lat": -41.3230446,
      "lon": 173.214461,
      "timestamp": "2019-02-26T21:59:48Z",
      "version": 1,
      "changeset": 67598048,
      "user": "muperman",
      "uid": 3785439,
      "tags": {
        "name": "Pic's Peanutbutter Factory",
        "shop": "supermarket"
      }
    },
    {
      "type": "node",
      "id": 6522321388,
      "lat": -41.1127671,
      "lon": 173.0111817,
      "timestamp": "2019-12-21T09:30:38Z",
      "version": 2,
      "changeset": 78708388,
      "user": "gaddman",
      "uid": 365177,
      "tags": {
        "addr:housenumber": "211",
        "addr:postcode": "7120",
        "addr:street": "High Street",
        "email": "foodguys207@gmail.com",
        "name": "Beet Root",
        "phone": "+64 3 5280909",
        "shop": "convenience"
      }
    },
    {
      "type": "node",
      "id": 6564094385,
      "lat": -41.2636595,
      "lon": 173.2712133,
      "timestamp": "2020-08-31T23:45:32Z",
      "version": 8,
      "changeset": 90214069,
      "user": "EliotB",
      "uid": 87274,
      "tags": {
        "addr:street": "-",
        "email": "info@nelsonorganiccoop.nz",
        "name": "Nelson Organic Co-op",
        "opening_hours": "Mo,Fr 10:00-16:00; Tu,Th 10:00-15:00; We 10:00-17:00",
        "organic": "yes",
        "phone": "+64 3-545 9176",
        "shop": "convenience",
        "toilets": "no",
        "website": "https://www.nelsonorganiccoop.nz/",
        "wheelchair": "designated"
      }
    },
    {
      "type": "node",
      "id": 6564277393,
      "lat": -41.4380581,
      "lon": 173.2789368,
      "timestamp": "2021-09-26T01:57:36Z",
      "version": 3,
      "changeset": 111705184,
      "user": "kylenz_linz",
      "uid": 8389777,
      "tags": {
        "direction": "335",
        "ele": "1165",
        "name": "Weka Saddle",
        "name:mi": "Weka",
        "natural": "saddle",
        "ref:linz:topo50_id": "3338920"
      }
    },
    {
      "type": "node",
      "id": 6601486088,
      "lat": -41.2732242,
      "lon": 173.2871159,
      "timestamp": "2020-12-30T14:00:06Z",
      "version": 4,
      "changeset": 96672830,
      "user": "AhmadHB",
      "uid": 10182045,
      "tags": {
        "addr:city": "Nelson",
        "addr:housenumber": "93",
        "addr:street": "Collingwood Street",
        "email": "shop@organicfoods.nz",
        "name": "Organic Foods Nelson",
        "opening_hours": "Mo-Fr 10:00-17:30; Sa 09:30-15:00",
        "organic": "yes",
        "phone": "+64 3-553 0528",
        "shop": "convenience",
        "website": "http://www.organicfoods.nz/",
        "wheelchair": "yes"
      }
    },
    {
      "type": "node",
      "id": 6604452351,
      "lat": -41.3756268,
      "lon": 173.0754598,
      "timestamp": "2019-07-11T06:57:58Z",
      "version": 1,
      "changeset": 72121079,
      "user": "skgrange",
      "uid": 1892481,
      "tags": {
        "addr:city": "Brightwater",
        "addr:housenumber": "200",
        "addr:postcode": "7022",
        "addr:street": "Teapot Valley Road",
        "capacity": "120",
        "name": "Teapot Valley Christian Camp",
        "tourism": "camp_site",
        "website": "https://www.teapotvalley.co.nz"
      }
    },
    {
      "type": "node",
      "id": 6634398185,
      "lat": -41.2729877,
      "lon": 173.2819792,
      "timestamp": "2021-08-07T03:23:05Z",
      "version": 5,
      "changeset": 109291066,
      "user": "lcmortensen",
      "uid": 341519,
      "tags": {
        "addr:city": "Nelson",
        "name": "Bin Inn",
        "shop": "convenience"
      }
    },
    {
      "type": "node",
      "id": 6699998286,
      "lat": -41.3130663,
      "lon": 173.2338041,
      "timestamp": "2021-03-31T19:27:15Z",
      "version": 3,
      "changeset": 102075650,
      "user": "kylenz_linz",
      "uid": 8389777,
      "tags": {
        "addr:housenumber": "526",
        "addr:postcode": "7011",
        "addr:street": "Main Road Stoke",
        "addr:suburb": "Stoke",
        "name": "The Pantry Door",
        "opening_hours": "Mo-Fr 09:00-17:30; Sa 10:00-14:00",
        "phone": "+64 3-547 5630",
        "ref:linz:address_id": "1680545",
        "shop": "convenience"
      }
    },
    {
      "type": "node",
      "id": 6747851985,
      "lat": -41.3339131,
      "lon": 173.2011862,
      "timestamp": "2020-10-02T09:07:08Z",
      "version": 2,
      "changeset": 91859705,
      "user": "lcmortensen",
      "uid": 341519,
      "tags": {
        "name": "On The Spot",
        "shop": "convenience"
      }
    },
    {
      "type": "node",
      "id": 7079167785,
      "lat": -41.2711482,
      "lon": 173.2697877,
      "timestamp": "2019-12-23T06:13:40Z",
      "version": 1,
      "changeset": 78755801,
      "user": "gaddman",
      "uid": 365177,
      "tags": {
        "addr": "90 Washington Road",
        "name": "Washington Valley Store",
        "opening_hours": "Mo-Fr 07:00-17:00; Sa 08:00-16:00",
        "phone": "+64 3 548 9294",
        "shop": "convenience"
      }
    },
    {
      "type": "node",
      "id": 7161622695,
      "lat": -41.2738999,
      "lon": 173.2848911,
      "timestamp": "2020-01-27T04:01:45Z",
      "version": 1,
      "changeset": 80116544,
      "user": "palkeo",
      "uid": 3207486,
      "tags": {
        "amenity": "drinking_water"
      }
    },
    {
      "type": "node",
      "id": 7176300504,
      "lat": -41.2713718,
      "lon": 173.2801347,
      "timestamp": "2020-01-31T22:13:54Z",
      "version": 1,
      "changeset": 80395129,
      "user": "palkeo",
      "uid": 3207486,
      "tags": {
        "amenity": "drinking_water"
      }
    },
    {
      "type": "node",
      "id": 7403433586,
      "lat": -41.2807475,
      "lon": 173.2694835,
      "timestamp": "2020-08-11T21:06:11Z",
      "version": 2,
      "changeset": 89269974,
      "user": "Adr1en",
      "uid": 3366289,
      "tags": {
        "addr:housenumber": "144",
        "addr:postcode": "7010",
        "addr:street": "Toi Toi Street",
        "name": "Victory Discounter Dairy",
        "shop": "convenience"
      }
    },
    {
      "type": "node",
      "id": 7403448785,
      "lat": -41.2806766,
      "lon": 173.2693431,
      "timestamp": "2020-04-14T21:31:37Z",
      "version": 1,
      "changeset": 83554705,
      "user": "Adr1en",
      "uid": 3366289,
      "tags": {
        "addr:housenumber": "14200",
        "addr:street": "Toi Toi Street",
        "name": "Namasté Asian Store",
        "opening_hours": "Mo-Fr 08:30-20:00; Sa-Su 09:00-20:00",
        "shop": "convenience"
      }
    },
    {
      "type": "node",
      "id": 7439665991,
      "lat": -41.2816958,
      "lon": 173.2910095,
      "timestamp": "2020-04-23T21:41:35Z",
      "version": 1,
      "changeset": 84024047,
      "user": "Adr1en",
      "uid": 3366289,
      "tags": {
        "addr:housenumber": "24",
        "addr:street": "Brook Street",
        "name": "Brook Street Store",
        "shop": "convenience"
      }
    },
    {
      "type": "node",
      "id": 7528147359,
      "lat": -41.282385,
      "lon": 173.2827812,
      "timestamp": "2020-05-17T06:13:45Z",
      "version": 1,
      "changeset": 85324043,
      "user": "palkeo",
      "uid": 3207486,
      "tags": {
        "amenity": "drinking_water"
      }
    },
    {
      "type": "node",
      "id": 7747520540,
      "lat": -41.048085,
      "lon": 173.0151576,
      "timestamp": "2020-07-25T21:24:35Z",
      "version": 1,
      "changeset": 88506731,
      "user": "andrew_dc",
      "uid": 1833351,
      "tags": {
        "name": "Stephens Bay",
        "place": "hamlet"
      }
    },
    {
      "type": "node",
      "id": 7747534731,
      "lat": -41.267968,
      "lon": 173.079493,
      "timestamp": "2020-12-07T00:10:27Z",
      "version": 2,
      "changeset": 95385074,
      "user": "pizzaiolo",
      "uid": 1772368,
      "tags": {
        "name": "Bronte",
        "place": "hamlet",
        "wikidata": "Q16847247"
      }
    },
    {
      "type": "node",
      "id": 7747573689,
      "lat": -41.1349518,
      "lon": 173.0223727,
      "timestamp": "2020-07-25T21:26:59Z",
      "version": 1,
      "changeset": 88506777,
      "user": "andrew_dc",
      "uid": 1833351,
      "tags": {
        "name": "Port Motueka",
        "place": "hamlet"
      }
    },
    {
      "type": "node",
      "id": 7747578598,
      "lat": -41.3015868,
      "lon": 173.0781198,
      "timestamp": "2020-07-25T21:32:04Z",
      "version": 1,
      "changeset": 88506836,
      "user": "andrew_dc",
      "uid": 1833351,
      "tags": {
        "name": "Redwood Valley",
        "place": "hamlet"
      }
    },
    {
      "type": "node",
      "id": 7747676239,
      "lat": -41.2171852,
      "lon": 173.3405214,
      "timestamp": "2020-12-07T00:10:37Z",
      "version": 2,
      "changeset": 95385074,
      "user": "pizzaiolo",
      "uid": 1772368,
      "tags": {
        "name": "Todds Valley",
        "place": "hamlet",
        "wikidata": "Q24885133"
      }
    },
    {
      "type": "node",
      "id": 8282481958,
      "lat": -41.2736184,
      "lon": 173.3067344,
      "timestamp": "2021-01-08T18:17:07Z",
      "version": 2,
      "changeset": 97184994,
      "user": "ralley",
      "uid": 670820,
      "tags": {
        "amenity": "shelter"
      }
    },
    {
      "type": "node",
      "id": 8304829017,
      "lat": -41.335676,
      "lon": 173.1575691,
      "timestamp": "2021-01-09T02:16:45Z",
      "version": 1,
      "changeset": 97196839,
      "user": "Adr1en",
      "uid": 3366289,
      "tags": {
        "addr:housenumber": "151",
        "addr:street": "McShane Road",
        "email": "hello@goodfor.co.nz",
        "name": "GoodFor",
        "opening_hours": "Mo-We, Fr 08:00-17:30; Th 08:00-18:30; Sa-Su 09:00-16:00",
        "shop": "supermarket",
        "website": "http://goodfor.co.nz"
      }
    },
    {
      "type": "node",
      "id": 8353376223,
      "lat": -41.2734095,
      "lon": 173.2826618,
      "timestamp": "2021-01-22T23:23:10Z",
      "version": 1,
      "changeset": 98000238,
      "user": "nigelramsay",
      "uid": 2049284,
      "tags": {
        "access": "yes",
        "amenity": "drinking_water",
        "fee": "no"
      }
    },
    {
      "type": "node",
      "id": 8576769006,
      "lat": -41.4741369,
      "lon": 173.3827221,
      "timestamp": "2021-09-26T01:57:36Z",
      "version": 3,
      "changeset": 111705184,
      "user": "kylenz_linz",
      "uid": 8389777,
      "tags": {
        "direction": "165",
        "ele": "1217",
        "name": "Richmond Saddle",
        "natural": "saddle",
        "ref:linz:topo50_id": "3338860"
      }
    },
    {
      "type": "node",
      "id": 8577938022,
      "lat": -41.4441841,
      "lon": 173.5507062,
      "timestamp": "2021-04-11T06:42:04Z",
      "version": 3,
      "changeset": 102724940,
      "user": "lcmortensen",
      "uid": 341519,
      "tags": {
        "ele": "1365",
        "name": "Mt Royal",
        "natural": "peak",
        "source": "LINZ NZ Topo50 Gridless Maps",
        "wikidata": "Q31469478"
      }
    },
    {
      "type": "node",
      "id": 8578382032,
      "lat": -41.326558,
      "lon": 173.3358357,
      "timestamp": "2021-03-31T08:38:32Z",
      "version": 1,
      "changeset": 102039139,
      "user": "skgrange",
      "uid": 1892481,
      "tags": {
        "ele": "682",
        "name": "Junction Saddle",
        "natural": "saddle"
      }
    },
    {
      "type": "node",
      "id": 8578910727,
      "lat": -41.4572378,
      "lon": 173.260986,
      "timestamp": "2021-09-26T01:57:36Z",
      "version": 2,
      "changeset": 111705184,
      "user": "kylenz_linz",
      "uid": 8389777,
      "tags": {
        "direction": "107",
        "ele": "1281",
        "name": "Lowther Saddle",
        "natural": "saddle",
        "ref:linz:topo50_id": "3338828"
      }
    },
    {
      "type": "node",
      "id": 8580599729,
      "lat": -41.4888339,
      "lon": 173.2744038,
      "timestamp": "2021-04-11T02:53:37Z",
      "version": 2,
      "changeset": 102721650,
      "user": "lcmortensen",
      "uid": 341519,
      "tags": {
        "ele": "1544",
        "name": "Slaty Peak",
        "natural": "peak",
        "source": "LINZ NZ Topo50 Gridless Maps",
        "wikidata": "Q31469415"
      }
    },
    {
      "type": "node",
      "id": 9021559217,
      "lat": -41.3336274,
      "lon": 173.1600151,
      "timestamp": "2021-09-02T02:21:09Z",
      "version": 2,
      "changeset": 110589692,
      "user": "b-jazz-bot",
      "uid": 9451067,
      "tags": {
        "addr:street": "McShane Road",
        "name": "Nelson Food Distribution",
        "opening_hours": "Mo-Fr 09:00-16:00; Sa 09:00-13:00",
        "shop": "convenience",
        "website": "https://www.nelsonfoods.co.nz/"
      }
    },
    {
      "type": "way",
      "id": 29077900,
      "timestamp": "2021-07-02T09:17:44Z",
      "version": 15,
      "changeset": 107300933,
      "user": "andrew_dc",
      "uid": 1833351,
      "center": {
        "lat": -41.0053803,
        "lon": 173.0085168
      },
      "nodes": [],
      "tags": {
        "addr:city": "Riwauka",
        "addr:hamlet": "Mārahau",
        "addr:housenumber": "9",
        "addr:street": "Franklin Street",
        "area": "yes",
        "capacity": "50",
        "capacity:powered": "50",
        "contact:email": "info@abeltasmancentre.co.nz",
        "fee": "yes",
        "name": "Abel Tasman Marahau Beach Camp",
        "phone": "+64 3 527 8176;0800 808 018",
        "power_supply": "yes",
        "ref:linz:address_id": "66225",
        "sanitary_dump_station": "yes",
        "tents": "yes",
        "tourism": "camp_site",
        "website": "https://www.abeltasmancentre.co.nz/camp.html",
        "womo": "camping",
        "womo:capacity": "50",
        "womo:fee": "32",
        "womo:name": "Marahau Beach Camp",
        "womo:nz:nr": "160"
      }
    },
    {
      "type": "way",
      "id": 53841488,
      "timestamp": "2021-07-03T07:07:34Z",
      "version": 10,
      "changeset": 107341608,
      "user": "Rudy355",
      "uid": 142831,
      "center": {
        "lat": -41.2847557,
        "lon": 173.2371893
      },
      "nodes": [],
      "tags": {
        "cabins": "yes",
        "caravans": "yes",
        "dryer": "yes",
        "fee": "yes",
        "internet_access": "yes",
        "internet_access:fee": "yes",
        "kitchen": "yes",
        "name": "Tahuna Beach Holiday Park",
        "payment:cash": "yes",
        "payment:mastercard": "yes",
        "payment:visa": "yes",
        "power_supply": "yes",
        "tents": "yes",
        "tourism": "camp_site",
        "washing_machine": "yes"
      }
    },
    {
      "type": "way",
      "id": 89599441,
      "timestamp": "2021-06-30T06:06:39Z",
      "version": 10,
      "changeset": 107184325,
      "user": "andrew_dc",
      "uid": 1833351,
      "center": {
        "lat": -41.0359497,
        "lon": 173.01581
      },
      "nodes": [],
      "tags": {
        "internet_access": "wlan",
        "name": "Kaiteriteri Beach Motor Camp",
        "tourism": "camp_site",
        "website": "http://www.experiencekaiteriteri.co.nz/stay/accommodation/"
      }
    },
    {
      "type": "way",
      "id": 141573701,
      "timestamp": "2020-12-30T13:56:02Z",
      "version": 5,
      "changeset": 96672530,
      "user": "AhmadHB",
      "uid": 10182045,
      "center": {
        "lat": -41.2701917,
        "lon": 173.2815779
      },
      "nodes": [],
      "tags": {
        "addr:city": "Nelson",
        "brand": "Countdown",
        "brand:wikidata": "Q5176845",
        "brand:wikipedia": "en:Countdown (supermarket)",
        "building": "yes",
        "name": "Countdown",
        "shop": "supermarket"
      }
    },
    {
      "type": "way",
      "id": 153736842,
      "timestamp": "2015-05-04T06:57:20Z",
      "version": 2,
      "changeset": 30769173,
      "user": "seawolff",
      "uid": 52495,
      "center": {
        "lat": -41.0377381,
        "lon": 173.0052154
      },
      "nodes": [],
      "tags": {
        "name": "Bethany Park Christian Camp",
        "tourism": "camp_site",
        "website": "http://www.harlequin.co.nz/Accommodation/Operators/BethanyPark.asp"
      }
    },
    {
      "type": "way",
      "id": 153738100,
      "timestamp": "2018-01-29T23:40:42Z",
      "version": 2,
      "changeset": 55876533,
      "user": "Seagnoid",
      "uid": 633206,
      "center": {
        "lat": -41.2163937,
        "lon": 173.083893
      },
      "nodes": [],
      "tags": {
        "name": "McKee Memorial Scenic Reserve",
        "tourism": "camp_site"
      }
    },
    {
      "type": "way",
      "id": 153884906,
      "timestamp": "2020-11-08T05:44:14Z",
      "version": 4,
      "changeset": 93728274,
      "user": "lcmortensen",
      "uid": 341519,
      "center": {
        "lat": -41.2757286,
        "lon": 173.2782393
      },
      "nodes": [],
      "tags": {
        "brand": "New World",
        "brand:wikidata": "Q7012488",
        "brand:wikipedia": "en:New World (supermarket)",
        "building": "yes",
        "internet_access": "wlan",
        "name": "New World",
        "opening_hours": "07:00-22:30",
        "shop": "supermarket"
      }
    },
    {
      "type": "way",
      "id": 158841069,
      "timestamp": "2020-11-08T05:47:30Z",
      "version": 6,
      "changeset": 93728303,
      "user": "lcmortensen",
      "uid": 341519,
      "center": {
        "lat": -41.3126904,
        "lon": 173.2327666
      },
      "nodes": [],
      "tags": {
        "brand": "New World",
        "brand:wikidata": "Q7012488",
        "brand:wikipedia": "en:New World (supermarket)",
        "building": "yes",
        "building:levels": "1",
        "name": "New World",
        "shop": "supermarket"
      }
    },
    {
      "type": "way",
      "id": 188991620,
      "timestamp": "2015-02-09T11:03:03Z",
      "version": 2,
      "changeset": 28724244,
      "user": "fdsp",
      "uid": 551776,
      "center": {
        "lat": -41.3252662,
        "lon": 173.3247126
      },
      "nodes": [],
      "tags": {
        "amenity": "shelter",
        "building": "yes",
        "fireplace": "yes",
        "name": "Third House",
        "shelter_type": "lean_to"
      }
    },
    {
      "type": "way",
      "id": 191171406,
      "timestamp": "2012-11-17T06:50:13Z",
      "version": 1,
      "changeset": 13902126,
      "user": "Rudy355",
      "uid": 142831,
      "center": {
        "lat": -41.346831,
        "lon": 173.6377391
      },
      "nodes": [],
      "tags": {
        "tourism": "camp_site"
      }
    },
    {
      "type": "way",
      "id": 216810153,
      "timestamp": "2018-03-16T12:12:29Z",
      "version": 2,
      "changeset": 57239809,
      "user": "Constable",
      "uid": 527535,
      "center": {
        "lat": -41.3397753,
        "lon": 173.1779353
      },
      "nodes": [],
      "tags": {
        "cabins": "yes",
        "caravans": "yes",
        "dryer": "yes",
        "kitchen": "yes",
        "name": "Richmond Motel & Holiday Park",
        "payment:cash": "yes",
        "payment:mastercard": "yes",
        "payment:visa": "yes",
        "power_supply": "yes",
        "tents": "yes",
        "tourism": "camp_site",
        "washing_machine": "yes"
      }
    },
    {
      "type": "way",
      "id": 216820187,
      "timestamp": "2020-11-25T21:59:50Z",
      "version": 6,
      "changeset": 94799925,
      "user": "lcmortensen",
      "uid": 341519,
      "center": {
        "lat": -41.1097089,
        "lon": 173.0108032
      },
      "nodes": [],
      "tags": {
        "addr:city": "Motueka",
        "addr:housenumber": "108",
        "addr:postcode": "7120",
        "addr:street": "High St",
        "brand": "Countdown",
        "brand:wikidata": "Q5176845",
        "brand:wikipedia": "en:Countdown (supermarket)",
        "building": "yes",
        "name": "Countdown",
        "opening_hours": "07:00-21:00",
        "shop": "supermarket"
      }
    },
    {
      "type": "way",
      "id": 216820195,
      "timestamp": "2021-07-03T08:16:22Z",
      "version": 6,
      "changeset": 107343314,
      "user": "andrew_dc",
      "uid": 1833351,
      "center": {
        "lat": -41.1037573,
        "lon": 173.0140693
      },
      "nodes": [],
      "tags": {
        "cabins": "yes",
        "capacity": "180",
        "capacity:powered": "100",
        "caravans": "yes",
        "dryer": "yes",
        "internet_access": "yes",
        "internet_access:fee": "yes",
        "kitchen": "yes",
        "name": "Motueka Top10 Holiday Park",
        "payment:cash": "yes",
        "payment:mastercard": "yes",
        "payment:visa": "yes",
        "power_supply": "yes",
        "tents": "yes",
        "tourism": "camp_site",
        "washing_machine": "yes",
        "womo": "camping",
        "womo:capacity": "180",
        "womo:fee": "43",
        "womo:name": "Motueka Tp 10 HP",
        "womo:nz:nr": "159"
      }
    },
    {
      "type": "way",
      "id": 216820285,
      "timestamp": "2021-07-18T09:11:53Z",
      "version": 2,
      "changeset": 108184532,
      "user": "andrew_dc",
      "uid": 1833351,
      "center": {
        "lat": -41.134377,
        "lon": 173.0088862
      },
      "nodes": [],
      "tags": {
        "cabins": "yes",
        "caravans": "yes",
        "dryer": "yes",
        "kitchen": "yes",
        "payment:cash": "yes",
        "payment:mastercard": "yes",
        "payment:visa": "yes",
        "power_supply": "yes",
        "tents": "yes",
        "tourism": "camp_site",
        "washing_machine": "yes"
      }
    },
    {
      "type": "way",
      "id": 220706882,
      "timestamp": "2020-11-12T04:55:08Z",
      "version": 5,
      "changeset": 93965271,
      "user": "Adr1en",
      "uid": 3366289,
      "center": {
        "lat": -41.2729129,
        "lon": 173.2775678
      },
      "nodes": [],
      "tags": {
        "addr:housenumber": "35",
        "addr:postcode": "7010",
        "addr:street": "St. Vincent Street",
        "brand": "Countdown",
        "brand:wikidata": "Q5176845",
        "brand:wikipedia": "en:Countdown (supermarket)",
        "building": "yes",
        "name": "Countdown",
        "opening_hours": "Mo-Su 07:00-22:00",
        "phone": "03 546 7443",
        "shop": "supermarket"
      }
    },
    {
      "type": "way",
      "id": 223094520,
      "timestamp": "2013-05-26T06:22:42Z",
      "version": 1,
      "changeset": 16288019,
      "user": "setti",
      "uid": 1173879,
      "center": {
        "lat": -41.2804448,
        "lon": 173.2447533
      },
      "nodes": [],
      "tags": {
        "amenity": "shelter",
        "shelter_type": "weather_shelter"
      }
    },
    {
      "type": "way",
      "id": 309041312,
      "timestamp": "2021-07-03T08:57:53Z",
      "version": 6,
      "changeset": 107344789,
      "user": "andrew_dc",
      "uid": 1833351,
      "center": {
        "lat": -41.114615,
        "lon": 173.0122711
      },
      "nodes": [],
      "tags": {
        "brand": "New World",
        "brand:wikidata": "Q7012488",
        "brand:wikipedia": "en:New World (supermarket)",
        "building": "yes",
        "internet_access": "wlan",
        "name": "New World",
        "opening_hours": "Mo-Su 07:30-21:00",
        "shop": "supermarket",
        "wheelchair": "yes"
      }
    },
    {
      "type": "way",
      "id": 343085595,
      "timestamp": "2015-05-05T21:21:11Z",
      "version": 1,
      "changeset": 30823812,
      "user": "seawolff",
      "uid": 52495,
      "center": {
        "lat": -41.1850054,
        "lon": 173.0654406
      },
      "nodes": [],
      "tags": {
        "name": "Kina Recreation Reserve",
        "tourism": "camp_site"
      }
    },
    {
      "type": "way",
      "id": 346736327,
      "timestamp": "2020-04-01T11:07:44Z",
      "version": 3,
      "changeset": 82919334,
      "user": "Sarvihepo",
      "uid": 2057798,
      "center": {
        "lat": -41.3016712,
        "lon": 173.5694596
      },
      "nodes": [],
      "tags": {
        "caravans": "yes",
        "fee": "yes",
        "kitchen": "yes",
        "name": "Pelorus Bridge",
        "operator": "Department of Conservation",
        "power_supply": "no",
        "reservation": "no",
        "shower": "hot",
        "tents": "yes",
        "tourism": "camp_site",
        "website": "https://www.doc.govt.nz/pelorus-bridge-campsite"
      }
    },
    {
      "type": "way",
      "id": 396610576,
      "timestamp": "2020-11-09T20:49:46Z",
      "version": 5,
      "changeset": 93819589,
      "user": "AlwynWellington",
      "uid": 567640,
      "center": {
        "lat": -41.284621,
        "lon": 173.2678799
      },
      "nodes": [],
      "tags": {
        "addr:city": "Nelson",
        "addr:country": "NZ",
        "addr:housenumber": "230",
        "addr:postcode": "7010",
        "addr:street": "Vanguard Street",
        "capacity:powered": "20",
        "name": "Nelson City Holiday Park",
        "opening_hours": "8:00 - 20:00",
        "phone:NZ": "0800 77 88 98",
        "surface": "paved",
        "tourism": "camp_site",
        "tourism_1": "caravan_site",
        "tourism_2": "motel",
        "website": "http://nelsonholidaypark.co.nz/"
      }
    },
    {
      "type": "way",
      "id": 404178011,
      "timestamp": "2016-03-17T04:35:18Z",
      "version": 1,
      "changeset": 37887441,
      "user": "Rudy355",
      "uid": 142831,
      "center": {
        "lat": -41.2514217,
        "lon": 173.1045026
      },
      "nodes": [],
      "tags": {
        "name": "Mapua Leisure Park",
        "tourism": "camp_site"
      }
    },
    {
      "type": "way",
      "id": 404178810,
      "timestamp": "2016-03-17T04:52:38Z",
      "version": 1,
      "changeset": 37887558,
      "user": "Rudy355",
      "uid": 142831,
      "center": {
        "lat": -41.2142702,
        "lon": 173.0768339
      },
      "nodes": [],
      "tags": {
        "cabins": "yes",
        "caravans": "yes",
        "name": "Tasman Motor Camp",
        "tents": "yes",
        "tourism": "camp_site"
      }
    },
    {
      "type": "way",
      "id": 410116804,
      "timestamp": "2016-04-17T01:18:31Z",
      "version": 2,
      "changeset": 38633382,
      "user": "Rudy355",
      "uid": 142831,
      "center": {
        "lat": -41.336145,
        "lon": 173.177788
      },
      "nodes": [],
      "tags": {
        "tourism": "camp_site"
      }
    },
    {
      "type": "way",
      "id": 410136297,
      "timestamp": "2020-11-08T05:47:30Z",
      "version": 4,
      "changeset": 93728303,
      "user": "lcmortensen",
      "uid": 341519,
      "center": {
        "lat": -41.3118968,
        "lon": 173.2345469
      },
      "nodes": [],
      "tags": {
        "brand": "Countdown",
        "brand:wikidata": "Q5176845",
        "brand:wikipedia": "en:Countdown (supermarket)",
        "building": "yes",
        "name": "Countdown",
        "opening_hours": "Mo-Su 07:00-22:00",
        "shop": "supermarket",
        "website": "https://www.countdown.co.nz/"
      }
    },
    {
      "type": "way",
      "id": 411179662,
      "timestamp": "2020-11-08T05:44:14Z",
      "version": 4,
      "changeset": 93728274,
      "user": "lcmortensen",
      "uid": 341519,
      "center": {
        "lat": -41.2368584,
        "lon": 173.3176496
      },
      "nodes": [],
      "tags": {
        "addr:city": "Nelson",
        "addr:housenumber": "64",
        "addr:postcode": "7010",
        "addr:street": "Atawhai Crescent",
        "brand": "Four Square",
        "brand:wikidata": "Q5475558",
        "brand:wikipedia": "en:Four Square (supermarket)",
        "building": "yes",
        "name": "Four Square",
        "opening_hours": "Mo-Fr 07:30-19:30; Sa-Su 08:30-19:30",
        "phone": "+64 3 545 0912",
        "shop": "convenience"
      }
    },
    {
      "type": "way",
      "id": 435590698,
      "timestamp": "2021-07-02T09:17:44Z",
      "version": 3,
      "changeset": 107300933,
      "user": "andrew_dc",
      "uid": 1833351,
      "center": {
        "lat": -40.9941367,
        "lon": 173.0032474
      },
      "nodes": [],
      "tags": {
        "addr:city": "Marahau",
        "addr:street": "Harvey Road",
        "cabins": "yes",
        "caravans": "yes",
        "description": "Backpacker Accommodation and Camping",
        "drinking_water": "yes",
        "email": "info@barn.co.nz",
        "fee": "yes",
        "group_only": "no",
        "internet_access": "wlan",
        "internet_access:fee": "yes",
        "internet_access:ssid": "IKS@The Barn Hotspot",
        "name": "The Barn",
        "phone": "+64 3 527 8043",
        "tents": "yes",
        "tourism": "camp_site",
        "website": "https://www.barn.co.nz/"
      }
    },
    {
      "type": "way",
      "id": 459740216,
      "timestamp": "2021-04-22T06:33:54Z",
      "version": 2,
      "changeset": 103384670,
      "user": "kylenz_linz",
      "uid": 8389777,
      "center": {
        "lat": -41.2903462,
        "lon": 173.3250779
      },
      "nodes": [],
      "tags": {
        "addr:city": "Nelson",
        "addr:housenumber": "472",
        "addr:postcode": "7010",
        "addr:street": "Maitai Valley Road",
        "addr:suburb": "Maitai",
        "name": "Maitai Valley Motor Camp",
        "ref:linz:address_id": "1643921",
        "source_ref": "http://www.linz.govt.nz/topography/topo-maps/",
        "tourism": "camp_site"
      }
    },
    {
      "type": "way",
      "id": 508157467,
      "timestamp": "2017-07-17T10:54:11Z",
      "version": 1,
      "changeset": 50347026,
      "user": "Rudy355",
      "uid": 142831,
      "center": {
        "lat": -41.1119497,
        "lon": 173.6550668
      },
      "nodes": [],
      "tags": {
        "name": "Okiwi Bay Holiday Park",
        "tourism": "camp_site"
      }
    },
    {
      "type": "way",
      "id": 667039082,
      "timestamp": "2019-01-29T22:11:53Z",
      "version": 1,
      "changeset": 66752952,
      "user": "captain_slow",
      "uid": 2110714,
      "center": {
        "lat": -41.3007344,
        "lon": 173.5760869
      },
      "nodes": [],
      "tags": {
        "description": "Tents only; hikers and cyclists only; one night only",
        "tourism": "camp_site"
      }
    },
    {
      "type": "way",
      "id": 672567405,
      "timestamp": "2019-12-21T09:30:38Z",
      "version": 2,
      "changeset": 78708388,
      "user": "gaddman",
      "uid": 365177,
      "center": {
        "lat": -41.3280474,
        "lon": 173.1750553
      },
      "nodes": [],
      "tags": {
        "access": "yes",
        "addr:city": "Richmond",
        "addr:housenumber": "442",
        "addr:postcode": "7020",
        "addr:street": "Lower Queen Street",
        "email": "info@holidayparknelson.co.nz",
        "fee": "yes",
        "internet_access": "wlan",
        "name": "Queen Street Holiday Park",
        "payment:cards": "yes",
        "payment:cash": "yes",
        "phone": "+64 3 544 7677",
        "phone:mobile": "+64 27 441 3187",
        "power_supply": "yes",
        "tourism": "camp_site",
        "website": "http://www.holidayparknelson.co.nz/"
      }
    },
    {
      "type": "way",
      "id": 712699045,
      "timestamp": "2019-08-11T20:22:49Z",
      "version": 1,
      "changeset": 73250115,
      "user": "StenSoft",
      "uid": 255936,
      "center": {
        "lat": -41.1228691,
        "lon": 173.0254686
      },
      "nodes": [],
      "tags": {
        "amenity": "shelter",
        "building": "roof"
      }
    },
    {
      "type": "way",
      "id": 741592949,
      "timestamp": "2020-02-12T09:07:48Z",
      "version": 2,
      "changeset": 80894696,
      "user": "ralley",
      "uid": 670820,
      "center": {
        "lat": -41.2171602,
        "lon": 173.3412484
      },
      "nodes": [],
      "tags": {
        "amenity": "shelter",
        "bench": "yes",
        "building": "yes",
        "description": "Large shade sail with table",
        "shelter_type": "sun_shelter"
      }
    },
    {
      "type": "way",
      "id": 779009066,
      "timestamp": "2020-03-07T05:02:51Z",
      "version": 1,
      "changeset": 81890227,
      "user": "vaibhav265",
      "uid": 4164103,
      "center": {
        "lat": -41.2997481,
        "lon": 173.2253319
      },
      "nodes": [],
      "tags": {
        "amenity": "shelter",
        "building": "yes"
      }
    },
    {
      "type": "way",
      "id": 779009067,
      "timestamp": "2020-03-07T05:02:51Z",
      "version": 1,
      "changeset": 81890227,
      "user": "vaibhav265",
      "uid": 4164103,
      "center": {
        "lat": -41.2992912,
        "lon": 173.2258539
      },
      "nodes": [],
      "tags": {
        "amenity": "shelter",
        "building": "yes"
      }
    },
    {
      "type": "way",
      "id": 923947887,
      "timestamp": "2021-08-20T12:45:42Z",
      "version": 2,
      "changeset": 109987090,
      "user": "petenz",
      "uid": 38928,
      "center": {
        "lat": -41.4591576,
        "lon": 173.4162022
      },
      "nodes": [],
      "tags": {
        "building": "yes",
        "capacity": "6",
        "fee": "yes",
        "fireplace": "yes",
        "name": "Mt Fell Hut",
        "operator": "Department of Conservation",
        "ref:doc": "100060987",
        "tourism": "wilderness_hut",
        "website": "https://www.doc.govt.nz/parks-and-recreation/places-to-go/marlborough/places/mount-richmond-forest-park/things-to-do/huts/mt-fell-hut/"
      }
    },
    {
      "type": "way",
      "id": 923947890,
      "timestamp": "2021-03-30T20:16:48Z",
      "version": 1,
      "changeset": 102007553,
      "user": "skgrange",
      "uid": 1892481,
      "center": {
        "lat": -41.4738748,
        "lon": 173.3830569
      },
      "nodes": [],
      "tags": {
        "building": "yes",
        "name": "Richmond Saddle Hut",
        "operator": "Department of Conservation",
        "ref:doc": "100063992",
        "tourism": "wilderness_hut"
      }
    },
    {
      "type": "way",
      "id": 924057403,
      "timestamp": "2021-03-31T06:34:06Z",
      "version": 1,
      "changeset": 102029528,
      "user": "skgrange",
      "uid": 1892481,
      "center": {
        "lat": -41.4461469,
        "lon": 173.4894562
      },
      "nodes": [],
      "tags": {
        "building": "yes",
        "name": "Fishtail Hut",
        "operator": "Department of Conservation",
        "ref:doc": "100064235",
        "tourism": "wilderness_hut"
      }
    },
    {
      "type": "way",
      "id": 924061535,
      "timestamp": "2021-03-31T06:50:22Z",
      "version": 1,
      "changeset": 102030819,
      "user": "skgrange",
      "uid": 1892481,
      "center": {
        "lat": -41.4160636,
        "lon": 173.5771539
      },
      "nodes": [],
      "tags": {
        "building": "yes",
        "name": "Devils Creek Hut",
        "operator": "Department of Conservation",
        "ref:doc": "100034926",
        "tourism": "wilderness_hut"
      }
    },
    {
      "type": "way",
      "id": 924328466,
      "timestamp": "2021-08-14T05:01:52Z",
      "version": 2,
      "changeset": 109655396,
      "user": "petenz",
      "uid": 38928,
      "center": {
        "lat": -41.4310296,
        "lon": 173.6408146
      },
      "nodes": [],
      "tags": {
        "building": "yes",
        "capacity": "4",
        "fee": "yes",
        "fireplace": "yes",
        "name": "Fosters Hut",
        "ref:doc": "100034927",
        "tourism": "wilderness_hut",
        "website": "https://www.doc.govt.nz/parks-and-recreation/places-to-go/marlborough/places/mount-richmond-forest-park/things-to-do/huts/fosters-hut/"
      }
    },
    {
      "type": "way",
      "id": 975345827,
      "timestamp": "2021-08-22T07:38:37Z",
      "version": 1,
      "changeset": 110050141,
      "user": "ChookMan",
      "uid": 11144302,
      "center": {
        "lat": -41.3347465,
        "lon": 173.2026631
      },
      "nodes": [],
      "tags": {
        "brand": "Countdown",
        "brand:wikidata": "Q5176845",
        "brand:wikipedia": "en:Countdown (supermarket)",
        "building": "yes",
        "name": "Countdown",
        "shop": "supermarket"
      }
    },
    {
      "type": "way",
      "id": 996233469,
      "timestamp": "2021-10-25T09:16:51Z",
      "version": 1,
      "changeset": 112937150,
      "user": "kylenz",
      "uid": 10140394,
      "center": {
        "lat": -41.0044156,
        "lon": 173.0091665
      },
      "nodes": [],
      "tags": {
        "group_only": "yes",
        "name": "Mārahau Outdoor Education Camp",
        "tourism": "camp_site",
        "website": "https://marahau.wixsite.com/camp"
      }
    }
  ]
}