{
  "osm3s": {
    "timestamp_osm_date": "2022-08-19T23:59:59Z",
    "timestamp_osm_base": "2022-08-20T05:01:23Z",
    "copyright": "The data included in this document is from www.openstreetmap.org. The data is made available under ODbL."
  },
  "elements": [
    {
      "type": "node",
      "id": 153791995,
      "lat": 48.0099601,
      "lon": -89.7086611,
      "timestamp": "2020-08-10T14:20:00Z",
      "version": 6,
      "changeset": 89204141,
      "user": "kartler175",
      "uid": 834127,
      "tags": {
        "ele": "286",
        "gnis:County": "Cook",
        "gnis:County_num": "031",
        "gnis:ST_alpha": "MN",
        "gnis:ST_num": "27",
        "gnis:id": "1802954",
        "import_uuid": "bb7269ee-502a-5391-8056-e3ce0e66489c",
        "name": "Pigeon River",
        "place": "hamlet"
      }
    },
    {
      "type": "node",
      "id": 1705376890,
      "lat": 48.3937024,
      "lon": -89.5966313,
      "timestamp": "2012-04-07T05:38:29Z",
      "version": 1,
      "changeset": 11209584,
      "user": "ScaryFast",
      "uid": 649520,
      "tags": {
        "tourism": "camp_site"
      }
    },
    {
      "type": "node",
      "id": 3740537770,
      "lat": 48.3259617,
      "lon": -89.3479087,
      "timestamp": "2015-09-12T19:34:19Z",
      "version": 1,
      "changeset": 33987011,
      "user": "subligar",
      "uid": 2245740,
      "tags": {
        "amenity": "drinking_water"
      }
    },
    {
      "type": "node",
      "id": 5550757891,
      "lat": 48.3823508,
      "lon": -89.308821,
      "timestamp": "2020-04-10T20:02:05Z",
      "version": 2,
      "changeset": 83381048,
      "user": "Marküüs",
      "uid": 10986952,
      "tags": {
        "internet_access": "wlan",
        "name": "Walmart",
        "shop": "supermarket"
      }
    },
    {
      "type": "node",
      "id": 5550757892,
      "lat": 48.3822528,
      "lon": -89.3069891,
      "timestamp": "2018-04-13T17:36:20Z",
      "version": 1,
      "changeset": 58071258,
      "user": "DannyMcD",
      "uid": 5789626,
      "tags": {
        "name": "Metro",
        "shop": "supermarket"
      }
    },
    {
      "type": "node",
      "id": 5895272720,
      "lat": 48.0045102,
      "lon": -89.9860096,
      "timestamp": "2018-09-10T02:16:28Z",
      "version": 1,
      "changeset": 62438263,
      "user": "MLSchneider",
      "uid": 30260,
      "tags": {
        "backcountry": "yes",
        "name": "Portage camp site",
        "tourism": "camp_site"
      }
    },
    {
      "type": "node",
      "id": 6297514592,
      "lat": 48.4126862,
      "lon": -89.5040977,
      "timestamp": "2019-02-23T14:12:21Z",
      "version": 1,
      "changeset": 67494659,
      "user": "mike 0112358",
      "uid": 6455854,
      "tags": {
        "name": "Valley Foods",
        "shop": "convenience"
      }
    },
    {
      "type": "node",
      "id": 6422582636,
      "lat": 48.2926765,
      "lon": -89.8096364,
      "timestamp": "2019-04-23T07:21:36Z",
      "version": 1,
      "changeset": 69477018,
      "user": "Juus49",
      "uid": 9644703,
      "tags": {
        "name": "Nolalu",
        "place": "village"
      }
    },
    {
      "type": "node",
      "id": 6422582637,
      "lat": 48.2394437,
      "lon": -89.9834997,
      "timestamp": "2019-04-23T07:21:36Z",
      "version": 1,
      "changeset": 69477018,
      "user": "Juus49",
      "uid": 9644703,
      "tags": {
        "name": "Suomi",
        "place": "village"
      }
    },
    {
      "type": "node",
      "id": 6784133590,
      "lat": 48.2892667,
      "lon": -89.488028,
      "timestamp": "2019-09-10T02:46:08Z",
      "version": 1,
      "changeset": 74286272,
      "user": "SophieMPH",
      "uid": 10287918,
      "tags": {
        "name": "Thunder Oak Cheese Farm",
        "shop": "supermarket"
      }
    },
    {
      "type": "node",
      "id": 7501995040,
      "lat": 48.0036452,
      "lon": -89.8279122,
      "timestamp": "2020-05-09T21:15:01Z",
      "version": 1,
      "changeset": 84951594,
      "user": "ppjj",
      "uid": 6771650,
      "tags": {
        "backcountry": "yes",
        "camp_site": "basic",
        "capacity": "18",
        "caravans": "no",
        "fee": "no",
        "maxtents": "2",
        "name": "Backcountry Campgrounds - Grand Portage",
        "operator": "United States National Park Service",
        "tents": "yes",
        "tourism": "camp_site"
      }
    },
    {
      "type": "node",
      "id": 7946449026,
      "lat": 48.4048482,
      "lon": -89.630304,
      "timestamp": "2020-09-27T01:18:26Z",
      "version": 1,
      "changeset": 91567046,
      "user": "zzptichka",
      "uid": 215433,
      "tags": {
        "amenity": "drinking_water"
      }
    },
    {
      "type": "node",
      "id": 7946449027,
      "lat": 48.404337,
      "lon": -89.6297995,
      "timestamp": "2020-09-27T01:18:26Z",
      "version": 1,
      "changeset": 91567046,
      "user": "zzptichka",
      "uid": 215433,
      "tags": {
        "amenity": "drinking_water"
      }
    },
    {
      "type": "node",
      "id": 7946449028,
      "lat": 48.4038107,
      "lon": -89.6289309,
      "timestamp": "2020-09-27T01:18:26Z",
      "version": 1,
      "changeset": 91567046,
      "user": "zzptichka",
      "uid": 215433,
      "tags": {
        "amenity": "drinking_water"
      }
    },
    {
      "type": "node",
      "id": 7946449029,
      "lat": 48.4021839,
      "lon": -89.6300385,
      "timestamp": "2020-09-27T01:18:26Z",
      "version": 1,
      "changeset": 91567046,
      "user": "zzptichka",
      "uid": 215433,
      "tags": {
        "amenity": "drinking_water"
      }
    },
    {
      "type": "node",
      "id": 7946449030,
      "lat": 48.4029847,
      "lon": -89.6300157,
      "timestamp": "2020-09-27T01:18:26Z",
      "version": 1,
      "changeset": 91567046,
      "user": "zzptichka",
      "uid": 215433,
      "tags": {
        "amenity": "drinking_water"
      }
    },
    {
      "type": "node",
      "id": 7946449031,
      "lat": 48.40303,
      "lon": -89.6310247,
      "timestamp": "2020-09-27T01:18:26Z",
      "version": 1,
      "changeset": 91567046,
      "user": "zzptichka",
      "uid": 215433,
      "tags": {
        "amenity": "drinking_water"
      }
    },
    {
      "type": "node",
      "id": 7946449068,
      "lat": 48.3950924,
      "lon": -89.6335459,
      "timestamp": "2020-09-27T01:18:26Z",
      "version": 1,
      "changeset": 91567046,
      "user": "zzptichka",
      "uid": 215433,
      "tags": {
        "amenity": "drinking_water"
      }
    },
    {
      "type": "node",
      "id": 7946449069,
      "lat": 48.3943942,
      "lon": -89.6311104,
      "timestamp": "2020-09-27T01:18:26Z",
      "version": 1,
      "changeset": 91567046,
      "user": "zzptichka",
      "uid": 215433,
      "tags": {
        "amenity": "drinking_water"
      }
    },
    {
      "type": "node",
      "id": 7946449070,
      "lat": 48.3938991,
      "lon": -89.6313411,
      "timestamp": "2020-09-27T01:18:26Z",
      "version": 1,
      "changeset": 91567046,
      "user": "zzptichka",
      "uid": 215433,
      "tags": {
        "amenity": "drinking_water"
      }
    },
    {
      "type": "node",
      "id": 7946449071,
      "lat": 48.3951743,
      "lon": -89.6314001,
      "timestamp": "2020-09-27T01:18:26Z",
      "version": 1,
      "changeset": 91567046,
      "user": "zzptichka",
      "uid": 215433,
      "tags": {
        "amenity": "drinking_water"
      }
    },
    {
      "type": "node",
      "id": 7946449072,
      "lat": 48.3971725,
      "lon": -89.6330953,
      "timestamp": "2020-09-27T01:18:26Z",
      "version": 1,
      "changeset": 91567046,
      "user": "zzptichka",
      "uid": 215433,
      "tags": {
        "amenity": "drinking_water"
      }
    },
    {
      "type": "node",
      "id": 7946449073,
      "lat": 48.396453,
      "lon": -89.6322262,
      "timestamp": "2020-09-27T01:18:26Z",
      "version": 1,
      "changeset": 91567046,
      "user": "zzptichka",
      "uid": 215433,
      "tags": {
        "amenity": "drinking_water"
      }
    },
    {
      "type": "node",
      "id": 7946449074,
      "lat": 48.3964779,
      "lon": -89.6334332,
      "timestamp": "2020-09-27T01:18:26Z",
      "version": 1,
      "changeset": 91567046,
      "user": "zzptichka",
      "uid": 215433,
      "tags": {
        "amenity": "drinking_water"
      }
    },
    {
      "type": "node",
      "id": 7946449075,
      "lat": 48.3978018,
      "lon": -89.6338241,
      "timestamp": "2020-09-27T01:18:26Z",
      "version": 1,
      "changeset": 91567046,
      "user": "zzptichka",
      "uid": 215433,
      "tags": {
        "amenity": "drinking_water"
      }
    },
    {
      "type": "node",
      "id": 7966971701,
      "lat": 48.4007793,
      "lon": -89.608834,
      "timestamp": "2020-10-02T18:50:01Z",
      "version": 1,
      "changeset": 91879947,
      "user": "calliecook",
      "uid": 11896296,
      "tags": {
        "addr:city": "Kakabeka Falls",
        "addr:housenumber": "4751",
        "addr:postcode": "P0T1W0",
        "addr:province": "Ontario",
        "addr:street": "Highway 11 & 17",
        "name": "Odena Foods",
        "opening_hours:covid19": "open",
        "operator": "Tammy and Kent Mijla",
        "payment:cash": "yes",
        "payment:credit_cards": "yes",
        "payment:mastercard": "yes",
        "payment:visa": "yes",
        "shop": "supermarket"
      }
    },
    {
      "type": "way",
      "id": 71853488,
      "timestamp": "2010-08-10T22:17:01Z",
      "version": 1,
      "changeset": 5458137,
      "user": "MikeyCarter",
      "uid": 5640,
      "center": {
        "lat": 48.1193728,
        "lon": -89.5451139
      },
      "nodes": [],
      "tags": {
        "source": "CanVec 6.0 - NRCan",
        "tourism": "camp_site"
      }
    },
    {
      "type": "way",
      "id": 370345445,
      "timestamp": "2017-08-26T12:17:06Z",
      "version": 2,
      "changeset": 51457615,
      "user": "Rps333",
      "uid": 596047,
      "center": {
        "lat": 48.3171789,
        "lon": -89.3589525
      },
      "nodes": [],
      "tags": {
        "addr:city": "Thunder Bay",
        "addr:housenumber": "2060",
        "addr:postcode": "P6C 4Z2",
        "addr:street": "Highway 61",
        "amenity": "fuel",
        "name": "CAN-OP",
        "phone": "+1-807-475-3712",
        "shop": "convenience"
      }
    },
    {
      "type": "way",
      "id": 604764025,
      "timestamp": "2022-05-30T07:29:07Z",
      "version": 2,
      "changeset": 121697716,
      "user": "b-jazz-bot",
      "uid": 9451067,
      "center": {
        "lat": 48.3497997,
        "lon": -89.3536055
      },
      "nodes": [],
      "tags": {
        "name": "Fort William Campground",
        "operator": "Fort William Historical Park",
        "tourism": "camp_site",
        "website": "https://fwhp.ca/visit-us/rvs-a-camping"
      }
    },
    {
      "type": "way",
      "id": 851945618,
      "timestamp": "2020-09-27T01:18:26Z",
      "version": 1,
      "changeset": 91567046,
      "user": "zzptichka",
      "uid": 215433,
      "center": {
        "lat": 48.3958775,
        "lon": -89.6322537
      },
      "nodes": [],
      "tags": {
        "name": "Kakabeka Falls Park - Whispering Hills Campground",
        "source": "CanVec 6.0 - NRCan",
        "tourism": "camp_site",
        "website": "https://www.ontarioparks.com/park/kakabekafalls"
      }
    },
    {
      "type": "way",
      "id": 851945639,
      "timestamp": "2020-09-27T01:18:26Z",
      "version": 1,
      "changeset": 91567046,
      "user": "zzptichka",
      "uid": 215433,
      "center": {
        "lat": 48.4038786,
        "lon": -89.6293261
      },
      "nodes": [],
      "tags": {
        "name": "Kakabeka Falls Park - Riverside Campground",
        "source": "CanVec 6.0 - NRCan",
        "tourism": "camp_site",
        "website": "https://www.ontarioparks.com/park/kakabekafalls"
      }
    },
    {
      "type": "way",
      "id": 851945640,
      "timestamp": "2020-09-27T01:18:26Z",
      "version": 1,
      "changeset": 91567046,
      "user": "zzptichka",
      "uid": 215433,
      "center": {
        "lat": 48.403244,
        "lon": -89.629936
      },
      "nodes": [],
      "tags": {
        "name": "Kakabeka Falls Park - Fern's Edge Campground",
        "tourism": "camp_site",
        "website": "https://www.ontarioparks.com/park/kakabekafalls"
      }
    }
  ]
}