{
  "osm3s": {
    "timestamp_osm_date": "2022-08-13T23:59:59Z",
    "timestamp_osm_base": "2022-08-14T06:28:08Z",
    "copyright": "The data included in this document is from www.openstreetmap.org. The data is made available under ODbL."
  },
  "elements": [
    {
      "type": "node",
      "id": 339599364,
      "lat": 67.1401726,
      "lon": 16.1368391,
      "timestamp": "2022-06-11T11:40:49Z",
      "version": 7,
      "changeset": 122245928,
      "user": "NKA",
      "uid": 3497659,
      "tags": {
        "capacity": "26",
        "dnt:classification": "ubetjent",
        "dnt:iid": "285",
        "dnt:lock": "yes",
        "ele": "580",
        "name": "Ny-Sulitjelma fjellstue (Hanken)",
        "network": "Den Norske Turistforening",
        "operator": "Sulitjelma og Omegn Turistforening",
        "ref:kartverket:hytte": "1357",
        "tourism": "wilderness_hut",
        "website": "http://ut.no/hytte/ny-sulitjelma-fjellstue"
      }
    },
    {
      "type": "node",
      "id": 1356458165,
      "lat": 67.0946269,
      "lon": 16.0061069,
      "timestamp": "2019-09-15T05:39:37Z",
      "version": 4,
      "changeset": 74488448,
      "user": "NKA",
      "uid": 3497659,
      "tags": {
        "dnt:classification": "betjent",
        "dnt:iid": "1205",
        "name": "Jakobsbakken fjellsenter",
        "network": "Den Norske Turistforening",
        "service": "full",
        "source": "Den Norske Turistforening",
        "source:date": "2009-05-26 14:10:21",
        "tourism": "alpine_hut",
        "website": "http://ut.no/hytte/jakobsbakken-fjellsenter-a-s"
      }
    },
    {
      "type": "node",
      "id": 2561169674,
      "lat": 67.0952625,
      "lon": 16.0058758,
      "timestamp": "2022-07-15T05:10:13Z",
      "version": 3,
      "changeset": 123633651,
      "user": "NKA",
      "uid": 3497659,
      "tags": {
        "name": "Jakobsbakken",
        "place": "hamlet",
        "ssr:stedsnr": "562184"
      }
    },
    {
      "type": "node",
      "id": 2561169675,
      "lat": 67.1329051,
      "lon": 16.0773781,
      "timestamp": "2022-07-15T05:10:13Z",
      "version": 6,
      "changeset": 123633651,
      "user": "NKA",
      "uid": 3497659,
      "tags": {
        "name": "Sulitjelma - Sulisjielmmá",
        "name:no": "Sulitjelma",
        "name:smj": "Sulisjielmmá",
        "name:sv": "Sulitelma",
        "old_name:smj": "Sulečielbma",
        "place": "village",
        "population": "387",
        "population:date": "2021-01-01",
        "ref:ssb_tettsted": "7691",
        "source:population": "SSB - befolkning i tettstedet",
        "ssr:stedsnr": "501208"
      }
    },
    {
      "type": "node",
      "id": 3407366830,
      "lat": 67.1652555,
      "lon": 15.4887588,
      "timestamp": "2022-06-19T22:12:15Z",
      "version": 2,
      "changeset": 122595461,
      "user": "NKA",
      "uid": 3497659,
      "tags": {
        "loc_name:smj": "Sæsso",
        "name": "Setså",
        "name:no": "Setså",
        "place": "hamlet",
        "ssr:stedsnr": "380982"
      }
    },
    {
      "type": "node",
      "id": 3663317129,
      "lat": 67.099041,
      "lon": 16.063739,
      "timestamp": "2022-07-14T04:34:28Z",
      "version": 3,
      "changeset": 123588235,
      "user": "addr2osm",
      "uid": 9224679,
      "tags": {
        "cabins": "yes",
        "caravans": "yes",
        "int_name": "Acc6404",
        "name": "Sulitjelma Turistsenter",
        "phone": "+47 954 04 978",
        "tourism": "camp_site",
        "website": "http://www.sulitjelmaturistsenter.no"
      }
    },
    {
      "type": "node",
      "id": 6462875987,
      "lat": 67.133893,
      "lon": 16.070945,
      "timestamp": "2019-05-09T19:29:13Z",
      "version": 1,
      "changeset": 70087066,
      "user": "NKA",
      "uid": 3497659,
      "tags": {
        "branch": "Sulitjelma",
        "brand": "Coop Prix",
        "email": "sulitjelma.prix@coop.no",
        "name": "Coop Prix Sulitjelma",
        "opening_hours": "Mo-Fr 08:00-22:00, Sa 09:00-20:00",
        "phone": "+47 75640100",
        "ref:coop": "2623",
        "service:posten": "yes",
        "service:postnord": "yes",
        "service:tipping": "yes",
        "shop": "supermarket"
      }
    },
    {
      "type": "node",
      "id": 9833914383,
      "lat": 67.1725394,
      "lon": 15.8895561,
      "timestamp": "2022-06-20T16:08:44Z",
      "version": 1,
      "changeset": 122630765,
      "user": "NKA",
      "uid": 3497659,
      "tags": {
        "amenity": "shelter",
        "name": "Gapahuk",
        "operator": "Statskog",
        "ref:kartverket:hytte": "3133",
        "shelter_type": "lean_to"
      }
    },
    {
      "type": "node",
      "id": 9888885855,
      "lat": 67.205828,
      "lon": 15.6297231,
      "timestamp": "2022-07-15T05:10:13Z",
      "version": 1,
      "changeset": 123633651,
      "user": "NKA",
      "uid": 3497659,
      "tags": {
        "alt_name:no": "Storvik",
        "loc_name:smj": "Stáhpe",
        "name": "Storvika",
        "name:no": "Storvika",
        "place": "hamlet",
        "ssr:stedsnr": "137963"
      }
    },
    {
      "type": "node",
      "id": 9888893533,
      "lat": 67.1575448,
      "lon": 15.9762652,
      "timestamp": "2022-07-15T05:10:13Z",
      "version": 1,
      "changeset": 123633651,
      "user": "NKA",
      "uid": 3497659,
      "tags": {
        "name": "Grønli",
        "place": "hamlet",
        "ssr:stedsnr": "380216"
      }
    },
    {
      "type": "node",
      "id": 9888893538,
      "lat": 67.2378696,
      "lon": 15.6988761,
      "timestamp": "2022-07-15T05:10:13Z",
      "version": 1,
      "changeset": 123633651,
      "user": "NKA",
      "uid": 3497659,
      "tags": {
        "name": "Lakså - Láksoavvo",
        "name:no": "Lakså",
        "name:smj": "Láksoavvo",
        "place": "hamlet",
        "ssr:stedsnr": "805930"
      }
    },
    {
      "type": "node",
      "id": 9888893586,
      "lat": 67.2391748,
      "lon": 15.5009497,
      "timestamp": "2022-07-15T05:10:13Z",
      "version": 1,
      "changeset": 123633651,
      "user": "NKA",
      "uid": 3497659,
      "tags": {
        "loc_name:se": "Muvvo",
        "name": "Moen",
        "name:no": "Moen",
        "place": "hamlet",
        "ssr:stedsnr": "441940"
      }
    },
    {
      "type": "node",
      "id": 9888893594,
      "lat": 67.2485173,
      "lon": 15.4792225,
      "timestamp": "2022-07-15T05:10:13Z",
      "version": 1,
      "changeset": 123633651,
      "user": "NKA",
      "uid": 3497659,
      "tags": {
        "name": "Vatnan",
        "place": "hamlet",
        "ssr:stedsnr": "562914"
      }
    },
    {
      "type": "node",
      "id": 9888893602,
      "lat": 67.2434677,
      "lon": 15.5117534,
      "timestamp": "2022-07-15T05:10:13Z",
      "version": 1,
      "changeset": 123633651,
      "user": "NKA",
      "uid": 3497659,
      "tags": {
        "alt_name": "Gjemgang;Gjemgam",
        "name": "Hjemgam",
        "place": "hamlet",
        "ssr:stedsnr": "137926"
      }
    },
    {
      "type": "node",
      "id": 9888893622,
      "lat": 67.1802843,
      "lon": 15.7235452,
      "timestamp": "2022-07-15T05:10:13Z",
      "version": 1,
      "changeset": 123633651,
      "user": "NKA",
      "uid": 3497659,
      "tags": {
        "alt_name": "Stormo",
        "name": "Stormoen",
        "place": "hamlet",
        "ssr:stedsnr": "380237"
      }
    },
    {
      "type": "node",
      "id": 9888893636,
      "lat": 67.2059933,
      "lon": 15.7132544,
      "timestamp": "2022-07-15T05:10:13Z",
      "version": 1,
      "changeset": 123633651,
      "user": "NKA",
      "uid": 3497659,
      "tags": {
        "name": "Sjønstå - Sjenståhka",
        "name:no": "Sjønstå",
        "name:smj": "Sjenståhka",
        "place": "hamlet",
        "ssr:stedsnr": "501960"
      }
    },
    {
      "type": "node",
      "id": 9888893664,
      "lat": 67.1882804,
      "lon": 15.7170633,
      "timestamp": "2022-07-15T05:10:13Z",
      "version": 1,
      "changeset": 123633651,
      "user": "NKA",
      "uid": 3497659,
      "tags": {
        "name": "Tverråmoen",
        "place": "hamlet",
        "ssr:stedsnr": "1072352"
      }
    },
    {
      "type": "node",
      "id": 9888893705,
      "lat": 67.2209266,
      "lon": 15.5872235,
      "timestamp": "2022-07-15T05:10:13Z",
      "version": 1,
      "changeset": 123633651,
      "user": "NKA",
      "uid": 3497659,
      "tags": {
        "alt_name": "Soløyvik",
        "name": "Solvik",
        "place": "hamlet",
        "ssr:stedsnr": "380941"
      }
    },
    {
      "type": "node",
      "id": 9888893712,
      "lat": 67.3348398,
      "lon": 15.5586343,
      "timestamp": "2022-07-15T05:10:13Z",
      "version": 1,
      "changeset": 123633651,
      "user": "NKA",
      "uid": 3497659,
      "tags": {
        "name": "Rødås",
        "place": "hamlet",
        "ssr:stedsnr": "319916"
      }
    },
    {
      "type": "node",
      "id": 9888893754,
      "lat": 67.3247793,
      "lon": 15.5283831,
      "timestamp": "2022-07-15T05:10:13Z",
      "version": 1,
      "changeset": 123633651,
      "user": "NKA",
      "uid": 3497659,
      "tags": {
        "loc_name:se": "Ruonásse",
        "name": "Grønåsen",
        "name:no": "Grønåsen",
        "place": "hamlet",
        "ssr:stedsnr": "562822"
      }
    }
  ]
}