{
  "osm3s": {
    "timestamp_osm_date": "2022-07-08T23:59:59Z",
    "timestamp_osm_base": "2022-07-09T05:56:34Z",
    "copyright": "The data included in this document is from www.openstreetmap.org. The data is made available under ODbL."
  },
  "elements": [
    {
      "type": "node",
      "id": 26862741,
      "lat": 39.7422966,
      "lon": 16.0111244,
      "timestamp": "2017-04-17T17:14:29Z",
      "version": 5,
      "changeset": 47878888,
      "user": "Gianfranco2014",
      "uid": 1928626,
      "tags": {
        "ele": "1987",
        "name": "Cozzo del pellegrino",
        "natural": "peak",
        "wikidata": "Q3696399",
        "wikipedia": "it:Cozzo del Pellegrino"
      }
    },
    {
      "type": "node",
      "id": 26864009,
      "lat": 39.6615672,
      "lon": 15.9410519,
      "timestamp": "2017-04-17T00:41:05Z",
      "version": 7,
      "changeset": 47852161,
      "user": "Gianfranco2014",
      "uid": 1928626,
      "tags": {
        "ele": "1852",
        "name": "Montea North peak",
        "natural": "peak",
        "wikidata": "Q16579716",
        "wikipedia": "it:Montea"
      }
    },
    {
      "type": "node",
      "id": 67273830,
      "lat": 39.7231,
      "lon": 16.089885,
      "timestamp": "2016-09-05T17:31:30Z",
      "version": 2,
      "changeset": 41936631,
      "user": "Francesco Placco",
      "uid": 354689,
      "tags": {
        "gfoss_id": "6486",
        "is_in": "Cosenza, Calabria, Italy",
        "name": "Acquaformosa",
        "name:aae": "Firmoza",
        "place": "village",
        "population": "1295",
        "source": "geodati.gfoss.it"
      }
    },
    {
      "type": "node",
      "id": 67273933,
      "lat": 39.585296,
      "lon": 15.900282,
      "timestamp": "2016-08-28T18:58:13Z",
      "version": 2,
      "changeset": 41762146,
      "user": "fayor",
      "uid": 743479,
      "tags": {
        "gfoss_id": "6504",
        "name": "Bonifati",
        "place": "village",
        "population": "3402",
        "source": "geodati.gfoss.it"
      }
    },
    {
      "type": "node",
      "id": 67273938,
      "lat": 39.6901767,
      "lon": 15.8839994,
      "timestamp": "2016-08-28T18:58:14Z",
      "version": 3,
      "changeset": 41762146,
      "user": "fayor",
      "uid": 743479,
      "tags": {
        "gfoss_id": "6505",
        "name": "Buonvicino",
        "place": "village",
        "population": "2540",
        "source": "geodati.gfoss.it"
      }
    },
    {
      "type": "node",
      "id": 67273970,
      "lat": 39.516595,
      "lon": 15.941584,
      "timestamp": "2016-09-09T00:49:39Z",
      "version": 5,
      "changeset": 42015514,
      "user": "fayor",
      "uid": 743479,
      "tags": {
        "gfoss_id": "6525",
        "name": "Cetraro",
        "place": "town",
        "population": "10128",
        "source": "geodati.gfoss.it"
      }
    },
    {
      "type": "node",
      "id": 67274000,
      "lat": 39.507796,
      "lon": 16.114988,
      "timestamp": "2016-09-05T17:41:55Z",
      "version": 3,
      "changeset": 41936859,
      "user": "Francesco Placco",
      "uid": 354689,
      "tags": {
        "gfoss_id": "6524",
        "name": "Cerzeto",
        "name:aae": "Qana",
        "place": "village",
        "population": "1467",
        "source": "geodati.gfoss.it"
      }
    },
    {
      "type": "node",
      "id": 67274027,
      "lat": 39.4661627,
      "lon": 15.9992591,
      "timestamp": "2017-07-31T18:06:01Z",
      "version": 3,
      "changeset": 50729553,
      "user": "Papirollo",
      "uid": 2183311,
      "tags": {
        "gfoss_id": "6546",
        "name": "Guardia Piemontese",
        "place": "village",
        "population": "1525",
        "source": "geodati.gfoss.it"
      }
    },
    {
      "type": "node",
      "id": 67274054,
      "lat": 39.721401,
      "lon": 16.170186,
      "timestamp": "2018-05-08T19:46:35Z",
      "version": 5,
      "changeset": 58798710,
      "user": "Sal73x",
      "uid": 1293386,
      "tags": {
        "gfoss_id": "6539",
        "is_in": "Cosenza, Calabria, Italy",
        "name": "Firmo",
        "name:aae": "Ferma",
        "place": "village",
        "population": "2460",
        "source": "geodati.gfoss.it"
      }
    },
    {
      "type": "node",
      "id": 67274065,
      "lat": 39.565697,
      "lon": 16.0536725,
      "timestamp": "2017-08-28T11:11:53Z",
      "version": 3,
      "changeset": 51505283,
      "user": "mdx76",
      "uid": 616103,
      "tags": {
        "gfoss_id": "6536",
        "name": "Fagnano Castello",
        "place": "village",
        "population": "4198",
        "source": "geodati.gfoss.it"
      }
    },
    {
      "type": "node",
      "id": 67274070,
      "lat": 39.526897,
      "lon": 16.110587,
      "timestamp": "2016-09-05T17:39:45Z",
      "version": 3,
      "changeset": 41936816,
      "user": "Francesco Placco",
      "uid": 354689,
      "tags": {
        "gfoss_id": "6565",
        "name": "Mongrassano",
        "name:aae": "Mungrasana",
        "place": "village",
        "population": "1764",
        "source": "geodati.gfoss.it"
      }
    },
    {
      "type": "node",
      "id": 67274096,
      "lat": 39.599698,
      "lon": 16.053285,
      "timestamp": "2016-08-28T18:58:29Z",
      "version": 2,
      "changeset": 41762146,
      "user": "fayor",
      "uid": 743479,
      "tags": {
        "gfoss_id": "6558",
        "name": "Malvito",
        "place": "village",
        "population": "2078",
        "source": "geodati.gfoss.it"
      }
    },
    {
      "type": "node",
      "id": 67274118,
      "lat": 39.717518,
      "lon": 15.8493274,
      "timestamp": "2016-08-28T18:58:29Z",
      "version": 3,
      "changeset": 41762146,
      "user": "fayor",
      "uid": 743479,
      "tags": {
        "gfoss_id": "6556",
        "name": "Maierà",
        "place": "village",
        "population": "1333",
        "source": "geodati.gfoss.it"
      }
    },
    {
      "type": "node",
      "id": 67274134,
      "lat": 39.7422654,
      "lon": 16.1228246,
      "timestamp": "2018-07-06T08:54:38Z",
      "version": 7,
      "changeset": 60459950,
      "user": "KaTaverna",
      "uid": 8202947,
      "tags": {
        "ele": "580",
        "gfoss_id": "6554",
        "is_in": "Cosenza, Calabria, Italy",
        "name": "Lungro",
        "name:aae": "Ungra",
        "place": "village",
        "population": "3145",
        "source": "geodati.gfoss.it"
      }
    },
    {
      "type": "node",
      "id": 67274140,
      "lat": 39.4633777,
      "lon": 16.1378293,
      "timestamp": "2016-08-28T18:58:28Z",
      "version": 3,
      "changeset": 41762146,
      "user": "fayor",
      "uid": 743479,
      "tags": {
        "gfoss_id": "6551",
        "name": "Lattarico",
        "place": "village",
        "population": "4184",
        "source": "geodati.gfoss.it"
      }
    },
    {
      "type": "node",
      "id": 67274156,
      "lat": 39.900902,
      "lon": 15.779276,
      "timestamp": "2016-08-28T18:58:39Z",
      "version": 2,
      "changeset": 41762146,
      "user": "fayor",
      "uid": 743479,
      "tags": {
        "gfoss_id": "6586",
        "name": "Praia a Mare",
        "place": "village",
        "population": "6282",
        "source": "geodati.gfoss.it"
      }
    },
    {
      "type": "node",
      "id": 67274177,
      "lat": 39.809603,
      "lon": 16.163285,
      "timestamp": "2020-07-21T14:31:40Z",
      "version": 4,
      "changeset": 88299497,
      "user": "damianeue",
      "uid": 10124288,
      "tags": {
        "gfoss_id": "6596",
        "name": "San Basile",
        "name:aae": "Shën Vàsili",
        "place": "village",
        "population": "1285",
        "source": "geodati.gfoss.it",
        "wikidata": "Q53955",
        "wikipedia": "it:San Basile"
      }
    },
    {
      "type": "node",
      "id": 67274180,
      "lat": 39.468496,
      "lon": 16.112588,
      "timestamp": "2016-09-05T17:51:55Z",
      "version": 3,
      "changeset": 41937071,
      "user": "Francesco Placco",
      "uid": 354689,
      "tags": {
        "gfoss_id": "6594",
        "name": "Rota Greca",
        "name:aae": "Rrota",
        "place": "village",
        "population": "1293",
        "source": "geodati.gfoss.it"
      }
    },
    {
      "type": "node",
      "id": 67274187,
      "lat": 39.427095,
      "lon": 16.123789,
      "timestamp": "2016-09-05T17:44:46Z",
      "version": 3,
      "changeset": 41936916,
      "user": "Francesco Placco",
      "uid": 354689,
      "tags": {
        "gfoss_id": "6597",
        "name": "San Benedetto Ullano",
        "name:aae": "Shën Bendhiti",
        "place": "village",
        "population": "1649",
        "source": "geodati.gfoss.it"
      }
    },
    {
      "type": "node",
      "id": 67274193,
      "lat": 39.8439407,
      "lon": 16.135613,
      "timestamp": "2016-08-28T18:58:33Z",
      "version": 3,
      "changeset": 41762146,
      "user": "fayor",
      "uid": 743479,
      "tags": {
        "gfoss_id": "6568",
        "name": "Morano Calabro",
        "place": "village",
        "population": "4966",
        "source": "geodati.gfoss.it"
      }
    },
    {
      "type": "node",
      "id": 67274199,
      "lat": 39.8001724,
      "lon": 15.9095285,
      "timestamp": "2016-08-28T18:58:35Z",
      "version": 3,
      "changeset": 41762146,
      "user": "fayor",
      "uid": 743479,
      "tags": {
        "gfoss_id": "6573",
        "name": "Orsomarso",
        "place": "village",
        "population": "1498",
        "source": "geodati.gfoss.it"
      }
    },
    {
      "type": "node",
      "id": 67274220,
      "lat": 39.819501,
      "lon": 15.854578,
      "timestamp": "2016-08-28T18:58:46Z",
      "version": 2,
      "changeset": 41762146,
      "user": "fayor",
      "uid": 743479,
      "tags": {
        "gfoss_id": "6615",
        "name": "Santa Domenica Talao",
        "place": "village",
        "population": "1314",
        "source": "geodati.gfoss.it"
      }
    },
    {
      "type": "node",
      "id": 67274228,
      "lat": 39.746199,
      "lon": 15.836379,
      "timestamp": "2016-08-28T18:58:46Z",
      "version": 2,
      "changeset": 41762146,
      "user": "fayor",
      "uid": 743479,
      "tags": {
        "gfoss_id": "6617",
        "name": "Santa Maria del Cedro",
        "place": "village",
        "population": "4831",
        "source": "geodati.gfoss.it"
      }
    },
    {
      "type": "node",
      "id": 67274244,
      "lat": 39.7768368,
      "lon": 16.1564716,
      "timestamp": "2016-08-28T18:58:47Z",
      "version": 4,
      "changeset": 41762146,
      "user": "fayor",
      "uid": 743479,
      "tags": {
        "gfoss_id": "6621",
        "name": "Saracena",
        "place": "village",
        "population": "4309",
        "source": "geodati.gfoss.it"
      }
    },
    {
      "type": "node",
      "id": 67274293,
      "lat": 39.7116002,
      "lon": 16.0484912,
      "timestamp": "2016-08-28T18:58:42Z",
      "version": 3,
      "changeset": 41762146,
      "user": "fayor",
      "uid": 743479,
      "tags": {
        "gfoss_id": "6600",
        "name": "San Donato di Ninea",
        "place": "village",
        "population": "1778",
        "source": "geodati.gfoss.it"
      }
    },
    {
      "type": "node",
      "id": 67274309,
      "lat": 39.604797,
      "lon": 15.914882,
      "timestamp": "2016-08-28T18:58:45Z",
      "version": 2,
      "changeset": 41762146,
      "user": "fayor",
      "uid": 743479,
      "tags": {
        "gfoss_id": "6602",
        "name": "Sangineto",
        "place": "village",
        "population": "1410",
        "source": "geodati.gfoss.it"
      }
    },
    {
      "type": "node",
      "id": 67274352,
      "lat": 39.6609483,
      "lon": 16.0282277,
      "timestamp": "2021-11-05T14:59:41Z",
      "version": 4,
      "changeset": 113413148,
      "user": "pizzi81",
      "uid": 13318013,
      "tags": {
        "gfoss_id": "6613",
        "name": "San Sosti",
        "place": "village",
        "population": "2299",
        "source": "geodati.gfoss.it",
        "wikidata": "Q53981"
      }
    },
    {
      "type": "node",
      "id": 67274367,
      "lat": 39.6179734,
      "lon": 15.8618527,
      "timestamp": "2019-07-29T18:54:39Z",
      "version": 4,
      "changeset": 72783192,
      "user": "deizenov",
      "uid": 8331873,
      "tags": {
        "gfoss_id": "6500",
        "name": "Belvedere Marittimo",
        "place": "village",
        "population": "9371",
        "source": "geodati.gfoss.it"
      }
    },
    {
      "type": "node",
      "id": 67274438,
      "lat": 39.506296,
      "lon": 16.145588,
      "timestamp": "2016-08-28T18:58:51Z",
      "version": 2,
      "changeset": 41762146,
      "user": "fayor",
      "uid": 743479,
      "tags": {
        "gfoss_id": "6633",
        "name": "Torano Castello",
        "place": "village",
        "population": "4915",
        "source": "geodati.gfoss.it"
      }
    },
    {
      "type": "node",
      "id": 67274476,
      "lat": 39.493695,
      "lon": 15.952084,
      "timestamp": "2016-08-28T18:58:08Z",
      "version": 2,
      "changeset": 41762146,
      "user": "fayor",
      "uid": 743479,
      "tags": {
        "gfoss_id": "6487",
        "name": "Acquappesa",
        "place": "village",
        "population": "2068",
        "source": "geodati.gfoss.it"
      }
    },
    {
      "type": "node",
      "id": 67274483,
      "lat": 39.6777304,
      "lon": 15.8211279,
      "timestamp": "2016-08-28T18:58:22Z",
      "version": 4,
      "changeset": 41762146,
      "user": "fayor",
      "uid": 743479,
      "tags": {
        "gfoss_id": "6533",
        "name": "Diamante",
        "place": "village",
        "population": "5091",
        "source": "geodati.gfoss.it"
      }
    },
    {
      "type": "node",
      "id": 67274523,
      "lat": 39.414294,
      "lon": 16.029787,
      "timestamp": "2016-08-28T18:58:25Z",
      "version": 2,
      "changeset": 41762146,
      "user": "fayor",
      "uid": 743479,
      "tags": {
        "gfoss_id": "6543",
        "name": "Fuscaldo",
        "place": "village",
        "population": "8323",
        "source": "geodati.gfoss.it"
      }
    },
    {
      "type": "node",
      "id": 67274553,
      "lat": 39.542497,
      "lon": 16.128287,
      "timestamp": "2016-09-05T17:34:17Z",
      "version": 2,
      "changeset": 41936696,
      "user": "Francesco Placco",
      "uid": 354689,
      "tags": {
        "gfoss_id": "6523",
        "is_in": "Cosenza, Calabria, Italy",
        "name": "Cervicati",
        "name:aae": "Çervikati",
        "place": "village",
        "population": "1018",
        "source": "geodati.gfoss.it"
      }
    },
    {
      "type": "node",
      "id": 67274572,
      "lat": 39.648699,
      "lon": 16.063385,
      "timestamp": "2007-10-12T22:40:56Z",
      "version": 1,
      "changeset": 137044,
      "user": "Niccolo",
      "uid": 864,
      "tags": {
        "created_by": "JOSM",
        "gfoss_id": "6570",
        "is_in": "Cosenza, Calabria, Italy",
        "name": "Mottafollone",
        "place": "village",
        "population": "1516",
        "source": "geodati.gfoss.it"
      }
    },
    {
      "type": "node",
      "id": 67274585,
      "lat": 39.404795,
      "lon": 16.15799,
      "timestamp": "2016-10-27T18:59:36Z",
      "version": 4,
      "changeset": 43225935,
      "user": "calfarome",
      "uid": 2511706,
      "tags": {
        "gfoss_id": "6566",
        "name": "Montalto Uffugo",
        "place": "town",
        "population": "19669",
        "source": "geodati.gfoss.it",
        "wikidata": "Q53917"
      }
    },
    {
      "type": "node",
      "id": 67274605,
      "lat": 39.888303,
      "lon": 15.98678,
      "timestamp": "2016-08-28T18:58:33Z",
      "version": 2,
      "changeset": 41762146,
      "user": "fayor",
      "uid": 743479,
      "tags": {
        "gfoss_id": "6569",
        "name": "Mormanno",
        "place": "village",
        "population": "3729",
        "source": "geodati.gfoss.it"
      }
    },
    {
      "type": "node",
      "id": 67274681,
      "lat": 39.724499,
      "lon": 15.854179,
      "timestamp": "2016-08-28T18:58:26Z",
      "version": 2,
      "changeset": 41762146,
      "user": "fayor",
      "uid": 743479,
      "tags": {
        "gfoss_id": "6545",
        "name": "Grisolia",
        "place": "village",
        "population": "2395",
        "source": "geodati.gfoss.it"
      }
    },
    {
      "type": "node",
      "id": 67274712,
      "lat": 39.5574078,
      "lon": 16.1190892,
      "timestamp": "2020-10-10T09:40:47Z",
      "version": 3,
      "changeset": 92269577,
      "user": "dgitto",
      "uid": 554973,
      "tags": {
        "gfoss_id": "6608",
        "name": "San Marco Argentano",
        "place": "village",
        "population": "7635",
        "source": "geodati.gfoss.it"
      }
    },
    {
      "type": "node",
      "id": 67274723,
      "lat": 39.490596,
      "lon": 16.109788,
      "timestamp": "2016-09-05T17:51:55Z",
      "version": 3,
      "changeset": 41937071,
      "user": "Francesco Placco",
      "uid": 354689,
      "tags": {
        "gfoss_id": "6609",
        "name": "San Martino di Finita",
        "name:aae": "Shën Murtiri",
        "place": "village",
        "population": "1294",
        "source": "geodati.gfoss.it"
      }
    },
    {
      "type": "node",
      "id": 67274730,
      "lat": 39.8481737,
      "lon": 15.7949706,
      "timestamp": "2020-07-17T16:44:12Z",
      "version": 3,
      "changeset": 88153060,
      "user": "Aldeyde",
      "uid": 10127559,
      "tags": {
        "gfoss_id": "6610",
        "name": "San Nicola Arcella",
        "place": "village",
        "population": "1393",
        "source": "geodati.gfoss.it"
      }
    },
    {
      "type": "node",
      "id": 67274778,
      "lat": 39.618199,
      "lon": 16.159687,
      "timestamp": "2016-08-28T18:58:40Z",
      "version": 2,
      "changeset": 41762146,
      "user": "fayor",
      "uid": 743479,
      "tags": {
        "gfoss_id": "6589",
        "name": "Roggiano Gravina",
        "place": "village",
        "population": "7739",
        "source": "geodati.gfoss.it"
      }
    },
    {
      "type": "node",
      "id": 67274796,
      "lat": 39.8719154,
      "lon": 15.9055522,
      "timestamp": "2016-08-28T18:58:36Z",
      "version": 3,
      "changeset": 41762146,
      "user": "fayor",
      "uid": 743479,
      "tags": {
        "gfoss_id": "6577",
        "name": "Papasidero",
        "place": "village",
        "population": "1019",
        "source": "geodati.gfoss.it"
      }
    },
    {
      "type": "node",
      "id": 67274850,
      "lat": 39.7556,
      "lon": 15.91358,
      "timestamp": "2016-08-28T18:58:52Z",
      "version": 3,
      "changeset": 41762146,
      "user": "fayor",
      "uid": 743479,
      "tags": {
        "gfoss_id": "6638",
        "loc_name": "Vrivicaru",
        "name": "Verbicaro",
        "place": "village",
        "population": "3507",
        "source": "geodati.gfoss.it"
      }
    },
    {
      "type": "node",
      "id": 67274923,
      "lat": 39.8166598,
      "lon": 15.7905473,
      "timestamp": "2016-09-09T00:49:51Z",
      "version": 6,
      "changeset": 42015514,
      "user": "fayor",
      "uid": 743479,
      "tags": {
        "gfoss_id": "6623",
        "name": "Scalea",
        "place": "town",
        "population": "10913",
        "source": "geodati.gfoss.it"
      }
    },
    {
      "type": "node",
      "id": 67274938,
      "lat": 39.622798,
      "lon": 15.983783,
      "timestamp": "2016-08-28T18:58:45Z",
      "version": 2,
      "changeset": 41762146,
      "user": "fayor",
      "uid": 743479,
      "tags": {
        "gfoss_id": "6616",
        "name": "Sant'Agata di Esaro",
        "place": "village",
        "population": "2223",
        "source": "geodati.gfoss.it"
      }
    },
    {
      "type": "node",
      "id": 67274941,
      "lat": 39.5861189,
      "lon": 16.0704791,
      "timestamp": "2018-09-16T22:38:15Z",
      "version": 5,
      "changeset": 62648107,
      "user": "mdx76",
      "uid": 616103,
      "tags": {
        "gfoss_id": "6614",
        "name": "Santa Caterina Albanese",
        "name:aae": "Picilìa",
        "place": "village",
        "population": "1383",
        "source": "geodati.gfoss.it"
      }
    },
    {
      "type": "node",
      "id": 412236355,
      "lat": 39.6295097,
      "lon": 15.9386357,
      "timestamp": "2017-03-05T13:46:21Z",
      "version": 4,
      "changeset": 46596366,
      "user": "sbiribizio",
      "uid": 354284,
      "tags": {
        "ele": "744",
        "mountain_pass": "yes",
        "name": "Passo dello Scalone",
        "natural": "saddle",
        "wikidata": "Q3897421",
        "wikipedia": "it:Passo dello Scalone"
      }
    },
    {
      "type": "node",
      "id": 469775271,
      "lat": 39.8716653,
      "lon": 15.771476,
      "timestamp": "2011-08-26T15:46:09Z",
      "version": 2,
      "changeset": 9130716,
      "user": "GPS-Marco",
      "uid": 110076,
      "tags": {
        "name": "Grotta Azzurra",
        "natural": "cave_entrance"
      }
    },
    {
      "type": "node",
      "id": 838776262,
      "lat": 39.3797784,
      "lon": 16.1003075,
      "timestamp": "2011-03-19T15:14:04Z",
      "version": 2,
      "changeset": 7605980,
      "user": "alessioz",
      "uid": 24966,
      "tags": {
        "amenity": "shelter"
      }
    },
    {
      "type": "node",
      "id": 1211839162,
      "lat": 39.4991535,
      "lon": 16.112167,
      "timestamp": "2020-04-26T10:00:54Z",
      "version": 3,
      "changeset": 84136019,
      "user": "Fintocubano",
      "uid": 166489,
      "tags": {
        "name": "San Giacomo",
        "name:sq": "Shën Japku",
        "place": "hamlet"
      }
    },
    {
      "type": "node",
      "id": 1211860607,
      "lat": 39.4760132,
      "lon": 16.1409425,
      "timestamp": "2011-03-21T12:49:53Z",
      "version": 1,
      "changeset": 7626925,
      "user": "Udini",
      "uid": 410505,
      "tags": {
        "name": "Santa Maria le Grotte",
        "place": "village"
      }
    },
    {
      "type": "node",
      "id": 1211891584,
      "lat": 39.4536664,
      "lon": 16.1604686,
      "timestamp": "2011-03-21T13:38:37Z",
      "version": 1,
      "changeset": 7627329,
      "user": "Udini",
      "uid": 410505,
      "tags": {
        "name": "Regina",
        "place": "village"
      }
    },
    {
      "type": "node",
      "id": 1211891605,
      "lat": 39.4459063,
      "lon": 16.1175151,
      "timestamp": "2011-03-21T13:38:38Z",
      "version": 1,
      "changeset": 7627329,
      "user": "Udini",
      "uid": 410505,
      "tags": {
        "name": "Palazzello",
        "place": "village"
      }
    },
    {
      "type": "node",
      "id": 1211891619,
      "lat": 39.4456569,
      "lon": 16.1515133,
      "timestamp": "2011-03-21T13:38:38Z",
      "version": 1,
      "changeset": 7627329,
      "user": "Udini",
      "uid": 410505,
      "tags": {
        "name": "Bivio Regina",
        "place": "village"
      }
    },
    {
      "type": "node",
      "id": 1211891650,
      "lat": 39.4501694,
      "lon": 16.1270209,
      "timestamp": "2014-06-25T08:49:44Z",
      "version": 2,
      "changeset": 23138264,
      "user": "albertux",
      "uid": 118185,
      "tags": {
        "name": "Piretto",
        "place": "village"
      }
    },
    {
      "type": "node",
      "id": 1269208110,
      "lat": 39.6220089,
      "lon": 15.8509521,
      "timestamp": "2019-06-26T08:54:59Z",
      "version": 2,
      "changeset": 71627791,
      "user": "Marco Andrea Lancellotta",
      "uid": 8061400,
      "tags": {
        "name": "Marina di Belvedere",
        "place": "hamlet"
      }
    },
    {
      "type": "node",
      "id": 1269211690,
      "lat": 39.4665184,
      "lon": 15.9795004,
      "timestamp": "2011-05-01T16:47:08Z",
      "version": 1,
      "changeset": 8023124,
      "user": "GeofixFe",
      "uid": 323641,
      "tags": {
        "name": "Guardia Piemontese Marina",
        "place": "hamlet"
      }
    },
    {
      "type": "node",
      "id": 1394073728,
      "lat": 39.8975546,
      "lon": 15.7802687,
      "timestamp": "2015-07-08T17:26:08Z",
      "version": 2,
      "changeset": 32500851,
      "user": "Wolfgang Mück",
      "uid": 1293257,
      "tags": {
        "name": "Conad",
        "shop": "supermarket"
      }
    },
    {
      "type": "node",
      "id": 1413311266,
      "lat": 39.8725235,
      "lon": 15.7800199,
      "timestamp": "2011-08-26T15:46:06Z",
      "version": 1,
      "changeset": 9130716,
      "user": "GPS-Marco",
      "uid": 110076,
      "tags": {
        "name": "Grotta del Leone",
        "natural": "cave_entrance"
      }
    },
    {
      "type": "node",
      "id": 1772868822,
      "lat": 39.5054333,
      "lon": 15.9444156,
      "timestamp": "2012-06-01T18:09:29Z",
      "version": 1,
      "changeset": 11770065,
      "user": "giacomop",
      "uid": 683319,
      "tags": {
        "amenity": "drinking_water"
      }
    },
    {
      "type": "node",
      "id": 1829783944,
      "lat": 39.8149889,
      "lon": 15.7891481,
      "timestamp": "2012-07-18T14:36:48Z",
      "version": 1,
      "changeset": 12284913,
      "user": "flicten",
      "uid": 742208,
      "tags": {
        "amenity": "drinking_water"
      }
    },
    {
      "type": "node",
      "id": 1829783948,
      "lat": 39.8130235,
      "lon": 15.7911275,
      "timestamp": "2012-07-20T12:40:58Z",
      "version": 3,
      "changeset": 12376339,
      "user": "flicten",
      "uid": 742208,
      "tags": {
        "name": "Alimentari Fornaro",
        "shop": "supermarket"
      }
    },
    {
      "type": "node",
      "id": 1829783951,
      "lat": 39.8110014,
      "lon": 15.7907082,
      "timestamp": "2018-06-18T16:05:00Z",
      "version": 3,
      "changeset": 59950140,
      "user": "Vuzi",
      "uid": 8225083,
      "tags": {
        "name": "Il Mercatissimo",
        "shop": "supermarket"
      }
    },
    {
      "type": "node",
      "id": 1829783952,
      "lat": 39.8140044,
      "lon": 15.7886453,
      "timestamp": "2022-03-01T15:21:04Z",
      "version": 3,
      "changeset": 117983903,
      "user": "Đuro Jiří",
      "uid": 14617702,
      "tags": {
        "amenity": "drinking_water",
        "check_date": "2022-03-01"
      }
    },
    {
      "type": "node",
      "id": 1829783957,
      "lat": 39.8180524,
      "lon": 15.7855941,
      "timestamp": "2012-07-18T14:36:48Z",
      "version": 1,
      "changeset": 12284913,
      "user": "flicten",
      "uid": 742208,
      "tags": {
        "amenity": "drinking_water"
      }
    },
    {
      "type": "node",
      "id": 1829783959,
      "lat": 39.8128359,
      "lon": 15.796462,
      "timestamp": "2012-07-18T14:36:49Z",
      "version": 1,
      "changeset": 12284913,
      "user": "flicten",
      "uid": 742208,
      "tags": {
        "amenity": "drinking_water"
      }
    },
    {
      "type": "node",
      "id": 2228981463,
      "lat": 39.7984608,
      "lon": 15.8715402,
      "timestamp": "2013-03-27T14:22:25Z",
      "version": 1,
      "changeset": 15516325,
      "user": "StefanoCudini",
      "uid": 130691,
      "tags": {
        "name": "Grotta di Mercuri.",
        "natural": "cave_entrance"
      }
    },
    {
      "type": "node",
      "id": 2350116937,
      "lat": 39.7990532,
      "lon": 15.9079884,
      "timestamp": "2019-02-13T15:07:07Z",
      "version": 2,
      "changeset": 67166354,
      "user": "DnaX",
      "uid": 69259,
      "tags": {
        "amenity": "drinking_water"
      }
    },
    {
      "type": "node",
      "id": 2350117008,
      "lat": 39.8004232,
      "lon": 15.9087914,
      "timestamp": "2013-06-17T23:50:59Z",
      "version": 1,
      "changeset": 16597505,
      "user": "kuojo",
      "uid": 1557260,
      "tags": {
        "amenity": "drinking_water"
      }
    },
    {
      "type": "node",
      "id": 2350123416,
      "lat": 39.8030135,
      "lon": 15.9112644,
      "timestamp": "2013-06-18T00:00:04Z",
      "version": 1,
      "changeset": 16597505,
      "user": "kuojo",
      "uid": 1557260,
      "tags": {
        "amenity": "drinking_water"
      }
    },
    {
      "type": "node",
      "id": 2350123418,
      "lat": 39.7991868,
      "lon": 15.9087539,
      "timestamp": "2013-06-18T00:00:04Z",
      "version": 1,
      "changeset": 16597505,
      "user": "kuojo",
      "uid": 1557260,
      "tags": {
        "amenity": "drinking_water"
      }
    },
    {
      "type": "node",
      "id": 2350123420,
      "lat": 39.7986678,
      "lon": 15.9097187,
      "timestamp": "2013-06-18T00:00:04Z",
      "version": 1,
      "changeset": 16597505,
      "user": "kuojo",
      "uid": 1557260,
      "tags": {
        "amenity": "drinking_water"
      }
    },
    {
      "type": "node",
      "id": 2350123424,
      "lat": 39.8001491,
      "lon": 15.9090409,
      "timestamp": "2013-06-18T00:00:04Z",
      "version": 1,
      "changeset": 16597505,
      "user": "kuojo",
      "uid": 1557260,
      "tags": {
        "amenity": "drinking_water"
      }
    },
    {
      "type": "node",
      "id": 2350123428,
      "lat": 39.8015216,
      "lon": 15.9102371,
      "timestamp": "2013-06-18T00:00:04Z",
      "version": 1,
      "changeset": 16597505,
      "user": "kuojo",
      "uid": 1557260,
      "tags": {
        "amenity": "drinking_water"
      }
    },
    {
      "type": "node",
      "id": 2350123430,
      "lat": 39.7997741,
      "lon": 15.9096658,
      "timestamp": "2013-06-18T00:00:04Z",
      "version": 1,
      "changeset": 16597505,
      "user": "kuojo",
      "uid": 1557260,
      "tags": {
        "amenity": "drinking_water"
      }
    },
    {
      "type": "node",
      "id": 2393664303,
      "lat": 39.7539015,
      "lon": 15.9125162,
      "timestamp": "2016-09-24T15:23:03Z",
      "version": 3,
      "changeset": 42406774,
      "user": "Ilpescatore",
      "uid": 4584822,
      "tags": {
        "amenity": "drinking_water"
      }
    },
    {
      "type": "node",
      "id": 2413853698,
      "lat": 39.7546357,
      "lon": 15.9125891,
      "timestamp": "2016-09-24T18:05:56Z",
      "version": 2,
      "changeset": 42409322,
      "user": "Ilpescatore",
      "uid": 4584822,
      "tags": {
        "amenity": "drinking_water"
      }
    },
    {
      "type": "node",
      "id": 2642112828,
      "lat": 39.5149356,
      "lon": 16.1110827,
      "timestamp": "2019-02-23T11:23:48Z",
      "version": 6,
      "changeset": 67491369,
      "user": "Fintocubano",
      "uid": 166489,
      "tags": {
        "name": "Cavallerizzo di Cerzeto Vecchio",
        "name:sq": "Kajveriji",
        "place": "hamlet",
        "population": "0",
        "status": "abandoned",
        "wikipedia": "it:Cavallerizzo di Cerzeto Vecchio"
      }
    },
    {
      "type": "node",
      "id": 2642112829,
      "lat": 39.5144237,
      "lon": 16.1237014,
      "timestamp": "2019-02-23T11:23:48Z",
      "version": 5,
      "changeset": 67491369,
      "user": "Fintocubano",
      "uid": 166489,
      "tags": {
        "description": "Newly built residential area following landslides of March 2005 (see Italian Home Office's website link: http://www.protezionecivile.gov.it/jcms/it/progetto_cerzeto.wp).",
        "name": "Cavallerizzo di Cerzeto Nuova",
        "place": "hamlet",
        "website": "http://www.protezionecivile.gov.it/jcms/it/ricostruzione_cerzeto.wp;jsessionid=C210FD7CFA62201039EC976A6FFE11EB.worker3",
        "wikidata": "Q9713323",
        "wikipedia": "it:Cavallerizzo"
      }
    },
    {
      "type": "node",
      "id": 2921542031,
      "lat": 39.5378096,
      "lon": 15.904186,
      "timestamp": "2017-08-28T10:56:37Z",
      "version": 2,
      "changeset": 51504833,
      "user": "mdx76",
      "uid": 616103,
      "tags": {
        "natural": "cave_entrance"
      }
    },
    {
      "type": "node",
      "id": 2921542057,
      "lat": 39.5377103,
      "lon": 15.9054,
      "timestamp": "2014-06-18T08:03:18Z",
      "version": 1,
      "changeset": 22999417,
      "user": "Francesco Placco",
      "uid": 354689,
      "tags": {
        "natural": "cave_entrance"
      }
    },
    {
      "type": "node",
      "id": 2921638165,
      "lat": 39.6780542,
      "lon": 15.8180478,
      "timestamp": "2014-06-18T09:48:21Z",
      "version": 1,
      "changeset": 23001132,
      "user": "Francesco Placco",
      "uid": 354689,
      "tags": {
        "amenity": "drinking_water"
      }
    },
    {
      "type": "node",
      "id": 3050372996,
      "lat": 39.4088372,
      "lon": 16.0144872,
      "timestamp": "2014-09-24T12:52:18Z",
      "version": 2,
      "changeset": 25644258,
      "user": "KonTur",
      "uid": 43262,
      "tags": {
        "name": "Despar",
        "shop": "supermarket"
      }
    },
    {
      "type": "node",
      "id": 3050427838,
      "lat": 39.422811,
      "lon": 16.0067068,
      "timestamp": "2018-05-11T01:05:59Z",
      "version": 3,
      "changeset": 58864859,
      "user": "Olyon",
      "uid": 1443767,
      "tags": {
        "brand": "Carrefour Market",
        "brand:wikidata": "Q2689639",
        "name": "Carrefour Market",
        "shop": "supermarket"
      }
    },
    {
      "type": "node",
      "id": 3134816736,
      "lat": 39.9077823,
      "lon": 15.7780695,
      "timestamp": "2021-08-05T08:04:03Z",
      "version": 2,
      "changeset": 109185745,
      "user": "metacomet",
      "uid": 2772493,
      "tags": {
        "addr:city": "Praia a mare",
        "addr:postcode": "87028",
        "addr:street": "Via San Paolo",
        "brand": "Conad",
        "brand:wikidata": "Q639075",
        "brand:wikipedia": "it:Conad",
        "name": "Conad",
        "shop": "supermarket"
      }
    },
    {
      "type": "node",
      "id": 3371724379,
      "lat": 39.4121133,
      "lon": 16.011386,
      "timestamp": "2015-02-25T13:36:57Z",
      "version": 1,
      "changeset": 29091770,
      "user": "Francesco Maria Volpe Montesani",
      "uid": 2690038,
      "tags": {
        "name": "dok",
        "shop": "supermarket"
      }
    },
    {
      "type": "node",
      "id": 3717680738,
      "lat": 39.5554053,
      "lon": 15.9529776,
      "timestamp": "2019-07-28T20:16:43Z",
      "version": 2,
      "changeset": 72746613,
      "user": "deizenov",
      "uid": 8331873,
      "tags": {
        "amenity": "drinking_water"
      }
    },
    {
      "type": "node",
      "id": 3807598879,
      "lat": 39.588785,
      "lon": 15.8653778,
      "timestamp": "2015-10-28T22:57:55Z",
      "version": 2,
      "changeset": 34938749,
      "user": "Vesuviano",
      "uid": 3343608,
      "tags": {
        "name": "Sangineto Lido",
        "place": "village"
      }
    },
    {
      "type": "node",
      "id": 3815590402,
      "lat": 39.6496229,
      "lon": 15.9197065,
      "timestamp": "2015-11-03T14:28:56Z",
      "version": 2,
      "changeset": 35057103,
      "user": "Vesuviano",
      "uid": 3343608,
      "tags": {
        "ele": "1355",
        "name": "Rifugio Belvedere",
        "tourism": "alpine_hut"
      }
    },
    {
      "type": "node",
      "id": 3899791137,
      "lat": 39.665436,
      "lon": 16.0990775,
      "timestamp": "2015-12-19T13:27:44Z",
      "version": 2,
      "changeset": 36045316,
      "user": "miche_tn",
      "uid": 2587861,
      "tags": {
        "addr:postcode": "87010",
        "name": "Macellara",
        "place": "village"
      }
    },
    {
      "type": "node",
      "id": 3899801592,
      "lat": 39.6620611,
      "lon": 16.1411557,
      "timestamp": "2015-12-19T13:40:15Z",
      "version": 1,
      "changeset": 36045613,
      "user": "miche_tn",
      "uid": 2587861,
      "tags": {
        "name": "Casello",
        "place": "village"
      }
    },
    {
      "type": "node",
      "id": 3899801891,
      "lat": 39.6720597,
      "lon": 16.1102521,
      "timestamp": "2015-12-19T13:38:46Z",
      "version": 1,
      "changeset": 36045582,
      "user": "miche_tn",
      "uid": 2587861,
      "tags": {
        "name": "Vallo Marino",
        "place": "village"
      }
    },
    {
      "type": "node",
      "id": 3899801892,
      "lat": 39.6628629,
      "lon": 16.1166728,
      "timestamp": "2015-12-19T13:38:46Z",
      "version": 1,
      "changeset": 36045582,
      "user": "miche_tn",
      "uid": 2587861,
      "tags": {
        "name": "Ficara III",
        "place": "village"
      }
    },
    {
      "type": "node",
      "id": 3899801893,
      "lat": 39.6664874,
      "lon": 16.1204569,
      "timestamp": "2015-12-19T13:38:46Z",
      "version": 1,
      "changeset": 36045582,
      "user": "miche_tn",
      "uid": 2587861,
      "tags": {
        "name": "Ficara",
        "place": "village"
      }
    },
    {
      "type": "node",
      "id": 4087948103,
      "lat": 39.6978818,
      "lon": 16.1271277,
      "timestamp": "2016-08-28T18:58:09Z",
      "version": 2,
      "changeset": 41762146,
      "user": "fayor",
      "uid": 743479,
      "tags": {
        "name": "Altomonte",
        "place": "village"
      }
    },
    {
      "type": "node",
      "id": 4200691407,
      "lat": 39.5086111,
      "lon": 15.9452778,
      "timestamp": "2016-05-22T19:22:59Z",
      "version": 1,
      "changeset": 39494307,
      "user": "Walter Schlögl",
      "uid": 78656,
      "tags": {
        "name": "Spar",
        "shop": "supermarket"
      }
    },
    {
      "type": "node",
      "id": 4252191790,
      "lat": 39.807548,
      "lon": 15.7958084,
      "timestamp": "2019-06-23T21:41:06Z",
      "version": 2,
      "changeset": 71542003,
      "user": "Dmitry Beketov",
      "uid": 9863982,
      "tags": {
        "name": "Labadessa",
        "opening_hours": "Mo-Sa 07:30-13:30, 16:30-21:00; Su 08:00-13:30",
        "shop": "convenience"
      }
    },
    {
      "type": "node",
      "id": 4401220628,
      "lat": 39.6588644,
      "lon": 15.9294587,
      "timestamp": "2017-04-17T00:41:06Z",
      "version": 2,
      "changeset": 47852161,
      "user": "Gianfranco2014",
      "uid": 1928626,
      "tags": {
        "ele": "1365",
        "name": "La Melara",
        "natural": "saddle"
      }
    },
    {
      "type": "node",
      "id": 4401222364,
      "lat": 39.6568557,
      "lon": 15.9299844,
      "timestamp": "2016-09-14T14:06:13Z",
      "version": 1,
      "changeset": 42150579,
      "user": "Vesuviano",
      "uid": 3343608,
      "tags": {
        "name": "Sorgente Acqua la Melara",
        "natural": "spring"
      }
    },
    {
      "type": "node",
      "id": 4401279621,
      "lat": 39.6510107,
      "lon": 15.9198852,
      "timestamp": "2016-09-14T15:35:32Z",
      "version": 2,
      "changeset": 42152838,
      "user": "Vesuviano",
      "uid": 3343608,
      "tags": {
        "name": "Sorgente Acqua La Croce",
        "natural": "spring"
      }
    },
    {
      "type": "node",
      "id": 4405784763,
      "lat": 39.8747493,
      "lon": 16.0658506,
      "timestamp": "2016-09-17T15:49:22Z",
      "version": 1,
      "changeset": 42229583,
      "user": "fick89",
      "uid": 1781586,
      "tags": {
        "amenity": "drinking_water"
      }
    },
    {
      "type": "node",
      "id": 4406284762,
      "lat": 39.5545894,
      "lon": 15.8778941,
      "timestamp": "2016-09-18T01:10:46Z",
      "version": 1,
      "changeset": 42238062,
      "user": "fayor",
      "uid": 743479,
      "tags": {
        "name": "Cittadella del Capo",
        "place": "village",
        "population": "1163"
      }
    },
    {
      "type": "node",
      "id": 4406284775,
      "lat": 39.5554704,
      "lon": 15.895999,
      "timestamp": "2016-09-18T01:10:47Z",
      "version": 1,
      "changeset": 42238062,
      "user": "fayor",
      "uid": 743479,
      "tags": {
        "name": "Torrevecchia",
        "place": "village",
        "population": "308"
      }
    },
    {
      "type": "node",
      "id": 4413746596,
      "lat": 39.7556401,
      "lon": 15.9123349,
      "timestamp": "2016-09-22T18:39:07Z",
      "version": 1,
      "changeset": 42356198,
      "user": "Ilpescatore",
      "uid": 4584822,
      "tags": {
        "addr:city": "Verbicaro",
        "name": "Alimentari",
        "shop": "convenience"
      }
    },
    {
      "type": "node",
      "id": 4435049911,
      "lat": 39.7661913,
      "lon": 15.8240408,
      "timestamp": "2018-06-18T17:49:44Z",
      "version": 3,
      "changeset": 59952756,
      "user": "LordKeeran",
      "uid": 8436366,
      "tags": {
        "name": "Marcellina",
        "place": "hamlet",
        "wikidata": "Q2796953",
        "wikipedia": "it:Marcellina (Santa Maria del Cedro)"
      }
    },
    {
      "type": "node",
      "id": 4449459557,
      "lat": 39.7740031,
      "lon": 15.9772372,
      "timestamp": "2020-08-04T14:20:41Z",
      "version": 3,
      "changeset": 88934325,
      "user": "Vesuviano",
      "uid": 3343608,
      "tags": {
        "amenity": "shelter",
        "name": "BIvacco Canale del Sardo"
      }
    },
    {
      "type": "node",
      "id": 4549690706,
      "lat": 39.9035811,
      "lon": 15.7730446,
      "timestamp": "2021-09-22T09:14:52Z",
      "version": 2,
      "changeset": 111532343,
      "user": "SabDil",
      "uid": 7651756,
      "tags": {
        "amenity": "drinking_water",
        "description": "chiusa"
      }
    },
    {
      "type": "node",
      "id": 4660768389,
      "lat": 39.7170425,
      "lon": 15.8199256,
      "timestamp": "2017-02-03T19:36:02Z",
      "version": 1,
      "changeset": 45788253,
      "user": "Masala2",
      "uid": 3792744,
      "tags": {
        "amenity": "drinking_water"
      }
    },
    {
      "type": "node",
      "id": 4663167090,
      "lat": 39.7915872,
      "lon": 15.9413499,
      "timestamp": "2017-02-04T12:49:09Z",
      "version": 1,
      "changeset": 45804377,
      "user": "Masala2",
      "uid": 3792744,
      "tags": {
        "amenity": "shelter"
      }
    },
    {
      "type": "node",
      "id": 4663167290,
      "lat": 39.796489,
      "lon": 15.9642619,
      "timestamp": "2020-09-07T20:38:32Z",
      "version": 2,
      "changeset": 90548349,
      "user": "mboesch",
      "uid": 148698,
      "tags": {
        "amenity": "drinking_water"
      }
    },
    {
      "type": "node",
      "id": 4680125559,
      "lat": 39.804399,
      "lon": 15.7973189,
      "timestamp": "2017-12-13T11:05:26Z",
      "version": 2,
      "changeset": 54592674,
      "user": "parukhin",
      "uid": 519501,
      "tags": {
        "addr:city": "Scalea",
        "addr:housenumber": "252",
        "addr:postcode": "87029",
        "addr:street": "Via Paolo Borsellino",
        "name": "Aldel Discount",
        "opening_hours": "08:00-13:30,16:00-20:00",
        "shop": "supermarket"
      }
    },
    {
      "type": "node",
      "id": 4691865959,
      "lat": 39.7721632,
      "lon": 15.9730803,
      "timestamp": "2017-02-18T09:44:27Z",
      "version": 1,
      "changeset": 46188011,
      "user": "Mistero70",
      "uid": 4902475,
      "tags": {
        "amenity": "drinking_water"
      }
    },
    {
      "type": "node",
      "id": 4796182884,
      "lat": 39.3986394,
      "lon": 16.0866162,
      "timestamp": "2020-11-19T22:47:21Z",
      "version": 2,
      "changeset": 94464240,
      "user": "Edward",
      "uid": 364,
      "tags": {
        "ele": "1389",
        "name": "Cozzo Cervello",
        "natural": "peak",
        "wikidata": "Q31610583"
      }
    },
    {
      "type": "node",
      "id": 4797435301,
      "lat": 39.7085743,
      "lon": 16.003847,
      "timestamp": "2018-12-31T14:27:36Z",
      "version": 3,
      "changeset": 65914032,
      "user": "adessotrek",
      "uid": 6671635,
      "tags": {
        "intermittent": "no",
        "name": "Acqua di Frida",
        "natural": "spring"
      }
    },
    {
      "type": "node",
      "id": 4797435615,
      "lat": 39.6788997,
      "lon": 16.0123401,
      "timestamp": "2017-04-17T00:40:50Z",
      "version": 1,
      "changeset": 47852161,
      "user": "Gianfranco2014",
      "uid": 1928626,
      "tags": {
        "name": "Fontana di Casiglia",
        "natural": "spring"
      }
    },
    {
      "type": "node",
      "id": 4797435981,
      "lat": 39.6476339,
      "lon": 15.9785087,
      "timestamp": "2017-04-17T00:40:56Z",
      "version": 1,
      "changeset": 47852161,
      "user": "Gianfranco2014",
      "uid": 1928626,
      "tags": {
        "name": "Fonte Spina Santa",
        "natural": "spring"
      }
    },
    {
      "type": "node",
      "id": 4799341229,
      "lat": 39.7710331,
      "lon": 16.0287073,
      "timestamp": "2017-04-17T17:14:08Z",
      "version": 1,
      "changeset": 47878888,
      "user": "Gianfranco2014",
      "uid": 1928626,
      "tags": {
        "name": "Fonte Tavolara",
        "natural": "spring"
      }
    },
    {
      "type": "node",
      "id": 4799341474,
      "lat": 39.7497255,
      "lon": 16.0394026,
      "timestamp": "2017-04-17T17:14:11Z",
      "version": 1,
      "changeset": 47878888,
      "user": "Gianfranco2014",
      "uid": 1928626,
      "tags": {
        "name": "Acqua del Mangano",
        "natural": "spring"
      }
    },
    {
      "type": "node",
      "id": 4799341475,
      "lat": 39.7369057,
      "lon": 16.0344673,
      "timestamp": "2017-04-17T17:14:11Z",
      "version": 1,
      "changeset": 47878888,
      "user": "Gianfranco2014",
      "uid": 1928626,
      "tags": {
        "name": "Acqua Marchesano",
        "natural": "spring"
      }
    },
    {
      "type": "node",
      "id": 4889567815,
      "lat": 39.7674845,
      "lon": 15.908709,
      "timestamp": "2017-06-01T11:05:29Z",
      "version": 1,
      "changeset": 49161636,
      "user": "Zeno Kugy",
      "uid": 1666292,
      "tags": {
        "name": "Fonte dei Bagni",
        "natural": "spring"
      }
    },
    {
      "type": "node",
      "id": 4889683980,
      "lat": 39.7865437,
      "lon": 15.9169024,
      "timestamp": "2017-06-01T12:16:45Z",
      "version": 1,
      "changeset": 49163309,
      "user": "Zeno Kugy",
      "uid": 1666292,
      "tags": {
        "name": "S. Elia",
        "natural": "spring"
      }
    },
    {
      "type": "node",
      "id": 4982368325,
      "lat": 39.742007,
      "lon": 15.8077891,
      "timestamp": "2017-07-20T09:39:57Z",
      "version": 1,
      "changeset": 50427563,
      "user": "hal9",
      "uid": 62775,
      "tags": {
        "name": "Villaggio Camping Orchidea",
        "tourism": "camp_site"
      }
    },
    {
      "type": "node",
      "id": 5007675514,
      "lat": 39.4664758,
      "lon": 15.9998274,
      "timestamp": "2017-08-01T15:46:58Z",
      "version": 1,
      "changeset": 50756715,
      "user": "Papirollo",
      "uid": 2183311,
      "tags": {
        "amenity": "drinking_water"
      }
    },
    {
      "type": "node",
      "id": 5018137232,
      "lat": 39.9047909,
      "lon": 16.1217192,
      "timestamp": "2017-08-06T14:11:12Z",
      "version": 1,
      "changeset": 50886268,
      "user": "mdx76",
      "uid": 616103,
      "tags": {
        "name": "Sorgente del Pianicello",
        "natural": "spring"
      }
    },
    {
      "type": "node",
      "id": 5018690101,
      "lat": 39.8884599,
      "lon": 16.1565564,
      "timestamp": "2017-08-06T20:39:05Z",
      "version": 1,
      "changeset": 50895992,
      "user": "mdx76",
      "uid": 616103,
      "tags": {
        "name": "Sorgente Tufarazzo",
        "natural": "spring"
      }
    },
    {
      "type": "node",
      "id": 5020831201,
      "lat": 39.8900966,
      "lon": 16.1676248,
      "timestamp": "2017-08-07T20:27:16Z",
      "version": 1,
      "changeset": 50927324,
      "user": "mdx76",
      "uid": 616103,
      "tags": {
        "name": "Sorgente Romania",
        "natural": "spring"
      }
    },
    {
      "type": "node",
      "id": 5020831202,
      "lat": 39.892285,
      "lon": 16.1622584,
      "timestamp": "2017-08-07T20:27:16Z",
      "version": 1,
      "changeset": 50927324,
      "user": "mdx76",
      "uid": 616103,
      "tags": {
        "name": "Sorgente della Serra",
        "natural": "spring"
      }
    },
    {
      "type": "node",
      "id": 5023884573,
      "lat": 39.6564859,
      "lon": 15.9194927,
      "timestamp": "2018-08-07T14:41:22Z",
      "version": 2,
      "changeset": 61437871,
      "user": "mdx76",
      "uid": 616103,
      "tags": {
        "name": "Sella La Caccia",
        "natural": "saddle"
      }
    },
    {
      "type": "node",
      "id": 5023901140,
      "lat": 39.6502298,
      "lon": 15.9203333,
      "timestamp": "2018-12-29T12:45:26Z",
      "version": 2,
      "changeset": 65864123,
      "user": "mdx76",
      "uid": 616103,
      "tags": {
        "name": "Sella La Croce",
        "natural": "saddle"
      }
    },
    {
      "type": "node",
      "id": 5081454143,
      "lat": 39.8630557,
      "lon": 16.117961,
      "timestamp": "2017-09-05T12:12:21Z",
      "version": 1,
      "changeset": 51748432,
      "user": "mdx76",
      "uid": 616103,
      "tags": {
        "name": "Grotta di S. Paolo",
        "natural": "cave_entrance"
      }
    },
    {
      "type": "node",
      "id": 5117209950,
      "lat": 39.5209196,
      "lon": 15.9326991,
      "timestamp": "2017-09-20T12:04:46Z",
      "version": 1,
      "changeset": 52209032,
      "user": "michele gonino",
      "uid": 6683815,
      "tags": {
        "addr:city": "Cetraro",
        "addr:housenumber": "s.n.c.",
        "addr:postcode": "87022",
        "description": "Prodet è una catena di negozi specializzati nella cosmesi, igiene, pulizia, bellezza e cura della persona e della casa",
        "email": "prodet@meridianadomus.it",
        "name": "Negozio Prodet",
        "opening_hours": "Mo-Su 08:30-20:30",
        "shop": "supermarket"
      }
    },
    {
      "type": "node",
      "id": 5188021591,
      "lat": 39.8016375,
      "lon": 15.9708146,
      "timestamp": "2017-10-25T07:55:51Z",
      "version": 1,
      "changeset": 53228489,
      "user": "Ultimateuse",
      "uid": 6503009,
      "tags": {
        "ele": "610",
        "name": "Valico Castel S.Noceto",
        "natural": "saddle"
      }
    },
    {
      "type": "node",
      "id": 5484399705,
      "lat": 39.4331985,
      "lon": 16.0683739,
      "timestamp": "2018-03-17T11:48:33Z",
      "version": 1,
      "changeset": 57265055,
      "user": "mircozorzo",
      "uid": 224342,
      "tags": {
        "amenity": "drinking_water"
      }
    },
    {
      "type": "node",
      "id": 5484401108,
      "lat": 39.5073972,
      "lon": 16.1125469,
      "timestamp": "2018-03-17T11:51:00Z",
      "version": 1,
      "changeset": 57265089,
      "user": "mircozorzo",
      "uid": 224342,
      "tags": {
        "amenity": "drinking_water",
        "name": "Fontana San Nicola"
      }
    },
    {
      "type": "node",
      "id": 5484404608,
      "lat": 39.5068061,
      "lon": 16.0949399,
      "timestamp": "2018-03-17T11:49:58Z",
      "version": 1,
      "changeset": 57265075,
      "user": "mircozorzo",
      "uid": 224342,
      "tags": {
        "amenity": "drinking_water",
        "name": "Fonte Osticano"
      }
    },
    {
      "type": "node",
      "id": 5598150667,
      "lat": 39.7575962,
      "lon": 16.0747354,
      "timestamp": "2018-05-05T08:32:12Z",
      "version": 1,
      "changeset": 58701363,
      "user": "KaTaverna",
      "uid": 8202947,
      "tags": {
        "addr:city": "Lungro",
        "name": "Rifugio Piano del Faggio",
        "tourism": "alpine_hut"
      }
    },
    {
      "type": "node",
      "id": 5599084080,
      "lat": 39.8083702,
      "lon": 15.8008378,
      "timestamp": "2018-05-05T17:40:02Z",
      "version": 1,
      "changeset": 58712628,
      "user": "Vuzi",
      "uid": 8225083,
      "tags": {
        "amenity": "drinking_water"
      }
    },
    {
      "type": "node",
      "id": 5664035079,
      "lat": 39.8159743,
      "lon": 15.7909754,
      "timestamp": "2018-06-04T14:56:42Z",
      "version": 1,
      "changeset": 59540719,
      "user": "DnaX",
      "uid": 69259,
      "tags": {
        "amenity": "drinking_water"
      }
    },
    {
      "type": "node",
      "id": 5690118589,
      "lat": 39.680757,
      "lon": 15.9127074,
      "timestamp": "2018-06-14T08:55:43Z",
      "version": 1,
      "changeset": 59837363,
      "user": "Vesuviano",
      "uid": 3343608,
      "tags": {
        "intermittent": "no",
        "name": "Acqua del Ciraso",
        "natural": "spring"
      }
    },
    {
      "type": "node",
      "id": 5699933169,
      "lat": 39.8111514,
      "lon": 15.7907505,
      "timestamp": "2019-06-24T20:37:49Z",
      "version": 2,
      "changeset": 71575908,
      "user": "Dmitry Beketov",
      "uid": 9863982,
      "tags": {
        "name": "Decò",
        "opening_hours": "Mo-Su 08:00-21:00",
        "shop": "supermarket"
      }
    },
    {
      "type": "node",
      "id": 5702845674,
      "lat": 39.8079812,
      "lon": 15.791317,
      "timestamp": "2018-06-19T16:05:59Z",
      "version": 1,
      "changeset": 59983716,
      "user": "Vuzi",
      "uid": 8225083,
      "tags": {
        "amenity": "drinking_water"
      }
    },
    {
      "type": "node",
      "id": 5702845675,
      "lat": 39.8072519,
      "lon": 15.7900817,
      "timestamp": "2018-06-19T16:05:59Z",
      "version": 1,
      "changeset": 59983716,
      "user": "Vuzi",
      "uid": 8225083,
      "tags": {
        "amenity": "drinking_water"
      }
    },
    {
      "type": "node",
      "id": 5702866342,
      "lat": 39.7959781,
      "lon": 15.8070846,
      "timestamp": "2018-06-19T16:18:35Z",
      "version": 1,
      "changeset": 59984025,
      "user": "Vuzi",
      "uid": 8225083,
      "tags": {
        "amenity": "drinking_water"
      }
    },
    {
      "type": "node",
      "id": 5779887088,
      "lat": 39.8112993,
      "lon": 15.8012918,
      "timestamp": "2018-07-23T18:40:33Z",
      "version": 1,
      "changeset": 60996320,
      "user": "Pino Navato",
      "uid": 8152307,
      "tags": {
        "amenity": "drinking_water"
      }
    },
    {
      "type": "node",
      "id": 5781717204,
      "lat": 39.7208701,
      "lon": 16.0182459,
      "timestamp": "2018-07-24T12:19:00Z",
      "version": 1,
      "changeset": 61021159,
      "user": "mdx76",
      "uid": 616103,
      "tags": {
        "name": "Fonte di Cicilillo",
        "natural": "spring"
      }
    },
    {
      "type": "node",
      "id": 5781717217,
      "lat": 39.7692713,
      "lon": 15.9807443,
      "timestamp": "2018-07-24T12:19:01Z",
      "version": 1,
      "changeset": 61021159,
      "user": "mdx76",
      "uid": 616103,
      "tags": {
        "name": "Fonte di Novacco",
        "natural": "spring"
      }
    },
    {
      "type": "node",
      "id": 5782028085,
      "lat": 39.8054794,
      "lon": 16.0608123,
      "timestamp": "2018-07-24T15:08:20Z",
      "version": 1,
      "changeset": 61027635,
      "user": "mdx76",
      "uid": 616103,
      "tags": {
        "name": "Acqua di Scifarello",
        "natural": "spring"
      }
    },
    {
      "type": "node",
      "id": 5785252382,
      "lat": 39.7129349,
      "lon": 16.0102892,
      "timestamp": "2018-07-25T22:51:35Z",
      "version": 1,
      "changeset": 61070159,
      "user": "mdx76",
      "uid": 616103,
      "tags": {
        "name": "Acqua di Tardea",
        "natural": "spring"
      }
    },
    {
      "type": "node",
      "id": 5785252388,
      "lat": 39.695387,
      "lon": 16.0290363,
      "timestamp": "2018-07-25T22:51:35Z",
      "version": 1,
      "changeset": 61070159,
      "user": "mdx76",
      "uid": 616103,
      "tags": {
        "name": "Fontana i Tufi",
        "natural": "spring"
      }
    },
    {
      "type": "node",
      "id": 5785263659,
      "lat": 39.710995,
      "lon": 16.0448781,
      "timestamp": "2018-07-25T23:06:33Z",
      "version": 1,
      "changeset": 61070345,
      "user": "mdx76",
      "uid": 616103,
      "tags": {
        "name": "Fonte di Pastene",
        "natural": "spring"
      }
    },
    {
      "type": "node",
      "id": 5794060417,
      "lat": 39.828634,
      "lon": 15.7800316,
      "timestamp": "2018-07-29T16:01:49Z",
      "version": 1,
      "changeset": 61167881,
      "user": "Pino Navato",
      "uid": 8152307,
      "tags": {
        "amenity": "drinking_water"
      }
    },
    {
      "type": "node",
      "id": 5812638732,
      "lat": 39.7235769,
      "lon": 15.8753703,
      "timestamp": "2018-08-06T14:58:51Z",
      "version": 1,
      "changeset": 61407225,
      "user": "carlogek",
      "uid": 293914,
      "tags": {
        "amenity": "drinking_water"
      }
    },
    {
      "type": "node",
      "id": 5812660881,
      "lat": 39.7237534,
      "lon": 15.852759,
      "timestamp": "2021-06-05T16:15:07Z",
      "version": 2,
      "changeset": 105888831,
      "user": "DAN_b01",
      "uid": 13494791,
      "tags": {
        "amenity": "drinking_water"
      }
    },
    {
      "type": "node",
      "id": 5814800115,
      "lat": 39.7621942,
      "lon": 15.9590125,
      "timestamp": "2018-08-07T12:39:06Z",
      "version": 1,
      "changeset": 61433935,
      "user": "mdx76",
      "uid": 616103,
      "tags": {
        "name": "Fonte Acqua di Teste",
        "natural": "spring"
      }
    },
    {
      "type": "node",
      "id": 5814900162,
      "lat": 39.7173531,
      "lon": 15.9383751,
      "timestamp": "2018-08-07T13:08:58Z",
      "version": 1,
      "changeset": 61435034,
      "user": "mdx76",
      "uid": 616103,
      "tags": {
        "name": "Sorgente della Pericella",
        "natural": "spring"
      }
    },
    {
      "type": "node",
      "id": 5815204398,
      "lat": 39.690272,
      "lon": 15.9678858,
      "timestamp": "2018-08-07T14:41:06Z",
      "version": 1,
      "changeset": 61437871,
      "user": "mdx76",
      "uid": 616103,
      "tags": {
        "name": "Acqua Pice",
        "natural": "spring"
      }
    },
    {
      "type": "node",
      "id": 5815204399,
      "lat": 39.683963,
      "lon": 15.9524245,
      "timestamp": "2021-06-05T15:03:35Z",
      "version": 2,
      "changeset": 105886006,
      "user": "DAN_b01",
      "uid": 13494791,
      "tags": {
        "name": "Acqua di Pedarrone",
        "natural": "spring"
      }
    },
    {
      "type": "node",
      "id": 5819211143,
      "lat": 39.7396396,
      "lon": 16.0991676,
      "timestamp": "2018-08-08T21:14:55Z",
      "version": 1,
      "changeset": 61481315,
      "user": "mdx76",
      "uid": 616103,
      "tags": {
        "name": "Sorgente Acqua di Grizzi",
        "natural": "spring"
      }
    },
    {
      "type": "node",
      "id": 5839485256,
      "lat": 39.8148016,
      "lon": 15.791306,
      "timestamp": "2018-08-18T08:02:44Z",
      "version": 1,
      "changeset": 61764334,
      "user": "Federico Iv d'Aragona",
      "uid": 8229379,
      "tags": {
        "addr:housenumber": "11",
        "addr:street": "Via Vittorio Emanuele III",
        "name": "Tentazioni di Calabria",
        "shop": "convenience"
      }
    },
    {
      "type": "node",
      "id": 6055087235,
      "lat": 39.5564267,
      "lon": 16.1184087,
      "timestamp": "2018-11-12T14:59:09Z",
      "version": 1,
      "changeset": 64409367,
      "user": "mircozorzo",
      "uid": 224342,
      "tags": {
        "amenity": "drinking_water"
      }
    },
    {
      "type": "node",
      "id": 6055233655,
      "lat": 39.5567146,
      "lon": 16.122881,
      "timestamp": "2019-03-30T18:59:09Z",
      "version": 2,
      "changeset": 68707009,
      "user": "mircozorzo",
      "uid": 224342,
      "tags": {
        "amenity": "drinking_water"
      }
    },
    {
      "type": "node",
      "id": 6208505448,
      "lat": 39.8122302,
      "lon": 15.791261,
      "timestamp": "2019-01-14T18:40:43Z",
      "version": 1,
      "changeset": 66310887,
      "user": "luigix19x",
      "uid": 9331236,
      "tags": {
        "amenity": "drinking_water"
      }
    },
    {
      "type": "node",
      "id": 6219179906,
      "lat": 39.8076072,
      "lon": 15.795771,
      "timestamp": "2019-08-26T15:38:46Z",
      "version": 2,
      "changeset": 73760275,
      "user": "Vuzi",
      "uid": 8225083,
      "tags": {
        "addr:city": "Scalea",
        "addr:housenumber": "242",
        "addr:postcode": "87029",
        "addr:street": "Via Lauro",
        "name": "La Badessa",
        "shop": "convenience"
      }
    },
    {
      "type": "node",
      "id": 6276670791,
      "lat": 39.7651586,
      "lon": 15.8263982,
      "timestamp": "2019-02-13T14:31:49Z",
      "version": 1,
      "changeset": 67165210,
      "user": "DnaX",
      "uid": 69259,
      "tags": {
        "name": "Alvama",
        "shop": "supermarket"
      }
    },
    {
      "type": "node",
      "id": 6282570485,
      "lat": 39.4801547,
      "lon": 15.9951369,
      "timestamp": "2019-02-16T10:49:02Z",
      "version": 1,
      "changeset": 67250749,
      "user": "brk57",
      "uid": 2537662,
      "tags": {
        "amenity": "drinking_water",
        "man_made": "drinking_fountain"
      }
    },
    {
      "type": "node",
      "id": 6329045824,
      "lat": 39.8057543,
      "lon": 15.7963386,
      "timestamp": "2019-03-10T15:22:00Z",
      "version": 1,
      "changeset": 67991830,
      "user": "luigix19x",
      "uid": 9331236,
      "tags": {
        "amenity": "drinking_water"
      }
    },
    {
      "type": "node",
      "id": 6372252480,
      "lat": 39.3692095,
      "lon": 16.0454788,
      "timestamp": "2019-03-30T20:25:56Z",
      "version": 2,
      "changeset": 68708902,
      "user": "mircozorzo",
      "uid": 224342,
      "tags": {
        "amenity": "drinking_water"
      }
    },
    {
      "type": "node",
      "id": 6378430027,
      "lat": 39.6814597,
      "lon": 15.9208617,
      "timestamp": "2019-04-02T12:55:51Z",
      "version": 2,
      "changeset": 68792752,
      "user": "Vesuviano",
      "uid": 3343608,
      "tags": {
        "natural": "spring"
      }
    },
    {
      "type": "node",
      "id": 6378438750,
      "lat": 39.6132559,
      "lon": 15.9425069,
      "timestamp": "2019-04-02T12:55:51Z",
      "version": 2,
      "changeset": 68792752,
      "user": "Vesuviano",
      "uid": 3343608,
      "tags": {
        "natural": "spring"
      }
    },
    {
      "type": "node",
      "id": 6378443761,
      "lat": 39.6228701,
      "lon": 15.9439246,
      "timestamp": "2019-04-02T12:55:51Z",
      "version": 2,
      "changeset": 68792752,
      "user": "Vesuviano",
      "uid": 3343608,
      "tags": {
        "natural": "spring"
      }
    },
    {
      "type": "node",
      "id": 6378443762,
      "lat": 39.6197515,
      "lon": 15.9350109,
      "timestamp": "2019-04-02T12:55:51Z",
      "version": 2,
      "changeset": 68792752,
      "user": "Vesuviano",
      "uid": 3343608,
      "tags": {
        "natural": "spring"
      }
    },
    {
      "type": "node",
      "id": 6393322438,
      "lat": 39.8688797,
      "lon": 16.0732892,
      "timestamp": "2021-07-17T14:50:58Z",
      "version": 3,
      "changeset": 108163249,
      "user": "mcheck",
      "uid": 478872,
      "tags": {
        "name": "Campotenese",
        "place": "hamlet"
      }
    },
    {
      "type": "node",
      "id": 6415796925,
      "lat": 39.7952902,
      "lon": 15.7955018,
      "timestamp": "2019-04-19T08:57:54Z",
      "version": 1,
      "changeset": 69370001,
      "user": "giogi",
      "uid": 9644231,
      "tags": {
        "amenity": "drinking_water",
        "wheelchair": "limited"
      }
    },
    {
      "type": "node",
      "id": 6440635919,
      "lat": 39.7902347,
      "lon": 15.938374,
      "timestamp": "2020-09-10T15:14:28Z",
      "version": 3,
      "changeset": 90710508,
      "user": "mboesch",
      "uid": 148698,
      "tags": {
        "access": "yes",
        "amenity": "drinking_water",
        "fee": "no",
        "name": "Fontana Guaglianone",
        "wheelchair": "no"
      }
    },
    {
      "type": "node",
      "id": 6450819185,
      "lat": 39.8159569,
      "lon": 15.7888407,
      "timestamp": "2019-05-05T22:40:42Z",
      "version": 1,
      "changeset": 69917688,
      "user": "Anselmo Sangiovanni",
      "uid": 9551568,
      "tags": {
        "amenity": "drinking_water"
      }
    },
    {
      "type": "node",
      "id": 6450819248,
      "lat": 39.8140974,
      "lon": 15.7890904,
      "timestamp": "2019-05-06T10:11:22Z",
      "version": 2,
      "changeset": 69929669,
      "user": "Anselmo Sangiovanni",
      "uid": 9551568,
      "tags": {
        "amenity": "drinking_water"
      }
    },
    {
      "type": "node",
      "id": 6506434454,
      "lat": 39.7537616,
      "lon": 15.9139649,
      "timestamp": "2019-05-28T15:01:18Z",
      "version": 1,
      "changeset": 70700407,
      "user": "Zeno Kugy",
      "uid": 1666292,
      "tags": {
        "amenity": "drinking_water"
      }
    },
    {
      "type": "node",
      "id": 6655884385,
      "lat": 39.5556213,
      "lon": 15.9522825,
      "timestamp": "2021-03-26T20:26:17Z",
      "version": 2,
      "changeset": 101816076,
      "user": "GFS",
      "uid": 362065,
      "tags": {
        "name": "Sant'Angelo",
        "place": "village"
      }
    },
    {
      "type": "node",
      "id": 6703756570,
      "lat": 39.8042383,
      "lon": 16.0609383,
      "timestamp": "2019-08-12T17:53:01Z",
      "version": 1,
      "changeset": 73278308,
      "user": "Antonio M Fasulo",
      "uid": 629612,
      "tags": {
        "natural": "spring"
      }
    },
    {
      "type": "node",
      "id": 6710722728,
      "lat": 39.8005867,
      "lon": 15.9805552,
      "timestamp": "2020-09-13T20:14:31Z",
      "version": 2,
      "changeset": 90830290,
      "user": "mboesch",
      "uid": 148698,
      "tags": {
        "amenity": "drinking_water",
        "name": "Fonte Pantagnoli"
      }
    },
    {
      "type": "node",
      "id": 6966633926,
      "lat": 39.4029178,
      "lon": 16.1553617,
      "timestamp": "2019-11-11T14:17:33Z",
      "version": 1,
      "changeset": 76913991,
      "user": "DnaX",
      "uid": 69259,
      "tags": {
        "brand": "Conad",
        "brand:wikidata": "Q639075",
        "brand:wikipedia": "it:Conad",
        "name": "Conad",
        "shop": "supermarket"
      }
    },
    {
      "type": "node",
      "id": 7663779712,
      "lat": 39.801381,
      "lon": 15.798662,
      "timestamp": "2020-06-29T10:11:27Z",
      "version": 1,
      "changeset": 87287405,
      "user": "Eugene_C",
      "uid": 8868711,
      "tags": {
        "brand": "EuroSpin",
        "brand:wikidata": "Q1374674",
        "brand:wikipedia": "it:Eurospin",
        "name": "EuroSpin",
        "shop": "supermarket"
      }
    },
    {
      "type": "node",
      "id": 7783353029,
      "lat": 39.6804128,
      "lon": 15.9012051,
      "timestamp": "2020-08-04T09:01:41Z",
      "version": 1,
      "changeset": 88917940,
      "user": "Vesuviano",
      "uid": 3343608,
      "tags": {
        "name": "Acqua del Cisso",
        "natural": "spring"
      }
    },
    {
      "type": "node",
      "id": 7784027779,
      "lat": 39.74943,
      "lon": 15.9805091,
      "timestamp": "2020-08-04T12:28:08Z",
      "version": 1,
      "changeset": 88929098,
      "user": "Vesuviano",
      "uid": 3343608,
      "tags": {
        "natural": "spring"
      }
    },
    {
      "type": "node",
      "id": 7784079633,
      "lat": 39.7438507,
      "lon": 15.9790187,
      "timestamp": "2020-08-04T12:49:09Z",
      "version": 1,
      "changeset": 88930136,
      "user": "Vesuviano",
      "uid": 3343608,
      "tags": {
        "name": "Acqua di Jannuzzo",
        "natural": "spring"
      }
    },
    {
      "type": "node",
      "id": 7784403617,
      "lat": 39.7664803,
      "lon": 15.9855911,
      "timestamp": "2020-08-04T14:27:06Z",
      "version": 2,
      "changeset": 88934620,
      "user": "Vesuviano",
      "uid": 3343608,
      "tags": {
        "amenity": "shelter"
      }
    },
    {
      "type": "node",
      "id": 7885027191,
      "lat": 39.7832949,
      "lon": 15.9548939,
      "timestamp": "2020-09-07T20:09:04Z",
      "version": 1,
      "changeset": 90547717,
      "user": "mboesch",
      "uid": 148698,
      "tags": {
        "amenity": "drinking_water"
      }
    },
    {
      "type": "node",
      "id": 8565765520,
      "lat": 39.4771968,
      "lon": 15.9927478,
      "timestamp": "2021-03-26T20:26:17Z",
      "version": 1,
      "changeset": 101816076,
      "user": "GFS",
      "uid": 362065,
      "tags": {
        "name": "Terme Luigiane",
        "place": "village"
      }
    },
    {
      "type": "node",
      "id": 8565765521,
      "lat": 39.4713883,
      "lon": 15.9762221,
      "timestamp": "2021-03-26T20:26:17Z",
      "version": 1,
      "changeset": 101816076,
      "user": "GFS",
      "uid": 362065,
      "tags": {
        "name": "Pantana",
        "place": "village"
      }
    },
    {
      "type": "node",
      "id": 8807126116,
      "lat": 39.7090492,
      "lon": 15.9301287,
      "timestamp": "2021-06-05T15:03:35Z",
      "version": 1,
      "changeset": 105886006,
      "user": "DAN_b01",
      "uid": 13494791,
      "tags": {
        "natural": "spring"
      }
    },
    {
      "type": "node",
      "id": 9024940930,
      "lat": 39.9008682,
      "lon": 16.0996445,
      "timestamp": "2021-08-21T14:14:05Z",
      "version": 1,
      "changeset": 110030195,
      "user": "marcoberinger",
      "uid": 3621610,
      "tags": {
        "amenity": "drinking_water",
        "description": "Fonte"
      }
    },
    {
      "type": "node",
      "id": 9132560766,
      "lat": 39.5218021,
      "lon": 15.9306682,
      "timestamp": "2021-09-29T16:32:23Z",
      "version": 1,
      "changeset": 111876048,
      "user": "nummer28",
      "uid": 3234347,
      "tags": {
        "name": "Lido dei Pini",
        "tourism": "camp_site"
      }
    },
    {
      "type": "node",
      "id": 9165295260,
      "lat": 39.6764209,
      "lon": 15.822716,
      "timestamp": "2021-10-11T16:14:53Z",
      "version": 1,
      "changeset": 112381885,
      "user": "Nicola De Innocentis",
      "uid": 11291099,
      "tags": {
        "amenity": "drinking_water"
      }
    },
    {
      "type": "node",
      "id": 9170126559,
      "lat": 39.7143882,
      "lon": 15.8092159,
      "timestamp": "2021-10-17T16:51:03Z",
      "version": 2,
      "changeset": 112619904,
      "user": "deprado63",
      "uid": 2492702,
      "tags": {
        "name": "Alvama",
        "shop": "supermarket"
      }
    },
    {
      "type": "node",
      "id": 9503054536,
      "lat": 39.7939578,
      "lon": 15.9267639,
      "timestamp": "2022-02-13T17:38:06Z",
      "version": 1,
      "changeset": 117363318,
      "user": "aktivnutzer",
      "uid": 5378351,
      "tags": {
        "fee": "no",
        "natural": "spring",
        "source": "survey"
      }
    },
    {
      "type": "node",
      "id": 9504699087,
      "lat": 39.7974915,
      "lon": 15.9021159,
      "timestamp": "2022-02-14T12:35:25Z",
      "version": 1,
      "changeset": 117391898,
      "user": "aktivnutzer",
      "uid": 5378351,
      "tags": {
        "access": "yes",
        "amenity": "drinking_water",
        "bottle": "yes",
        "fee": "no",
        "wheelchair": "no"
      }
    },
    {
      "type": "node",
      "id": 9504704170,
      "lat": 39.7974891,
      "lon": 15.9021887,
      "timestamp": "2022-02-14T12:37:23Z",
      "version": 1,
      "changeset": 117391988,
      "user": "aktivnutzer",
      "uid": 5378351,
      "tags": {
        "amenity": "shelter"
      }
    },
    {
      "type": "node",
      "id": 9667346861,
      "lat": 39.5686277,
      "lon": 15.8730928,
      "timestamp": "2022-04-15T05:47:42Z",
      "version": 1,
      "changeset": 119736615,
      "user": "Đuro Jiří",
      "uid": 14617702,
      "tags": {
        "amenity": "drinking_water"
      }
    },
    {
      "type": "node",
      "id": 9667359250,
      "lat": 39.7540648,
      "lon": 15.8044879,
      "timestamp": "2022-04-15T05:50:32Z",
      "version": 1,
      "changeset": 119736665,
      "user": "Đuro Jiří",
      "uid": 14617702,
      "tags": {
        "amenity": "drinking_water"
      }
    },
    {
      "type": "node",
      "id": 9801304105,
      "lat": 39.7140504,
      "lon": 15.8107444,
      "timestamp": "2022-06-07T10:49:23Z",
      "version": 1,
      "changeset": 122066310,
      "user": "Mannivu",
      "uid": 1950277,
      "tags": {
        "name": "Cirella",
        "name:la": "Cerilli",
        "place": "village",
        "population": "697",
        "wikidata": "Q2118996",
        "wikipedia": "it:Cirella"
      }
    },
    {
      "type": "node",
      "id": 9873430910,
      "lat": 39.6865394,
      "lon": 15.820116,
      "timestamp": "2022-07-08T00:53:09Z",
      "version": 1,
      "changeset": 123339567,
      "user": "Đuro Jiří",
      "uid": 14617702,
      "tags": {
        "brand": "Spar",
        "name": "Eurospar",
        "shop": "supermarket"
      }
    },
    {
      "type": "way",
      "id": 105480784,
      "timestamp": "2019-10-12T17:24:36Z",
      "version": 2,
      "changeset": 75605812,
      "user": "deprado63",
      "uid": 2492702,
      "center": {
        "lat": 39.5205649,
        "lon": 15.933209
      },
      "nodes": [],
      "tags": {
        "addr:housenumber": "1",
        "addr:street": "Via Lung Aron",
        "building": "yes",
        "name": "Lidl",
        "shop": "supermarket"
      }
    },
    {
      "type": "way",
      "id": 215225552,
      "timestamp": "2018-06-07T08:49:09Z",
      "version": 4,
      "changeset": 59628800,
      "user": "DnaX",
      "uid": 69259,
      "center": {
        "lat": 39.8416307,
        "lon": 15.7845678
      },
      "nodes": [],
      "tags": {
        "landuse": "residential",
        "name": "San Nicola Arcella",
        "place": "village"
      }
    },
    {
      "type": "way",
      "id": 300929781,
      "timestamp": "2014-08-30T12:46:22Z",
      "version": 1,
      "changeset": 25117223,
      "user": "DnaX",
      "uid": 69259,
      "center": {
        "lat": 39.4444063,
        "lon": 15.9975933
      },
      "nodes": [],
      "tags": {
        "name": "Camping Lago",
        "tourism": "camp_site"
      }
    },
    {
      "type": "way",
      "id": 364879789,
      "timestamp": "2018-05-05T08:32:14Z",
      "version": 6,
      "changeset": 58701363,
      "user": "KaTaverna",
      "uid": 8202947,
      "center": {
        "lat": 39.7741798,
        "lon": 16.0840707
      },
      "nodes": [],
      "tags": {
        "addr:city": "Lungro",
        "addr:postcode": "87010",
        "addr:street": "Piano Campolongo",
        "building": "yes",
        "ele": "1350",
        "internet_access": "no",
        "name": "Rifugio Campolongo",
        "operator": "Comune di Lungro",
        "tourism": "alpine_hut"
      }
    },
    {
      "type": "way",
      "id": 369573356,
      "timestamp": "2018-07-24T18:45:30Z",
      "version": 2,
      "changeset": 61033690,
      "user": "mdx76",
      "uid": 616103,
      "center": {
        "lat": 39.8013112,
        "lon": 15.9576284
      },
      "nodes": [],
      "tags": {
        "name": "Rifugio Povera Mosca",
        "tourism": "alpine_hut"
      }
    },
    {
      "type": "way",
      "id": 426043791,
      "timestamp": "2018-07-24T15:08:24Z",
      "version": 2,
      "changeset": 61027635,
      "user": "mdx76",
      "uid": 616103,
      "center": {
        "lat": 39.804059,
        "lon": 16.0411847
      },
      "nodes": [],
      "tags": {
        "building": "yes",
        "name": "Rifugio Afor",
        "tourism": "alpine_hut"
      }
    },
    {
      "type": "way",
      "id": 473992587,
      "timestamp": "2018-07-29T16:20:49Z",
      "version": 5,
      "changeset": 61168254,
      "user": "Pino Navato",
      "uid": 8152307,
      "center": {
        "lat": 39.8045562,
        "lon": 15.8012095
      },
      "nodes": [],
      "tags": {
        "addr:city": "Scalea",
        "addr:postcode": "87029",
        "addr:street": "Via del Mulino",
        "building": "yes",
        "name": "Conad",
        "opening_hours": "Mo-Su 08:30-20:30",
        "payment:cash": "yes",
        "payment:coins": "yes",
        "payment:credit_cards": "yes",
        "payment:debit_cards": "yes",
        "shop": "supermarket"
      }
    },
    {
      "type": "way",
      "id": 474053893,
      "timestamp": "2017-02-11T20:43:52Z",
      "version": 1,
      "changeset": 46006735,
      "user": "SergioESP",
      "uid": 5188845,
      "center": {
        "lat": 39.7977602,
        "lon": 15.7987497
      },
      "nodes": [],
      "tags": {
        "addr:city": "Scalea",
        "addr:housenumber": "311",
        "addr:postcode": "87029",
        "addr:street": "Via Lauro",
        "building": "yes",
        "name": "ESSEDUE Supermercato",
        "shop": "supermarket"
      }
    },
    {
      "type": "way",
      "id": 474233395,
      "timestamp": "2019-06-23T05:01:42Z",
      "version": 6,
      "changeset": 71523140,
      "user": "Dmitry Beketov",
      "uid": 9863982,
      "center": {
        "lat": 39.8063154,
        "lon": 15.7951565
      },
      "nodes": [],
      "tags": {
        "addr:city": "Scalea",
        "addr:postcode": "87029",
        "addr:street": "Via Fiume Lao",
        "building": "yes",
        "building:levels": "2",
        "name": "Interspar",
        "opening_hours": "Mo-Su 08:00-13:30, 16:30-21:00",
        "payment:cash": "yes",
        "payment:credit_cards": "yes",
        "payment:debit_cards": "yes",
        "shop": "supermarket"
      }
    },
    {
      "type": "way",
      "id": 487234051,
      "timestamp": "2018-07-24T12:19:04Z",
      "version": 2,
      "changeset": 61021159,
      "user": "mdx76",
      "uid": 616103,
      "center": {
        "lat": 39.7278828,
        "lon": 16.0196444
      },
      "nodes": [],
      "tags": {
        "building": "yes",
        "ele": "1352",
        "name": "Rifugio Piano di Lanzo",
        "tourism": "alpine_hut"
      }
    },
    {
      "type": "way",
      "id": 585917539,
      "timestamp": "2018-05-05T13:50:57Z",
      "version": 1,
      "changeset": 58707881,
      "user": "Vuzi",
      "uid": 8225083,
      "center": {
        "lat": 39.7999882,
        "lon": 15.7949799
      },
      "nodes": [],
      "tags": {
        "addr:city": "Scalea",
        "addr:postcode": "87029",
        "addr:street": "Via Fiume Lao",
        "building": "yes",
        "name": "MD Discount",
        "payment:cash": "yes",
        "payment:credit_cards": "yes",
        "payment:debit_cards": "yes",
        "shop": "supermarket"
      }
    },
    {
      "type": "way",
      "id": 594956484,
      "timestamp": "2018-06-07T08:49:08Z",
      "version": 1,
      "changeset": 59628800,
      "user": "DnaX",
      "uid": 69259,
      "center": {
        "lat": 39.8383176,
        "lon": 15.7931778
      },
      "nodes": [],
      "tags": {
        "building": "yes",
        "name": "Decò",
        "shop": "supermarket"
      }
    },
    {
      "type": "way",
      "id": 610561274,
      "timestamp": "2018-07-24T15:08:22Z",
      "version": 1,
      "changeset": 61027635,
      "user": "mdx76",
      "uid": 616103,
      "center": {
        "lat": 39.8057211,
        "lon": 16.086486
      },
      "nodes": [],
      "tags": {
        "building": "yes",
        "name": "Rifugio Caramolo",
        "tourism": "alpine_hut"
      }
    },
    {
      "type": "way",
      "id": 610561276,
      "timestamp": "2018-07-24T15:08:22Z",
      "version": 1,
      "changeset": 61027635,
      "user": "mdx76",
      "uid": 616103,
      "center": {
        "lat": 39.7884914,
        "lon": 16.0232464
      },
      "nodes": [],
      "tags": {
        "building": "yes",
        "name": "Rifugio Mare Piccolo",
        "tourism": "alpine_hut"
      }
    },
    {
      "type": "way",
      "id": 610613105,
      "timestamp": "2018-07-24T18:45:29Z",
      "version": 1,
      "changeset": 61033690,
      "user": "mdx76",
      "uid": 616103,
      "center": {
        "lat": 39.7635711,
        "lon": 15.9527971
      },
      "nodes": [],
      "tags": {
        "building": "yes",
        "name": "Bivacco Bocca del Monte",
        "tourism": "wilderness_hut"
      }
    },
    {
      "type": "way",
      "id": 612950785,
      "timestamp": "2018-08-09T15:20:56Z",
      "version": 2,
      "changeset": 61504878,
      "user": "user_5359",
      "uid": 5359,
      "center": {
        "lat": 39.3717172,
        "lon": 16.0283765
      },
      "nodes": [],
      "tags": {
        "building": "yes",
        "name": "Interspar",
        "shop": "supermarket"
      }
    },
    {
      "type": "way",
      "id": 628777887,
      "timestamp": "2018-09-28T10:43:24Z",
      "version": 1,
      "changeset": 63004788,
      "user": "DnaX",
      "uid": 69259,
      "center": {
        "lat": 39.7906232,
        "lon": 15.7928862
      },
      "nodes": [],
      "tags": {
        "name": "Camping Moby Dick",
        "tourism": "camp_site"
      }
    },
    {
      "type": "way",
      "id": 628777888,
      "timestamp": "2018-09-28T10:43:24Z",
      "version": 1,
      "changeset": 63004788,
      "user": "DnaX",
      "uid": 69259,
      "center": {
        "lat": 39.7884208,
        "lon": 15.7932651
      },
      "nodes": [],
      "tags": {
        "name": "Il Gabbiano",
        "tourism": "camp_site"
      }
    },
    {
      "type": "way",
      "id": 628778136,
      "timestamp": "2018-09-28T10:46:02Z",
      "version": 1,
      "changeset": 63004844,
      "user": "DnaX",
      "uid": 69259,
      "center": {
        "lat": 39.783166,
        "lon": 15.7944638
      },
      "nodes": [],
      "tags": {
        "tourism": "camp_site"
      }
    },
    {
      "type": "way",
      "id": 628781312,
      "timestamp": "2018-09-28T11:13:03Z",
      "version": 1,
      "changeset": 63005504,
      "user": "DnaX",
      "uid": 69259,
      "center": {
        "lat": 39.7290677,
        "lon": 15.8100991
      },
      "nodes": [],
      "tags": {
        "name": "Cirella",
        "tourism": "camp_site"
      }
    },
    {
      "type": "way",
      "id": 662078947,
      "timestamp": "2019-01-10T14:11:44Z",
      "version": 1,
      "changeset": 66197254,
      "user": "DnaX",
      "uid": 69259,
      "center": {
        "lat": 39.8812456,
        "lon": 15.7865914
      },
      "nodes": [],
      "tags": {
        "name": "International Camping Village",
        "tourism": "camp_site"
      }
    },
    {
      "type": "way",
      "id": 670960813,
      "timestamp": "2019-02-16T18:16:26Z",
      "version": 1,
      "changeset": 67259599,
      "user": "brk57",
      "uid": 2537662,
      "center": {
        "lat": 39.4788187,
        "lon": 15.9943579
      },
      "nodes": [],
      "tags": {
        "name": "Alimentari e Diversi",
        "shop": "convenience"
      }
    },
    {
      "type": "way",
      "id": 739795414,
      "timestamp": "2019-10-29T12:39:51Z",
      "version": 1,
      "changeset": 76343802,
      "user": "DnaX",
      "uid": 69259,
      "center": {
        "lat": 39.6170484,
        "lon": 15.8571802
      },
      "nodes": [],
      "tags": {
        "brand": "EuroSpin",
        "brand:wikidata": "Q1374674",
        "brand:wikipedia": "it:Eurospin",
        "building": "yes",
        "name": "EuroSpin",
        "shop": "supermarket"
      }
    },
    {
      "type": "way",
      "id": 1027390045,
      "timestamp": "2022-02-07T16:39:40Z",
      "version": 2,
      "changeset": 117127054,
      "user": "Davos1997",
      "uid": 14992675,
      "center": {
        "lat": 39.3826387,
        "lon": 16.0268336
      },
      "nodes": [],
      "tags": {
        "brand": "Conad",
        "brand:wikidata": "Q639075",
        "brand:wikipedia": "it:Conad",
        "building": "yes",
        "name": "Conad",
        "shop": "supermarket"
      }
    },
    {
      "type": "way",
      "id": 1039118536,
      "timestamp": "2022-07-08T00:53:09Z",
      "version": 3,
      "changeset": 123339567,
      "user": "Đuro Jiří",
      "uid": 14617702,
      "center": {
        "lat": 39.6900623,
        "lon": 15.8184564
      },
      "nodes": [],
      "tags": {
        "brand": "Conad",
        "building": "yes",
        "contact:phone": "+39 20802625",
        "contact:website": "https://www.conad.it/ricerca-negozi/conad-strada-statale-18-snc-87023--diamante--010227",
        "name": "Conad",
        "opening_hours": "Mo-Su 08:00-21:00",
        "shop": "supermarket"
      }
    }
  ]
}