{
  "osm3s": {
    "timestamp_osm_date": "2021-12-18T23:59:59Z",
    "timestamp_osm_base": "2021-12-19T05:02:07Z",
    "copyright": "The data included in this document is from www.openstreetmap.org. The data is made available under ODbL."
  },
  "elements": [
    {
      "type": "node",
      "id": 26859420,
      "lat": 38.7085884,
      "lon": 15.9716442,
      "timestamp": "2013-02-02T14:44:42Z",
      "version": 4,
      "changeset": 14884039,
      "user": "fair",
      "uid": 977303,
      "tags": {
        "name": "Calabriano",
        "phone": "+39 0963 392096",
        "tourism": "camp_site"
      }
    },
    {
      "type": "node",
      "id": 26859466,
      "lat": 38.638333,
      "lon": 15.834722,
      "timestamp": "2013-02-02T14:57:43Z",
      "version": 3,
      "changeset": 14884039,
      "user": "fair",
      "uid": 977303,
      "tags": {
        "name": "Costa Verde",
        "phone": "+39 0963 663090",
        "tourism": "camp_site"
      }
    },
    {
      "type": "node",
      "id": 26859641,
      "lat": 38.511389,
      "lon": 15.921944,
      "timestamp": "2013-02-02T15:20:27Z",
      "version": 3,
      "changeset": 14884039,
      "user": "fair",
      "uid": 977303,
      "tags": {
        "name": "Mimosa",
        "phone": "+39 0963 81397",
        "tourism": "camp_site"
      }
    },
    {
      "type": "node",
      "id": 26859776,
      "lat": 38.391944,
      "lon": 15.865556,
      "timestamp": "2013-02-02T15:48:27Z",
      "version": 3,
      "changeset": 14884908,
      "user": "fair",
      "uid": 977303,
      "tags": {
        "name": "San Fantino",
        "phone": "+39 0966 479729",
        "tourism": "camp_site"
      }
    },
    {
      "type": "node",
      "id": 26859794,
      "lat": 38.6264753,
      "lon": 15.8292916,
      "timestamp": "2014-04-28T08:51:19Z",
      "version": 4,
      "changeset": 21996452,
      "user": "dgitto",
      "uid": 554973,
      "tags": {
        "name": "La Scogliera",
        "phone": "+39 0963 663002",
        "tourism": "camp_site"
      }
    },
    {
      "type": "node",
      "id": 26859845,
      "lat": 38.643192,
      "lon": 15.837524,
      "timestamp": "2014-05-20T17:34:19Z",
      "version": 2,
      "changeset": 22450910,
      "user": "mcheckimport",
      "uid": 893327,
      "tags": {
        "name": "Torre Ruff",
        "tourism": "camp_site"
      }
    },
    {
      "type": "node",
      "id": 67275040,
      "lat": 38.505477,
      "lon": 16.086298,
      "timestamp": "2016-08-28T18:58:15Z",
      "version": 2,
      "changeset": 41762146,
      "user": "fayor",
      "uid": 743479,
      "tags": {
        "gfoss_id": "6739",
        "name": "Candidoni",
        "place": "village",
        "population": "410",
        "source": "geodati.gfoss.it"
      }
    },
    {
      "type": "node",
      "id": 67275067,
      "lat": 38.415957,
      "lon": 16.0974291,
      "timestamp": "2016-08-28T18:58:20Z",
      "version": 4,
      "changeset": 41762146,
      "user": "fayor",
      "uid": 743479,
      "tags": {
        "gfoss_id": "6747",
        "name": "Cinquefrondi",
        "place": "village",
        "population": "6461",
        "source": "geodati.gfoss.it"
      }
    },
    {
      "type": "node",
      "id": 67275090,
      "lat": 38.4597403,
      "lon": 16.1107772,
      "timestamp": "2016-08-28T18:58:25Z",
      "version": 3,
      "changeset": 41762146,
      "user": "fayor",
      "uid": 743479,
      "tags": {
        "gfoss_id": "6755",
        "name": "Galatro",
        "place": "village",
        "population": "2307",
        "source": "geodati.gfoss.it"
      }
    },
    {
      "type": "node",
      "id": 67275103,
      "lat": 38.465776,
      "lon": 16.064198,
      "timestamp": "2016-08-28T18:58:23Z",
      "version": 2,
      "changeset": 41762146,
      "user": "fayor",
      "uid": 743479,
      "tags": {
        "gfoss_id": "6752",
        "name": "Feroleto della Chiesa",
        "place": "village",
        "population": "1872",
        "source": "geodati.gfoss.it"
      }
    },
    {
      "type": "node",
      "id": 67275229,
      "lat": 38.4361921,
      "lon": 16.0806328,
      "timestamp": "2017-02-04T17:57:55Z",
      "version": 4,
      "changeset": 45811510,
      "user": "giosper",
      "uid": 1209528,
      "tags": {
        "gfoss_id": "6723",
        "name": "Anoia",
        "place": "village",
        "population": "2378",
        "source": "geodati.gfoss.it"
      }
    },
    {
      "type": "node",
      "id": 67275283,
      "lat": 38.3350926,
      "lon": 15.8712547,
      "timestamp": "2016-08-28T18:58:48Z",
      "version": 3,
      "changeset": 41762146,
      "user": "fayor",
      "uid": 743479,
      "tags": {
        "gfoss_id": "6806",
        "name": "Seminara",
        "place": "village",
        "population": "3352",
        "source": "geodati.gfoss.it"
      }
    },
    {
      "type": "node",
      "id": 67275323,
      "lat": 38.317073,
      "lon": 15.984398,
      "timestamp": "2016-08-28T18:58:52Z",
      "version": 2,
      "changeset": 41762146,
      "user": "fayor",
      "uid": 743479,
      "tags": {
        "gfoss_id": "6815",
        "name": "Varapodio",
        "place": "village",
        "population": "2329",
        "source": "geodati.gfoss.it"
      }
    },
    {
      "type": "node",
      "id": 67275336,
      "lat": 38.3550541,
      "lon": 16.0147781,
      "timestamp": "2016-10-27T19:01:57Z",
      "version": 6,
      "changeset": 43226010,
      "user": "calfarome",
      "uid": 2511706,
      "tags": {
        "gfoss_id": "6813",
        "name": "Taurianova",
        "place": "town",
        "population": "15636",
        "source": "geodati.gfoss.it",
        "wikidata": "Q54682"
      }
    },
    {
      "type": "node",
      "id": 67275363,
      "lat": 38.423974,
      "lon": 15.898995,
      "timestamp": "2016-10-27T19:02:49Z",
      "version": 5,
      "changeset": 43226039,
      "user": "calfarome",
      "uid": 2511706,
      "tags": {
        "gfoss_id": "6758",
        "name": "Gioia Tauro",
        "place": "town",
        "population": "19864",
        "short_name": "Gioia",
        "source": "geodati.gfoss.it",
        "wikidata": "Q54614"
      }
    },
    {
      "type": "node",
      "id": 67275384,
      "lat": 38.492577,
      "lon": 16.082098,
      "timestamp": "2016-08-28T18:58:28Z",
      "version": 2,
      "changeset": 41762146,
      "user": "fayor",
      "uid": 743479,
      "tags": {
        "gfoss_id": "6762",
        "name": "Laureana di Borrello",
        "place": "village",
        "population": "5709",
        "source": "geodati.gfoss.it"
      }
    },
    {
      "type": "node",
      "id": 67275396,
      "lat": 38.303772,
      "lon": 15.881296,
      "timestamp": "2016-08-28T18:58:31Z",
      "version": 2,
      "changeset": 41762146,
      "user": "fayor",
      "uid": 743479,
      "tags": {
        "gfoss_id": "6768",
        "name": "Melicuccà",
        "place": "village",
        "population": "1079",
        "source": "geodati.gfoss.it"
      }
    },
    {
      "type": "node",
      "id": 67275403,
      "lat": 38.4337129,
      "lon": 16.0604715,
      "timestamp": "2016-08-28T18:58:31Z",
      "version": 7,
      "changeset": 41762146,
      "user": "fayor",
      "uid": 743479,
      "tags": {
        "gfoss_id": "6769",
        "name": "Melicucco",
        "place": "village",
        "population": "4996",
        "source": "geodati.gfoss.it"
      }
    },
    {
      "type": "node",
      "id": 67275413,
      "lat": 38.3084453,
      "lon": 16.0318619,
      "timestamp": "2016-08-28T18:58:32Z",
      "version": 3,
      "changeset": 41762146,
      "user": "fayor",
      "uid": 743479,
      "tags": {
        "gfoss_id": "6771",
        "name": "Molochio",
        "place": "village",
        "population": "2803",
        "source": "geodati.gfoss.it"
      }
    },
    {
      "type": "node",
      "id": 67275435,
      "lat": 38.3574488,
      "lon": 15.8465649,
      "timestamp": "2020-12-28T11:30:45Z",
      "version": 11,
      "changeset": 96531890,
      "user": "Alecs01",
      "uid": 1476146,
      "tags": {
        "gfoss_id": "6777",
        "name": "Palmi",
        "place": "town",
        "population": "18930",
        "source": "geodati.gfoss.it",
        "wikidata": "Q54633"
      }
    },
    {
      "type": "node",
      "id": 67275478,
      "lat": 38.4872833,
      "lon": 15.9764948,
      "timestamp": "2016-09-09T00:49:48Z",
      "version": 7,
      "changeset": 42015514,
      "user": "fayor",
      "uid": 743479,
      "tags": {
        "gfoss_id": "6789",
        "name": "Rosarno",
        "place": "town",
        "population": "14841",
        "source": "geodati.gfoss.it"
      }
    },
    {
      "type": "node",
      "id": 67275502,
      "lat": 38.2935931,
      "lon": 15.9841395,
      "timestamp": "2016-08-28T18:58:34Z",
      "version": 5,
      "changeset": 41762146,
      "user": "fayor",
      "uid": 743479,
      "tags": {
        "gfoss_id": "6775",
        "name": "Oppido Mamertina",
        "place": "village",
        "population": "5559",
        "source": "geodati.gfoss.it"
      }
    },
    {
      "type": "node",
      "id": 67275525,
      "lat": 38.4406316,
      "lon": 16.0991609,
      "timestamp": "2017-02-18T18:40:25Z",
      "version": 3,
      "changeset": 46199305,
      "user": "giosper",
      "uid": 1209528,
      "tags": {
        "gfoss_id": "6766",
        "name": "Maropati",
        "place": "village",
        "population": "1736",
        "source": "geodati.gfoss.it"
      }
    },
    {
      "type": "node",
      "id": 67275547,
      "lat": 38.281172,
      "lon": 15.890397,
      "timestamp": "2016-08-28T18:58:45Z",
      "version": 2,
      "changeset": 41762146,
      "user": "fayor",
      "uid": 743479,
      "tags": {
        "gfoss_id": "6796",
        "name": "San Procopio",
        "place": "village",
        "population": "617",
        "source": "geodati.gfoss.it"
      }
    },
    {
      "type": "node",
      "id": 67275561,
      "lat": 38.523678,
      "lon": 16.135299,
      "timestamp": "2016-08-28T18:58:44Z",
      "version": 2,
      "changeset": 41762146,
      "user": "fayor",
      "uid": 743479,
      "tags": {
        "gfoss_id": "6795",
        "name": "San Pietro di Caridà",
        "place": "village",
        "population": "1715",
        "source": "geodati.gfoss.it"
      }
    },
    {
      "type": "node",
      "id": 67275570,
      "lat": 38.3869584,
      "lon": 16.1081645,
      "timestamp": "2016-08-28T18:58:43Z",
      "version": 4,
      "changeset": 41762146,
      "user": "fayor",
      "uid": 743479,
      "tags": {
        "gfoss_id": "6791",
        "name": "San Giorgio Morgeto",
        "place": "village",
        "population": "3384",
        "source": "geodati.gfoss.it"
      }
    },
    {
      "type": "node",
      "id": 67275591,
      "lat": 38.4119961,
      "lon": 15.9592404,
      "timestamp": "2021-03-31T04:15:36Z",
      "version": 3,
      "changeset": 102020169,
      "user": "dgitto",
      "uid": 554973,
      "tags": {
        "gfoss_id": "6785",
        "name": "Rizziconi",
        "place": "village",
        "population": "7650",
        "source": "geodati.gfoss.it"
      }
    },
    {
      "type": "node",
      "id": 67275626,
      "lat": 38.4065094,
      "lon": 16.0774549,
      "timestamp": "2016-09-09T00:49:47Z",
      "version": 8,
      "changeset": 42015514,
      "user": "fayor",
      "uid": 743479,
      "tags": {
        "gfoss_id": "6781",
        "name": "Polistena",
        "place": "town",
        "population": "10496",
        "source": "geodati.gfoss.it"
      }
    },
    {
      "type": "node",
      "id": 67275672,
      "lat": 38.288471,
      "lon": 15.807795,
      "timestamp": "2016-09-09T00:49:36Z",
      "version": 3,
      "changeset": 42015514,
      "user": "fayor",
      "uid": 743479,
      "tags": {
        "gfoss_id": "6727",
        "name": "Bagnara Calabra",
        "place": "town",
        "population": "10255",
        "source": "geodati.gfoss.it"
      }
    },
    {
      "type": "node",
      "id": 67275700,
      "lat": 38.438176,
      "lon": 16.15,
      "timestamp": "2016-08-28T18:58:26Z",
      "version": 2,
      "changeset": 41762146,
      "user": "fayor",
      "uid": 743479,
      "tags": {
        "gfoss_id": "6757",
        "name": "Giffone",
        "place": "village",
        "population": "2182",
        "source": "geodati.gfoss.it"
      }
    },
    {
      "type": "node",
      "id": 67275715,
      "lat": 38.275372,
      "lon": 15.927997,
      "timestamp": "2016-08-28T18:58:21Z",
      "version": 2,
      "changeset": 41762146,
      "user": "fayor",
      "uid": 743479,
      "tags": {
        "gfoss_id": "6750",
        "name": "Cosoleto",
        "place": "village",
        "population": "976",
        "source": "geodati.gfoss.it"
      }
    },
    {
      "type": "node",
      "id": 67275734,
      "lat": 38.353949,
      "lon": 16.0806025,
      "timestamp": "2021-10-01T10:31:09Z",
      "version": 5,
      "changeset": 111956829,
      "user": "polfra",
      "uid": 1932714,
      "tags": {
        "gfoss_id": "6748",
        "link": "http://www.cittanovaonline.it",
        "name": "Cittanova",
        "place": "town",
        "population": "9.943",
        "source": "geodati.gfoss.it;Istat"
      }
    },
    {
      "type": "node",
      "id": 67275755,
      "lat": 38.6254828,
      "lon": 15.8664301,
      "timestamp": "2016-09-05T07:04:06Z",
      "version": 3,
      "changeset": 41922715,
      "user": "NezzyNet",
      "uid": 4530553,
      "tags": {
        "gfoss_id": "8004",
        "name": "Ricadi",
        "place": "village",
        "population": "4429",
        "source": "geodati.gfoss.it"
      }
    },
    {
      "type": "node",
      "id": 67275757,
      "lat": 38.554577,
      "lon": 15.936695,
      "timestamp": "2016-08-28T18:58:34Z",
      "version": 2,
      "changeset": 41762146,
      "user": "fayor",
      "uid": 743479,
      "tags": {
        "gfoss_id": "7999",
        "name": "Nicotera",
        "place": "village",
        "population": "6778",
        "source": "geodati.gfoss.it"
      }
    },
    {
      "type": "node",
      "id": 67275778,
      "lat": 38.615679,
      "lon": 16.099297,
      "timestamp": "2016-08-28T18:58:25Z",
      "version": 2,
      "changeset": 41762146,
      "user": "fayor",
      "uid": 743479,
      "tags": {
        "gfoss_id": "7989",
        "name": "Francica",
        "place": "village",
        "population": "1670",
        "source": "geodati.gfoss.it"
      }
    },
    {
      "type": "node",
      "id": 67275790,
      "lat": 38.675379,
      "lon": 15.894792,
      "timestamp": "2016-08-28T18:58:52Z",
      "version": 2,
      "changeset": 41762146,
      "user": "fayor",
      "uid": 743479,
      "tags": {
        "gfoss_id": "8018",
        "name": "Tropea",
        "place": "village",
        "population": "6836",
        "source": "geodati.gfoss.it"
      }
    },
    {
      "type": "node",
      "id": 67275792,
      "lat": 38.677881,
      "lon": 16.124197,
      "timestamp": "2016-08-28T18:58:50Z",
      "version": 2,
      "changeset": 41762146,
      "user": "fayor",
      "uid": 743479,
      "tags": {
        "gfoss_id": "8017",
        "name": "Stefanaconi",
        "place": "village",
        "population": "2497",
        "source": "geodati.gfoss.it"
      }
    },
    {
      "type": "node",
      "id": 67275796,
      "lat": 38.6423342,
      "lon": 16.1019759,
      "timestamp": "2019-09-18T17:10:10Z",
      "version": 3,
      "changeset": 74638127,
      "user": "pikappa79",
      "uid": 330007,
      "tags": {
        "gfoss_id": "8008",
        "name": "San Gregorio d'Ippona",
        "place": "village",
        "population": "2338",
        "source": "geodati.gfoss.it"
      }
    },
    {
      "type": "node",
      "id": 67275798,
      "lat": 38.575578,
      "lon": 16.020296,
      "timestamp": "2016-08-28T18:58:42Z",
      "version": 2,
      "changeset": 41762146,
      "user": "fayor",
      "uid": 743479,
      "tags": {
        "gfoss_id": "8006",
        "name": "San Calogero",
        "place": "village",
        "population": "4649",
        "source": "geodati.gfoss.it"
      }
    },
    {
      "type": "node",
      "id": 67275815,
      "lat": 38.694981,
      "lon": 16.144097,
      "timestamp": "2016-08-28T18:58:46Z",
      "version": 2,
      "changeset": 41762146,
      "user": "fayor",
      "uid": 743479,
      "tags": {
        "gfoss_id": "8010",
        "name": "Sant'Onofrio",
        "place": "village",
        "population": "3238",
        "source": "geodati.gfoss.it"
      }
    },
    {
      "type": "node",
      "id": 67275825,
      "lat": 38.512877,
      "lon": 16.100699,
      "timestamp": "2016-08-28T18:58:48Z",
      "version": 2,
      "changeset": 41762146,
      "user": "fayor",
      "uid": 743479,
      "tags": {
        "gfoss_id": "6807",
        "name": "Serrata",
        "place": "village",
        "population": "964",
        "source": "geodati.gfoss.it"
      }
    },
    {
      "type": "node",
      "id": 67275842,
      "lat": 38.322673,
      "lon": 16.007499,
      "timestamp": "2016-08-28T18:58:50Z",
      "version": 2,
      "changeset": 41762146,
      "user": "fayor",
      "uid": 743479,
      "tags": {
        "gfoss_id": "6814",
        "name": "Terranova Sappo Minulio",
        "place": "village",
        "population": "537",
        "source": "geodati.gfoss.it"
      }
    },
    {
      "type": "node",
      "id": 67275856,
      "lat": 38.4831702,
      "lon": 15.9162707,
      "timestamp": "2016-08-28T18:58:42Z",
      "version": 3,
      "changeset": 41762146,
      "user": "fayor",
      "uid": 743479,
      "tags": {
        "gfoss_id": "6817",
        "name": "San Ferdinando",
        "place": "village",
        "population": "4339",
        "source": "geodati.gfoss.it"
      }
    },
    {
      "type": "node",
      "id": 67275906,
      "lat": 38.5277757,
      "lon": 16.1479581,
      "timestamp": "2016-08-28T18:58:22Z",
      "version": 5,
      "changeset": 41762146,
      "user": "fayor",
      "uid": 743479,
      "tags": {
        "gfoss_id": "7982",
        "name": "Dinami",
        "place": "village",
        "population": "3544",
        "source": "geodati.gfoss.it"
      }
    },
    {
      "type": "node",
      "id": 67275916,
      "lat": 38.6645238,
      "lon": 15.9103631,
      "timestamp": "2019-01-10T14:15:33Z",
      "version": 6,
      "changeset": 66197345,
      "user": "aza_thoth",
      "uid": 7640790,
      "tags": {
        "gfoss_id": "7983",
        "name": "Drapia",
        "place": "village",
        "population": "2193",
        "ref": "https://en.wikipedia.org/wiki/Drapia",
        "source": "geodati.gfoss.it",
        "wikidata": "Q54705",
        "wikipedia": "it:Drapia"
      }
    },
    {
      "type": "node",
      "id": 67275933,
      "lat": 38.615079,
      "lon": 16.031396,
      "timestamp": "2016-08-28T18:58:24Z",
      "version": 2,
      "changeset": 41762146,
      "user": "fayor",
      "uid": 743479,
      "tags": {
        "gfoss_id": "7986",
        "name": "Filandari",
        "place": "village",
        "population": "1839",
        "source": "geodati.gfoss.it"
      }
    },
    {
      "type": "node",
      "id": 67275944,
      "lat": 38.629879,
      "lon": 16.060996,
      "timestamp": "2020-04-04T20:46:49Z",
      "version": 3,
      "changeset": 83082964,
      "user": "Edward",
      "uid": 364,
      "tags": {
        "gfoss_id": "7991",
        "name": "Jonadi",
        "place": "village",
        "population": "2662",
        "source": "geodati.gfoss.it",
        "wikidata": "Q30026431"
      }
    },
    {
      "type": "node",
      "id": 67275955,
      "lat": 38.725981,
      "lon": 16.032895,
      "timestamp": "2016-08-28T18:58:13Z",
      "version": 2,
      "changeset": 41762146,
      "user": "fayor",
      "uid": 743479,
      "tags": {
        "gfoss_id": "7977",
        "name": "Briatico",
        "place": "village",
        "population": "4106",
        "source": "geodati.gfoss.it"
      }
    },
    {
      "type": "node",
      "id": 67275984,
      "lat": 38.591778,
      "lon": 16.001696,
      "timestamp": "2016-08-28T18:58:40Z",
      "version": 2,
      "changeset": 41762146,
      "user": "fayor",
      "uid": 743479,
      "tags": {
        "gfoss_id": "8005",
        "name": "Rombiolo",
        "place": "village",
        "population": "4730",
        "source": "geodati.gfoss.it"
      }
    },
    {
      "type": "node",
      "id": 67275990,
      "lat": 38.632279,
      "lon": 16.073897,
      "timestamp": "2016-08-28T18:58:42Z",
      "version": 2,
      "changeset": 41762146,
      "user": "fayor",
      "uid": 743479,
      "tags": {
        "gfoss_id": "8007",
        "name": "San Costantino Calabro",
        "place": "village",
        "population": "2308",
        "source": "geodati.gfoss.it"
      }
    },
    {
      "type": "node",
      "id": 67276003,
      "lat": 38.6284125,
      "lon": 15.9061776,
      "timestamp": "2017-06-04T14:40:35Z",
      "version": 3,
      "changeset": 49244145,
      "user": "dgitto",
      "uid": 554973,
      "tags": {
        "gfoss_id": "8016",
        "name": "Spilinga",
        "place": "village",
        "population": "1609",
        "source": "geodati.gfoss.it"
      }
    },
    {
      "type": "node",
      "id": 67276014,
      "lat": 38.7354356,
      "lon": 16.1620851,
      "timestamp": "2016-09-09T00:49:47Z",
      "version": 4,
      "changeset": 42015514,
      "user": "fayor",
      "uid": 743479,
      "tags": {
        "alt_name": "Pizzo Calabro",
        "gfoss_id": "8001",
        "name": "Pizzo",
        "place": "village",
        "population": "9278",
        "source": "geodati.gfoss.it"
      }
    },
    {
      "type": "node",
      "id": 67276017,
      "lat": 38.6817358,
      "lon": 15.9217985,
      "timestamp": "2017-06-04T16:01:34Z",
      "version": 4,
      "changeset": 49245987,
      "user": "dgitto",
      "uid": 554973,
      "tags": {
        "gfoss_id": "8000",
        "name": "Parghelia",
        "place": "village",
        "population": "1300",
        "source": "Istat 2016"
      }
    },
    {
      "type": "node",
      "id": 67276026,
      "lat": 38.609178,
      "lon": 16.0691641,
      "timestamp": "2021-08-23T23:59:09Z",
      "version": 4,
      "changeset": 110140755,
      "user": "dgitto",
      "uid": 554973,
      "tags": {
        "gfoss_id": "7995",
        "name": "Mileto",
        "place": "village",
        "population": "7157",
        "source": "geodati.gfoss.it"
      }
    },
    {
      "type": "node",
      "id": 67276037,
      "lat": 38.6556904,
      "lon": 15.9832464,
      "timestamp": "2019-09-12T23:20:10Z",
      "version": 3,
      "changeset": 74411868,
      "user": "pikappa79",
      "uid": 330007,
      "tags": {
        "gfoss_id": "8024",
        "name": "Zungri",
        "place": "village",
        "population": "2182",
        "source": "geodati.gfoss.it"
      }
    },
    {
      "type": "node",
      "id": 67276047,
      "lat": 38.69918,
      "lon": 15.990094,
      "timestamp": "2016-08-28T18:58:53Z",
      "version": 2,
      "changeset": 41762146,
      "user": "fayor",
      "uid": 743479,
      "tags": {
        "gfoss_id": "8023",
        "name": "Zambrone",
        "place": "village",
        "population": "1743",
        "source": "geodati.gfoss.it"
      }
    },
    {
      "type": "node",
      "id": 67276059,
      "lat": 38.664779,
      "lon": 15.929793,
      "timestamp": "2016-08-28T18:58:53Z",
      "version": 2,
      "changeset": 41762146,
      "user": "fayor",
      "uid": 743479,
      "tags": {
        "gfoss_id": "8022",
        "name": "Zaccanopoli",
        "place": "village",
        "population": "888",
        "source": "geodati.gfoss.it"
      }
    },
    {
      "type": "node",
      "id": 67276074,
      "lat": 38.66368,
      "lon": 16.026795,
      "timestamp": "2016-08-28T18:58:19Z",
      "version": 2,
      "changeset": 41762146,
      "user": "fayor",
      "uid": 743479,
      "tags": {
        "gfoss_id": "7980",
        "name": "Cessaniti",
        "place": "village",
        "population": "3647",
        "source": "geodati.gfoss.it"
      }
    },
    {
      "type": "node",
      "id": 67276126,
      "lat": 38.557477,
      "lon": 15.965895,
      "timestamp": "2016-08-28T18:58:29Z",
      "version": 2,
      "changeset": 41762146,
      "user": "fayor",
      "uid": 743479,
      "tags": {
        "gfoss_id": "7993",
        "name": "Limbadi",
        "place": "village",
        "population": "3630",
        "source": "geodati.gfoss.it"
      }
    },
    {
      "type": "node",
      "id": 67276140,
      "lat": 38.5838404,
      "lon": 15.8973183,
      "timestamp": "2017-08-06T05:16:57Z",
      "version": 3,
      "changeset": 50874991,
      "user": "dgitto",
      "uid": 554973,
      "tags": {
        "gfoss_id": "7992",
        "name": "Joppolo",
        "place": "village",
        "population": "2274",
        "source": "geodati.gfoss.it"
      }
    },
    {
      "type": "node",
      "id": 443921916,
      "lat": 38.3316593,
      "lon": 16.1595245,
      "timestamp": "2009-07-19T20:30:39Z",
      "version": 1,
      "changeset": 1877790,
      "user": "stale",
      "uid": 130063,
      "tags": {
        "name": "Canolo Nuova",
        "place": "village"
      }
    },
    {
      "type": "node",
      "id": 443921925,
      "lat": 38.3328384,
      "lon": 16.1549205,
      "timestamp": "2009-07-19T20:30:41Z",
      "version": 1,
      "changeset": 1877790,
      "user": "stale",
      "uid": 130063,
      "tags": {
        "natural": "spring"
      }
    },
    {
      "type": "node",
      "id": 790496616,
      "lat": 38.7098712,
      "lon": 15.9707803,
      "timestamp": "2019-03-20T09:05:22Z",
      "version": 4,
      "changeset": 68325500,
      "user": "b-jazz-bot",
      "uid": 9451067,
      "tags": {
        "addr:city": "Zambrone",
        "addr:housenumber": "16",
        "addr:postcode": "89868",
        "addr:street": "Via Marina",
        "fax": "+39 0963 392230",
        "name": "Calabria Verde",
        "phone": "+39 0963 392230",
        "tourism": "camp_site",
        "website": "https://www.calabriaverdevv.it/"
      }
    },
    {
      "type": "node",
      "id": 864668874,
      "lat": 38.3260858,
      "lon": 16.1666127,
      "timestamp": "2010-08-17T12:12:32Z",
      "version": 2,
      "changeset": 5517236,
      "user": "stale",
      "uid": 130063,
      "tags": {
        "natural": "spring"
      }
    },
    {
      "type": "node",
      "id": 1059765209,
      "lat": 38.538735,
      "lon": 15.9320355,
      "timestamp": "2013-03-11T17:18:53Z",
      "version": 2,
      "changeset": 15330188,
      "user": "fair",
      "uid": 977303,
      "tags": {
        "name": "Sayonara",
        "phone": "+39 0963 81944",
        "tourism": "camp_site"
      }
    },
    {
      "type": "node",
      "id": 1059765240,
      "lat": 38.4936792,
      "lon": 15.9175578,
      "timestamp": "2013-03-11T17:24:51Z",
      "version": 2,
      "changeset": 15330188,
      "user": "fair",
      "uid": 977303,
      "tags": {
        "name": "Porta del Sol",
        "phone": "+39 0966 765233",
        "tourism": "camp_site"
      }
    },
    {
      "type": "node",
      "id": 1059765438,
      "lat": 38.6775096,
      "lon": 15.892927,
      "timestamp": "2017-06-20T13:23:11Z",
      "version": 4,
      "changeset": 49693577,
      "user": "dgitto",
      "uid": 554973,
      "tags": {
        "addr:postcode": "89861",
        "name": "Marina del Convento",
        "phone": "+39 0963 62501",
        "tourism": "camp_site"
      }
    },
    {
      "type": "node",
      "id": 1059765582,
      "lat": 38.5351858,
      "lon": 15.9335064,
      "timestamp": "2013-03-11T17:19:26Z",
      "version": 2,
      "changeset": 15330188,
      "user": "fair",
      "uid": 977303,
      "tags": {
        "name": "Sabbia d'Oro",
        "phone": "+39 0963 886395",
        "tourism": "camp_site"
      }
    },
    {
      "type": "node",
      "id": 1059765592,
      "lat": 38.4033229,
      "lon": 15.8674066,
      "timestamp": "2013-03-11T17:23:50Z",
      "version": 2,
      "changeset": 15330188,
      "user": "fair",
      "uid": 977303,
      "tags": {
        "name": "Anna",
        "phone": "+39 0966 479348",
        "tourism": "camp_site"
      }
    },
    {
      "type": "node",
      "id": 1100601738,
      "lat": 38.7187977,
      "lon": 16.0755348,
      "timestamp": "2013-03-11T17:17:14Z",
      "version": 2,
      "changeset": 15330188,
      "user": "fair",
      "uid": 977303,
      "tags": {
        "name": "Baia di Traniti",
        "phone": "+39 0963 567217",
        "stars": "2",
        "tourism": "camp_site"
      }
    },
    {
      "type": "node",
      "id": 1100601740,
      "lat": 38.7068833,
      "lon": 15.9688604,
      "timestamp": "2013-03-11T17:16:14Z",
      "version": 2,
      "changeset": 15330188,
      "user": "fair",
      "uid": 977303,
      "tags": {
        "name": "Sambalon",
        "phone": "+39 0963 392828",
        "tourism": "camp_site"
      }
    },
    {
      "type": "node",
      "id": 1100601743,
      "lat": 38.7137909,
      "lon": 16.0753961,
      "timestamp": "2013-03-11T17:16:50Z",
      "version": 2,
      "changeset": 15330188,
      "user": "fair",
      "uid": 977303,
      "tags": {
        "name": "Eden",
        "phone": "+39 0963 567110",
        "tourism": "camp_site"
      }
    },
    {
      "type": "node",
      "id": 1100601744,
      "lat": 38.7176255,
      "lon": 16.0589207,
      "timestamp": "2017-08-21T08:13:05Z",
      "version": 3,
      "changeset": 51294323,
      "user": "lamacchiacosta",
      "uid": 543072,
      "tags": {
        "name": "Villaggio Dolomiti Sul Mare",
        "phone": "+39 0963 391355",
        "tourism": "camp_site"
      }
    },
    {
      "type": "node",
      "id": 1362118372,
      "lat": 38.3959583,
      "lon": 15.9416573,
      "timestamp": "2017-07-29T16:57:58Z",
      "version": 6,
      "changeset": 50676379,
      "user": "Cristian1989",
      "uid": 429539,
      "tags": {
        "addr:city": "Rizziconi",
        "addr:postcode": "89016",
        "name": "Ipercoop",
        "shop": "supermarket"
      }
    },
    {
      "type": "node",
      "id": 1362120416,
      "lat": 38.3094684,
      "lon": 16.0360666,
      "timestamp": "2011-09-02T13:28:51Z",
      "version": 2,
      "changeset": 9192994,
      "user": "Cristian1989",
      "uid": 429539,
      "tags": {
        "amenity": "drinking_water"
      }
    },
    {
      "type": "node",
      "id": 1362120577,
      "lat": 38.310125,
      "lon": 16.0363001,
      "timestamp": "2011-09-02T13:50:04Z",
      "version": 2,
      "changeset": 9193173,
      "user": "Cristian1989",
      "uid": 429539,
      "tags": {
        "amenity": "drinking_water"
      }
    },
    {
      "type": "node",
      "id": 1362120783,
      "lat": 38.3091737,
      "lon": 16.0354417,
      "timestamp": "2011-09-02T13:28:51Z",
      "version": 2,
      "changeset": 9192994,
      "user": "Cristian1989",
      "uid": 429539,
      "tags": {
        "amenity": "drinking_water"
      }
    },
    {
      "type": "node",
      "id": 1362121078,
      "lat": 38.308957,
      "lon": 16.0340899,
      "timestamp": "2011-09-02T13:28:50Z",
      "version": 3,
      "changeset": 9192994,
      "user": "Cristian1989",
      "uid": 429539,
      "tags": {
        "amenity": "drinking_water"
      }
    },
    {
      "type": "node",
      "id": 1362121341,
      "lat": 38.3094118,
      "lon": 16.0330651,
      "timestamp": "2011-07-14T20:43:17Z",
      "version": 1,
      "changeset": 8726013,
      "user": "Cristian1989",
      "uid": 429539,
      "tags": {
        "amenity": "drinking_water"
      }
    },
    {
      "type": "node",
      "id": 1362121669,
      "lat": 38.3039487,
      "lon": 16.0323678,
      "timestamp": "2011-07-14T20:43:42Z",
      "version": 1,
      "changeset": 8726013,
      "user": "Cristian1989",
      "uid": 429539,
      "tags": {
        "amenity": "drinking_water"
      }
    },
    {
      "type": "node",
      "id": 1362121859,
      "lat": 38.3025141,
      "lon": 16.0306876,
      "timestamp": "2011-07-14T20:43:52Z",
      "version": 1,
      "changeset": 8726013,
      "user": "Cristian1989",
      "uid": 429539,
      "tags": {
        "amenity": "drinking_water"
      }
    },
    {
      "type": "node",
      "id": 1362129800,
      "lat": 38.320554,
      "lon": 16.0070984,
      "timestamp": "2011-07-14T20:49:49Z",
      "version": 1,
      "changeset": 8726119,
      "user": "Cristian1989",
      "uid": 429539,
      "tags": {
        "amenity": "drinking_water"
      }
    },
    {
      "type": "node",
      "id": 1362133828,
      "lat": 38.2952502,
      "lon": 15.9845431,
      "timestamp": "2012-08-30T20:07:33Z",
      "version": 2,
      "changeset": 12922833,
      "user": "Cristian1989",
      "uid": 429539,
      "tags": {
        "name": "Conad",
        "shop": "supermarket"
      }
    },
    {
      "type": "node",
      "id": 1362134779,
      "lat": 38.3593404,
      "lon": 16.0265042,
      "timestamp": "2012-09-06T08:49:33Z",
      "version": 4,
      "changeset": 13007148,
      "user": "Cristian1989",
      "uid": 429539,
      "tags": {
        "name": "Crai",
        "shop": "supermarket"
      }
    },
    {
      "type": "node",
      "id": 1364121722,
      "lat": 38.6718694,
      "lon": 15.8902438,
      "timestamp": "2018-06-19T09:30:02Z",
      "version": 3,
      "changeset": 59971334,
      "user": "sm4rk0",
      "uid": 608734,
      "tags": {
        "name": "Diper Spesa",
        "old_name": "Sosti Spesa",
        "opening_hours": "Mo-Sa 08:00-13:15, 16:00-20:30, Su 08:00-13:00",
        "operator": "Diper",
        "phone": "+3909631950333",
        "shop": "supermarket",
        "website": "http://www.diper.it/index.php/tropea"
      }
    },
    {
      "type": "node",
      "id": 1365573509,
      "lat": 38.3551652,
      "lon": 15.9999272,
      "timestamp": "2017-07-29T12:41:40Z",
      "version": 3,
      "changeset": 50671297,
      "user": "Cristian1989",
      "uid": 429539,
      "tags": {
        "name": "Contè",
        "shop": "supermarket"
      }
    },
    {
      "type": "node",
      "id": 1365804613,
      "lat": 38.3236965,
      "lon": 16.0074234,
      "timestamp": "2011-07-18T19:11:02Z",
      "version": 1,
      "changeset": 8761603,
      "user": "Cristian1989",
      "uid": 429539,
      "tags": {
        "amenity": "drinking_water"
      }
    },
    {
      "type": "node",
      "id": 1365811076,
      "lat": 38.2814678,
      "lon": 16.051178,
      "timestamp": "2011-07-18T19:15:16Z",
      "version": 1,
      "changeset": 8761836,
      "user": "Cristian1989",
      "uid": 429539,
      "tags": {
        "name": "Villaggio Trepitò",
        "place": "village"
      }
    },
    {
      "type": "node",
      "id": 1420014571,
      "lat": 38.4175895,
      "lon": 16.0844927,
      "timestamp": "2011-09-05T19:36:41Z",
      "version": 2,
      "changeset": 9221244,
      "user": "Cristian1989",
      "uid": 429539,
      "tags": {
        "name": "Centro Commerciale Pegui",
        "shop": "supermarket"
      }
    },
    {
      "type": "node",
      "id": 1420930234,
      "lat": 38.3096217,
      "lon": 16.0304581,
      "timestamp": "2011-09-02T13:18:52Z",
      "version": 1,
      "changeset": 9192994,
      "user": "Cristian1989",
      "uid": 429539,
      "tags": {
        "amenity": "drinking_water"
      }
    },
    {
      "type": "node",
      "id": 1421008442,
      "lat": 38.3350968,
      "lon": 16.0184598,
      "timestamp": "2017-03-05T13:46:26Z",
      "version": 4,
      "changeset": 46596366,
      "user": "sbiribizio",
      "uid": 354284,
      "tags": {
        "name": "Scroforio",
        "place": "village",
        "wikidata": "Q2255184",
        "wikipedia": "it:Scroforio"
      }
    },
    {
      "type": "node",
      "id": 1421249682,
      "lat": 38.3086476,
      "lon": 16.032195,
      "timestamp": "2011-09-02T18:52:05Z",
      "version": 1,
      "changeset": 9195392,
      "user": "Cristian1989",
      "uid": 429539,
      "tags": {
        "amenity": "drinking_water"
      }
    },
    {
      "type": "node",
      "id": 1421250162,
      "lat": 38.3086328,
      "lon": 16.0320825,
      "timestamp": "2011-09-02T18:52:19Z",
      "version": 1,
      "changeset": 9195392,
      "user": "Cristian1989",
      "uid": 429539,
      "tags": {
        "amenity": "drinking_water"
      }
    },
    {
      "type": "node",
      "id": 1421314413,
      "lat": 38.2861983,
      "lon": 15.9874631,
      "timestamp": "2012-09-01T13:20:38Z",
      "version": 2,
      "changeset": 12942457,
      "user": "Cristian1989",
      "uid": 429539,
      "tags": {
        "name": "Simply Market",
        "shop": "supermarket"
      }
    },
    {
      "type": "node",
      "id": 1423158590,
      "lat": 38.2838677,
      "lon": 16.0539015,
      "timestamp": "2011-09-04T15:50:25Z",
      "version": 1,
      "changeset": 9209960,
      "user": "Cristian1989",
      "uid": 429539,
      "tags": {
        "amenity": "drinking_water"
      }
    },
    {
      "type": "node",
      "id": 1423158593,
      "lat": 38.284072,
      "lon": 16.0545425,
      "timestamp": "2011-09-04T15:50:25Z",
      "version": 1,
      "changeset": 9209960,
      "user": "Cristian1989",
      "uid": 429539,
      "tags": {
        "amenity": "drinking_water"
      }
    },
    {
      "type": "node",
      "id": 1424399843,
      "lat": 38.3532662,
      "lon": 16.0139094,
      "timestamp": "2011-10-07T12:01:20Z",
      "version": 2,
      "changeset": 9490517,
      "user": "wheelmap_visitor",
      "uid": 290680,
      "tags": {
        "amenity": "drinking_water",
        "wheelchair": "limited"
      }
    },
    {
      "type": "node",
      "id": 1424446333,
      "lat": 38.3570252,
      "lon": 16.0238559,
      "timestamp": "2019-06-06T11:05:47Z",
      "version": 2,
      "changeset": 70985749,
      "user": "polfra",
      "uid": 1932714,
      "tags": {
        "brand": "Lidl",
        "brand:wikidata": "Q151954",
        "brand:wikipedia": "en:Lidl",
        "name": "Lidl",
        "shop": "supermarket"
      }
    },
    {
      "type": "node",
      "id": 1426230537,
      "lat": 38.309336,
      "lon": 16.0369242,
      "timestamp": "2011-09-07T15:48:01Z",
      "version": 1,
      "changeset": 9237870,
      "user": "Cristian1989",
      "uid": 429539,
      "tags": {
        "amenity": "drinking_water"
      }
    },
    {
      "type": "node",
      "id": 1426239855,
      "lat": 38.3097078,
      "lon": 16.035436,
      "timestamp": "2017-08-04T19:35:12Z",
      "version": 2,
      "changeset": 50848156,
      "user": "Cristian1989",
      "uid": 429539,
      "tags": {
        "amenity": "drinking_water"
      }
    },
    {
      "type": "node",
      "id": 1426311683,
      "lat": 38.3222197,
      "lon": 16.0065165,
      "timestamp": "2011-09-07T17:05:00Z",
      "version": 1,
      "changeset": 9238576,
      "user": "Cristian1989",
      "uid": 429539,
      "tags": {
        "amenity": "drinking_water"
      }
    },
    {
      "type": "node",
      "id": 1428029283,
      "lat": 38.310811,
      "lon": 16.0313425,
      "timestamp": "2013-08-27T11:46:15Z",
      "version": 2,
      "changeset": 17534667,
      "user": "Cristian1989",
      "uid": 429539,
      "tags": {
        "addr:city": "Molochio",
        "addr:postcode": "89010",
        "addr:street": "Via Venezia",
        "name": "Crai",
        "shop": "supermarket"
      }
    },
    {
      "type": "node",
      "id": 1511495685,
      "lat": 38.6210701,
      "lon": 15.8373713,
      "timestamp": "2011-11-21T13:20:16Z",
      "version": 1,
      "changeset": 9897119,
      "user": "La Taverna",
      "uid": 557387,
      "tags": {
        "name": "Uliveto",
        "tourism": "camp_site"
      }
    },
    {
      "type": "node",
      "id": 1615121282,
      "lat": 38.2967317,
      "lon": 15.5544119,
      "timestamp": "2017-09-12T17:09:59Z",
      "version": 9,
      "changeset": 51979946,
      "user": "fayor",
      "uid": 743479,
      "tags": {
        "alt_name": "Acquarone",
        "alt_name2": "Acqualadrone",
        "ele": "5",
        "name": "Acqualadroni",
        "name:scn": "l'Acquaruni",
        "place": "hamlet",
        "population": "104",
        "short_name:scn": "Acquaruni",
        "sorting_name:scn": "Acquaruni",
        "wikidata": "Q3604662",
        "wikipedia": "it:Acqualadroni"
      }
    },
    {
      "type": "node",
      "id": 1634162774,
      "lat": 38.2785179,
      "lon": 15.5864108,
      "timestamp": "2020-02-12T19:27:51Z",
      "version": 6,
      "changeset": 80920977,
      "user": "fayor",
      "uid": 743479,
      "tags": {
        "name": "Casa Bianca",
        "place": "hamlet",
        "population": "51",
        "wikidata": "Q3661065",
        "wikipedia": "it:Casa Bianca (Messina)"
      }
    },
    {
      "type": "node",
      "id": 1634162786,
      "lat": 38.2943244,
      "lon": 15.5418238,
      "timestamp": "2020-02-12T19:27:51Z",
      "version": 11,
      "changeset": 80920977,
      "user": "fayor",
      "uid": 743479,
      "tags": {
        "ele": "100",
        "name": "Spartà",
        "name:scn": "Spattà",
        "place": "village",
        "population": "1027",
        "wikidata": "Q3966051",
        "wikipedia": "it:Spartà"
      }
    },
    {
      "type": "node",
      "id": 1634162820,
      "lat": 38.2839,
      "lon": 15.5002324,
      "timestamp": "2020-02-12T19:27:51Z",
      "version": 7,
      "changeset": 80920977,
      "user": "fayor",
      "uid": 743479,
      "tags": {
        "alt_name": "Santo Saba",
        "ele": "5",
        "name": "San Saba",
        "name:scn": "Santu Sabba",
        "place": "village",
        "population": "322",
        "wikidata": "Q2743788",
        "wikipedia": "it:San Saba (Messina)"
      }
    },
    {
      "type": "node",
      "id": 1660727255,
      "lat": 38.2753167,
      "lon": 15.5373927,
      "timestamp": "2018-02-13T19:29:33Z",
      "version": 7,
      "changeset": 56332220,
      "user": "fayor",
      "uid": 743479,
      "tags": {
        "ele": "252",
        "name": "Massa San Giorgio",
        "name:scn": "Massa San Giorgiu",
        "place": "village",
        "population": "351",
        "wikidata": "Q2417160",
        "wikipedia": "it:Massa San Giorgio"
      }
    },
    {
      "type": "node",
      "id": 1686934057,
      "lat": 38.3626523,
      "lon": 15.8420204,
      "timestamp": "2012-06-22T10:12:17Z",
      "version": 3,
      "changeset": 11977277,
      "user": "Città di Palmi",
      "uid": 629767,
      "tags": {
        "name": "Palmi Scalo",
        "place": "village"
      }
    },
    {
      "type": "node",
      "id": 1693079412,
      "lat": 38.3514779,
      "lon": 15.8360422,
      "timestamp": "2014-03-05T10:27:01Z",
      "version": 3,
      "changeset": 20927201,
      "user": "Città di Palmi",
      "uid": 629767,
      "tags": {
        "name": "Marina di Palmi",
        "place": "village"
      }
    },
    {
      "type": "node",
      "id": 1697484547,
      "lat": 38.3869107,
      "lon": 15.8637989,
      "timestamp": "2012-06-28T10:37:27Z",
      "version": 5,
      "changeset": 12045221,
      "user": "Città di Palmi",
      "uid": 629767,
      "tags": {
        "name": "Tonnara di Palmi",
        "place": "village"
      }
    },
    {
      "type": "node",
      "id": 1697484548,
      "lat": 38.3892352,
      "lon": 15.8694939,
      "timestamp": "2020-04-04T20:44:46Z",
      "version": 4,
      "changeset": 83082929,
      "user": "Edward",
      "uid": 364,
      "tags": {
        "name": "Taureana di Palmi",
        "place": "village",
        "wikidata": "Q3981560"
      }
    },
    {
      "type": "node",
      "id": 1697487596,
      "lat": 38.3404381,
      "lon": 15.8452307,
      "timestamp": "2014-11-26T08:52:44Z",
      "version": 4,
      "changeset": 27039302,
      "user": "Città di Palmi",
      "uid": 629767,
      "tags": {
        "name": "Sant'Elia",
        "place": "village"
      }
    },
    {
      "type": "node",
      "id": 1740273257,
      "lat": 38.3772616,
      "lon": 15.8550596,
      "timestamp": "2017-03-05T13:46:29Z",
      "version": 3,
      "changeset": 46596366,
      "user": "sbiribizio",
      "uid": 354284,
      "tags": {
        "name": "Grotta di Trachina (o della Pietrosa)",
        "natural": "cave_entrance",
        "wikidata": "Q3777049",
        "wikipedia": "it:Grotta della Pietrosa"
      }
    },
    {
      "type": "node",
      "id": 1763167019,
      "lat": 38.636811,
      "lon": 15.8567241,
      "timestamp": "2012-08-16T21:25:19Z",
      "version": 2,
      "changeset": 12755916,
      "user": "pikappa79",
      "uid": 330007,
      "tags": {
        "name": "Brivadi",
        "place": "village"
      }
    },
    {
      "type": "node",
      "id": 1771567701,
      "lat": 38.2934317,
      "lon": 15.5218807,
      "timestamp": "2020-02-12T19:27:51Z",
      "version": 7,
      "changeset": 80920977,
      "user": "fayor",
      "uid": 743479,
      "tags": {
        "ele": "90",
        "name": "Piano Torre",
        "name:scn": "Ghianu Turri",
        "old_name": "Piano della Torre",
        "old_name:scn": "Ghianu â Turri",
        "place": "village",
        "population": "288",
        "source:name": "road sign",
        "wikidata": "Q3901997",
        "wikipedia": "it:Piano Torre"
      }
    },
    {
      "type": "node",
      "id": 1773176925,
      "lat": 38.3228898,
      "lon": 15.886387,
      "timestamp": "2012-06-02T01:14:16Z",
      "version": 1,
      "changeset": 11772853,
      "user": "Vittorio Lascala",
      "uid": 690221,
      "tags": {
        "name": "Sant'Anna",
        "place": "village"
      }
    },
    {
      "type": "node",
      "id": 1773176927,
      "lat": 38.3920981,
      "lon": 15.882583,
      "timestamp": "2012-06-28T10:39:30Z",
      "version": 5,
      "changeset": 12045239,
      "user": "Città di Palmi",
      "uid": 629767,
      "tags": {
        "name": "San Fantino",
        "place": "hamlet"
      }
    },
    {
      "type": "node",
      "id": 1773176928,
      "lat": 38.402316,
      "lon": 15.8780045,
      "timestamp": "2012-06-28T10:37:27Z",
      "version": 2,
      "changeset": 12045221,
      "user": "Città di Palmi",
      "uid": 629767,
      "tags": {
        "name": "Fracà",
        "place": "hamlet"
      }
    },
    {
      "type": "node",
      "id": 1773176929,
      "lat": 38.4076506,
      "lon": 15.8711091,
      "timestamp": "2012-06-28T10:37:27Z",
      "version": 2,
      "changeset": 12045221,
      "user": "Città di Palmi",
      "uid": 629767,
      "tags": {
        "name": "Scinà",
        "place": "village"
      }
    },
    {
      "type": "node",
      "id": 1798046222,
      "lat": 38.3765855,
      "lon": 15.9011504,
      "timestamp": "2019-07-06T16:37:43Z",
      "version": 3,
      "changeset": 71963400,
      "user": "Città di Palmi",
      "uid": 629767,
      "tags": {
        "name": "Prato Superiore",
        "place": "hamlet"
      }
    },
    {
      "type": "node",
      "id": 1798046223,
      "lat": 38.3699718,
      "lon": 15.8631982,
      "timestamp": "2012-06-28T10:37:27Z",
      "version": 2,
      "changeset": 12045221,
      "user": "Città di Palmi",
      "uid": 629767,
      "tags": {
        "name": "San Leonardo",
        "place": "hamlet"
      }
    },
    {
      "type": "node",
      "id": 1798046224,
      "lat": 38.346099,
      "lon": 15.853701,
      "timestamp": "2012-06-22T10:12:16Z",
      "version": 1,
      "changeset": 11977277,
      "user": "Città di Palmi",
      "uid": 629767,
      "tags": {
        "name": "Vitica",
        "place": "village"
      }
    },
    {
      "type": "node",
      "id": 1798046225,
      "lat": 38.3523422,
      "lon": 15.8604602,
      "timestamp": "2012-06-28T10:37:27Z",
      "version": 2,
      "changeset": 12045221,
      "user": "Città di Palmi",
      "uid": 629767,
      "tags": {
        "name": "Cola di Reggio",
        "place": "hamlet"
      }
    },
    {
      "type": "node",
      "id": 1798046226,
      "lat": 38.3596102,
      "lon": 15.8672949,
      "timestamp": "2014-11-14T09:30:08Z",
      "version": 4,
      "changeset": 26772447,
      "user": "Città di Palmi",
      "uid": 629767,
      "tags": {
        "name": "Garanta",
        "place": "hamlet"
      }
    },
    {
      "type": "node",
      "id": 1798046227,
      "lat": 38.3490102,
      "lon": 15.8567623,
      "timestamp": "2019-07-10T14:40:08Z",
      "version": 3,
      "changeset": 72098432,
      "user": "Città di Palmi",
      "uid": 629767,
      "tags": {
        "name": "Girone",
        "place": "hamlet"
      }
    },
    {
      "type": "node",
      "id": 1798046228,
      "lat": 38.3637133,
      "lon": 15.8665027,
      "timestamp": "2012-06-28T10:37:27Z",
      "version": 2,
      "changeset": 12045221,
      "user": "Città di Palmi",
      "uid": 629767,
      "tags": {
        "name": "San Gaetano",
        "place": "hamlet"
      }
    },
    {
      "type": "node",
      "id": 1798046229,
      "lat": 38.3708372,
      "lon": 15.8795107,
      "timestamp": "2019-07-04T16:55:53Z",
      "version": 2,
      "changeset": 71904638,
      "user": "Città di Palmi",
      "uid": 629767,
      "tags": {
        "name": "Prato",
        "place": "village"
      }
    },
    {
      "type": "node",
      "id": 1798046230,
      "lat": 38.3857401,
      "lon": 15.8806487,
      "timestamp": "2012-06-22T10:12:17Z",
      "version": 1,
      "changeset": 11977277,
      "user": "Città di Palmi",
      "uid": 629767,
      "tags": {
        "name": "San Filippo",
        "place": "village"
      }
    },
    {
      "type": "node",
      "id": 1804892486,
      "lat": 38.4151784,
      "lon": 15.8799776,
      "timestamp": "2013-11-13T10:51:09Z",
      "version": 2,
      "changeset": 18871738,
      "user": "Città di Palmi",
      "uid": 629767,
      "tags": {
        "name": "Ciambra di Palmi",
        "place": "hamlet"
      }
    },
    {
      "type": "node",
      "id": 1804892487,
      "lat": 38.4105951,
      "lon": 15.8900507,
      "timestamp": "2019-07-07T14:21:51Z",
      "version": 4,
      "changeset": 71983571,
      "user": "Città di Palmi",
      "uid": 629767,
      "tags": {
        "name": "San Francesco",
        "place": "hamlet"
      }
    },
    {
      "type": "node",
      "id": 1804892488,
      "lat": 38.3961305,
      "lon": 15.8648381,
      "timestamp": "2012-06-28T10:37:26Z",
      "version": 1,
      "changeset": 12045221,
      "user": "Città di Palmi",
      "uid": 629767,
      "tags": {
        "name": "Pietrenere",
        "place": "village"
      }
    },
    {
      "type": "node",
      "id": 1804892489,
      "lat": 38.3484718,
      "lon": 15.8544097,
      "timestamp": "2012-06-28T10:37:26Z",
      "version": 1,
      "changeset": 12045221,
      "user": "Città di Palmi",
      "uid": 629767,
      "tags": {
        "name": "Sambiceli",
        "place": "hamlet"
      }
    },
    {
      "type": "node",
      "id": 1804892490,
      "lat": 38.3910462,
      "lon": 15.8701274,
      "timestamp": "2013-06-06T11:15:50Z",
      "version": 2,
      "changeset": 16443422,
      "user": "Città di Palmi",
      "uid": 629767,
      "tags": {
        "name": "Coppolino",
        "place": "hamlet"
      }
    },
    {
      "type": "node",
      "id": 1804892491,
      "lat": 38.41068,
      "lon": 15.8724796,
      "timestamp": "2018-12-23T01:32:44Z",
      "version": 3,
      "changeset": 65706169,
      "user": "fayor",
      "uid": 743479,
      "tags": {
        "name": "Lido di Palmi",
        "place": "village"
      }
    },
    {
      "type": "node",
      "id": 1804892492,
      "lat": 38.385252,
      "lon": 15.8695516,
      "timestamp": "2020-05-29T11:44:34Z",
      "version": 2,
      "changeset": 85944486,
      "user": "Città di Palmi",
      "uid": 629767,
      "tags": {
        "name": "Traviano",
        "place": "hamlet"
      }
    },
    {
      "type": "node",
      "id": 1804893439,
      "lat": 38.396608,
      "lon": 15.8819942,
      "timestamp": "2012-06-28T10:38:30Z",
      "version": 1,
      "changeset": 12045232,
      "user": "Città di Palmi",
      "uid": 629767,
      "tags": {
        "name": "Monteterzo",
        "place": "hamlet"
      }
    },
    {
      "type": "node",
      "id": 1825282533,
      "lat": 38.3094649,
      "lon": 16.1069898,
      "timestamp": "2021-08-04T16:42:05Z",
      "version": 2,
      "changeset": 109156474,
      "user": "polfra",
      "uid": 1932714,
      "tags": {
        "name": "Villaggio Zomaro",
        "place": "village"
      }
    },
    {
      "type": "node",
      "id": 1830211834,
      "lat": 38.6464692,
      "lon": 15.9011385,
      "timestamp": "2018-02-26T14:42:34Z",
      "version": 7,
      "changeset": 56692528,
      "user": "aza_thoth",
      "uid": 7640790,
      "tags": {
        "name": "Caria",
        "place": "village",
        "wikidata": "Q18433580",
        "wikipedia": "it:Carìa"
      }
    },
    {
      "type": "node",
      "id": 1869147071,
      "lat": 38.6343609,
      "lon": 15.8726983,
      "timestamp": "2012-08-16T21:22:28Z",
      "version": 1,
      "changeset": 12755916,
      "user": "pikappa79",
      "uid": 330007,
      "tags": {
        "name": "Barbalaconi",
        "place": "hamlet"
      }
    },
    {
      "type": "node",
      "id": 1869147081,
      "lat": 38.6318026,
      "lon": 15.875001,
      "timestamp": "2012-08-16T21:22:29Z",
      "version": 1,
      "changeset": 12755916,
      "user": "pikappa79",
      "uid": 330007,
      "tags": {
        "name": "Lampazzone",
        "place": "hamlet"
      }
    },
    {
      "type": "node",
      "id": 1869147082,
      "lat": 38.6292742,
      "lon": 15.8609064,
      "timestamp": "2012-08-16T21:22:29Z",
      "version": 1,
      "changeset": 12755916,
      "user": "pikappa79",
      "uid": 330007,
      "tags": {
        "name": "Orsigliadi",
        "place": "hamlet"
      }
    },
    {
      "type": "node",
      "id": 1869147083,
      "lat": 38.6331939,
      "lon": 15.8503314,
      "timestamp": "2012-08-16T21:22:29Z",
      "version": 1,
      "changeset": 12755916,
      "user": "pikappa79",
      "uid": 330007,
      "tags": {
        "name": "San Nicolò",
        "place": "hamlet"
      }
    },
    {
      "type": "node",
      "id": 1869147796,
      "lat": 38.6177533,
      "lon": 15.8290499,
      "timestamp": "2019-07-06T22:48:37Z",
      "version": 3,
      "changeset": 71970696,
      "user": "pikappa79",
      "uid": 330007,
      "tags": {
        "name": "Grotto",
        "natural": "cave_entrance"
      }
    },
    {
      "type": "node",
      "id": 1869149090,
      "lat": 38.631645,
      "lon": 15.8748736,
      "timestamp": "2012-08-16T21:23:32Z",
      "version": 1,
      "changeset": 12755916,
      "user": "pikappa79",
      "uid": 330007,
      "tags": {
        "amenity": "drinking_water"
      }
    },
    {
      "type": "node",
      "id": 1869149554,
      "lat": 38.6369036,
      "lon": 15.8569568,
      "timestamp": "2012-08-16T21:23:48Z",
      "version": 1,
      "changeset": 12755916,
      "user": "pikappa79",
      "uid": 330007,
      "tags": {
        "amenity": "drinking_water"
      }
    },
    {
      "type": "node",
      "id": 1897013865,
      "lat": 38.4122031,
      "lon": 15.912301,
      "timestamp": "2012-09-03T20:15:20Z",
      "version": 1,
      "changeset": 12972927,
      "user": "Cristian1989",
      "uid": 429539,
      "tags": {
        "name": "Conad",
        "shop": "supermarket"
      }
    },
    {
      "type": "node",
      "id": 1898004211,
      "lat": 38.2983485,
      "lon": 15.9976017,
      "timestamp": "2017-03-05T13:46:33Z",
      "version": 3,
      "changeset": 46596366,
      "user": "sbiribizio",
      "uid": 354284,
      "tags": {
        "name": "Messignadi",
        "place": "hamlet",
        "wikidata": "Q3855366",
        "wikipedia": "it:Messignadi"
      }
    },
    {
      "type": "node",
      "id": 1923652103,
      "lat": 38.3652366,
      "lon": 15.8565739,
      "timestamp": "2012-09-20T12:49:24Z",
      "version": 1,
      "changeset": 13183238,
      "user": "Città di Palmi",
      "uid": 629767,
      "tags": {
        "name": "Conad",
        "shop": "supermarket"
      }
    },
    {
      "type": "node",
      "id": 1923652134,
      "lat": 38.3580017,
      "lon": 15.8442462,
      "timestamp": "2016-09-21T17:05:42Z",
      "version": 2,
      "changeset": 42329177,
      "user": "axaxax",
      "uid": 1467180,
      "tags": {
        "addr:postcode": "89015",
        "name": "Conad",
        "shop": "supermarket"
      }
    },
    {
      "type": "node",
      "id": 1923652417,
      "lat": 38.3534542,
      "lon": 15.8498764,
      "timestamp": "2020-09-29T09:03:48Z",
      "version": 2,
      "changeset": 91693367,
      "user": "Mannivu",
      "uid": 1950277,
      "tags": {
        "brand": "Todis",
        "brand:wikidata": "Q3992174",
        "brand:wikipedia": "it:Todis",
        "name": "Todis",
        "shop": "supermarket"
      }
    },
    {
      "type": "node",
      "id": 1923657638,
      "lat": 38.389819,
      "lon": 15.8681986,
      "timestamp": "2012-09-20T12:52:26Z",
      "version": 1,
      "changeset": 13183238,
      "user": "Città di Palmi",
      "uid": 629767,
      "tags": {
        "name": "Mini Market",
        "shop": "supermarket"
      }
    },
    {
      "type": "node",
      "id": 1945038098,
      "lat": 38.2989982,
      "lon": 16.1661691,
      "timestamp": "2012-10-03T21:38:20Z",
      "version": 1,
      "changeset": 13354041,
      "user": "rugamarcus",
      "uid": 95387,
      "tags": {
        "name": "Zipari",
        "place": "hamlet"
      }
    },
    {
      "type": "node",
      "id": 1945038132,
      "lat": 38.2927993,
      "lon": 16.160118,
      "timestamp": "2012-10-03T21:38:21Z",
      "version": 1,
      "changeset": 13354041,
      "user": "rugamarcus",
      "uid": 95387,
      "tags": {
        "name": "San Nicola",
        "place": "hamlet"
      }
    },
    {
      "type": "node",
      "id": 1947699195,
      "lat": 38.6421894,
      "lon": 15.8875311,
      "timestamp": "2018-03-02T16:32:07Z",
      "version": 6,
      "changeset": 56825265,
      "user": "aza_thoth",
      "uid": 7640790,
      "tags": {
        "name": "Brattirò",
        "place": "village",
        "wikidata": "Q3643904",
        "wikipedia": "it:Brattirò"
      }
    },
    {
      "type": "node",
      "id": 1947720247,
      "lat": 38.6627327,
      "lon": 15.9043144,
      "timestamp": "2018-02-20T10:51:16Z",
      "version": 6,
      "changeset": 56516765,
      "user": "aza_thoth",
      "uid": 7640790,
      "tags": {
        "name": "Gasponi",
        "place": "village",
        "wikidata": "Q3758693",
        "wikipedia": "it:Gasponi"
      }
    },
    {
      "type": "node",
      "id": 2022303754,
      "lat": 38.5133965,
      "lon": 16.1657727,
      "timestamp": "2014-10-23T16:02:22Z",
      "version": 2,
      "changeset": 26281328,
      "user": "Neuropsin",
      "uid": 2420604,
      "tags": {
        "name": "Corruttò",
        "place": "hamlet"
      }
    },
    {
      "type": "node",
      "id": 2134823433,
      "lat": 38.2871778,
      "lon": 15.513229,
      "timestamp": "2020-02-12T19:27:51Z",
      "version": 4,
      "changeset": 80920977,
      "user": "fayor",
      "uid": 743479,
      "tags": {
        "alt_name": "Contrada Calamona",
        "ele": "90",
        "name": "Calamona",
        "place": "hamlet",
        "population": "3"
      }
    },
    {
      "type": "node",
      "id": 2192249461,
      "lat": 38.4065008,
      "lon": 16.076717,
      "timestamp": "2013-06-05T00:18:57Z",
      "version": 2,
      "changeset": 16426400,
      "user": "giosper",
      "uid": 1209528,
      "tags": {
        "amenity": "drinking_water"
      }
    },
    {
      "type": "node",
      "id": 2192306348,
      "lat": 38.408816,
      "lon": 16.0770161,
      "timestamp": "2013-03-09T11:31:19Z",
      "version": 1,
      "changeset": 15300572,
      "user": "Il progettista 98",
      "uid": 1255213,
      "tags": {
        "name": "Splendidi e Splendenti",
        "shop": "supermarket"
      }
    },
    {
      "type": "node",
      "id": 2192791311,
      "lat": 38.4057965,
      "lon": 16.0761283,
      "timestamp": "2013-03-09T16:12:50Z",
      "version": 1,
      "changeset": 15303535,
      "user": "Il progettista 98",
      "uid": 1255213,
      "tags": {
        "amenity": "drinking_water"
      }
    },
    {
      "type": "node",
      "id": 2239550386,
      "lat": 38.6538705,
      "lon": 15.9097213,
      "timestamp": "2013-03-30T22:38:50Z",
      "version": 1,
      "changeset": 15557545,
      "user": "cesare1977",
      "uid": 950835,
      "tags": {
        "amenity": "drinking_water"
      }
    },
    {
      "type": "node",
      "id": 2272733779,
      "lat": 38.3564476,
      "lon": 15.8530692,
      "timestamp": "2020-06-23T13:47:27Z",
      "version": 2,
      "changeset": 87038019,
      "user": "Città di Palmi",
      "uid": 629767,
      "tags": {
        "name": "San Giorgio",
        "place": "hamlet"
      }
    },
    {
      "type": "node",
      "id": 2334324002,
      "lat": 38.3921775,
      "lon": 15.8762376,
      "timestamp": "2013-06-06T11:15:46Z",
      "version": 1,
      "changeset": 16443422,
      "user": "Città di Palmi",
      "uid": 629767,
      "tags": {
        "name": "Contrada Cupola",
        "place": "hamlet"
      }
    },
    {
      "type": "node",
      "id": 2406321338,
      "lat": 38.6324986,
      "lon": 15.844675,
      "timestamp": "2019-07-07T11:03:15Z",
      "version": 2,
      "changeset": 71979032,
      "user": "pikappa79",
      "uid": 330007,
      "tags": {
        "name": "Il Conte",
        "shop": "supermarket"
      }
    },
    {
      "type": "node",
      "id": 2406933401,
      "lat": 38.6589122,
      "lon": 15.9839175,
      "timestamp": "2013-08-04T14:06:28Z",
      "version": 1,
      "changeset": 17215504,
      "user": "AndreasD",
      "uid": 42406,
      "tags": {
        "name": "Fontana Ambrosia",
        "natural": "spring"
      }
    },
    {
      "type": "node",
      "id": 2406962709,
      "lat": 38.6498891,
      "lon": 15.9838164,
      "timestamp": "2013-08-04T14:31:18Z",
      "version": 1,
      "changeset": 17215758,
      "user": "AndreasD",
      "uid": 42406,
      "tags": {
        "natural": "cave_entrance"
      }
    },
    {
      "type": "node",
      "id": 2525184891,
      "lat": 38.3563187,
      "lon": 15.8435379,
      "timestamp": "2013-11-09T12:30:07Z",
      "version": 1,
      "changeset": 18797991,
      "user": "Città di Palmi",
      "uid": 629767,
      "tags": {
        "name": "Cittadella",
        "place": "hamlet"
      }
    },
    {
      "type": "node",
      "id": 2530578996,
      "lat": 38.4075146,
      "lon": 15.9020129,
      "timestamp": "2013-11-13T10:50:22Z",
      "version": 1,
      "changeset": 18871738,
      "user": "Città di Palmi",
      "uid": 629767,
      "tags": {
        "name": "Gonia di Palmi",
        "place": "hamlet"
      }
    },
    {
      "type": "node",
      "id": 2581081228,
      "lat": 38.4010245,
      "lon": 16.0685196,
      "timestamp": "2013-12-15T16:10:41Z",
      "version": 1,
      "changeset": 19466751,
      "user": "Il progettista 98",
      "uid": 1255213,
      "tags": {
        "amenity": "drinking_water"
      }
    },
    {
      "type": "node",
      "id": 2702366038,
      "lat": 38.3290608,
      "lon": 15.8461207,
      "timestamp": "2016-09-09T00:49:37Z",
      "version": 3,
      "changeset": 42015514,
      "user": "fayor",
      "uid": 743479,
      "tags": {
        "name": "Barritteri",
        "place": "village",
        "population": "727"
      }
    },
    {
      "type": "node",
      "id": 2820876146,
      "lat": 38.2817815,
      "lon": 15.5798005,
      "timestamp": "2017-09-12T17:10:01Z",
      "version": 3,
      "changeset": 51979946,
      "user": "fayor",
      "uid": 743479,
      "tags": {
        "name": "Ortara",
        "place": "hamlet"
      }
    },
    {
      "type": "node",
      "id": 2820888735,
      "lat": 38.2808149,
      "lon": 15.581414,
      "timestamp": "2017-09-12T17:10:01Z",
      "version": 2,
      "changeset": 51979946,
      "user": "fayor",
      "uid": 743479,
      "tags": {
        "name": "Guarnacci",
        "place": "hamlet"
      }
    },
    {
      "type": "node",
      "id": 2857765555,
      "lat": 38.362918,
      "lon": 15.8510684,
      "timestamp": "2014-05-14T10:21:41Z",
      "version": 1,
      "changeset": 22330214,
      "user": "savgr",
      "uid": 2074459,
      "tags": {
        "name": "ConTe",
        "shop": "supermarket"
      }
    },
    {
      "type": "node",
      "id": 2940770129,
      "lat": 38.619318,
      "lon": 16.1008457,
      "timestamp": "2014-06-30T16:31:22Z",
      "version": 1,
      "changeset": 23355418,
      "user": "dromedar61",
      "uid": 542047,
      "tags": {
        "amenity": "drinking_water"
      }
    },
    {
      "type": "node",
      "id": 2984237422,
      "lat": 38.3843521,
      "lon": 16.1064465,
      "timestamp": "2014-07-28T10:04:06Z",
      "version": 1,
      "changeset": 24398871,
      "user": "Biedermann",
      "uid": 2214447,
      "tags": {
        "natural": "spring"
      }
    },
    {
      "type": "node",
      "id": 3035621825,
      "lat": 38.2747213,
      "lon": 15.538313,
      "timestamp": "2014-08-22T19:58:52Z",
      "version": 1,
      "changeset": 24940938,
      "user": "Robbetto",
      "uid": 1765781,
      "tags": {
        "amenity": "drinking_water"
      }
    },
    {
      "type": "node",
      "id": 3145731893,
      "lat": 38.52402,
      "lon": 16.1426075,
      "timestamp": "2014-10-23T16:10:32Z",
      "version": 3,
      "changeset": 26281505,
      "user": "Neuropsin",
      "uid": 2420604,
      "tags": {
        "name": "San Pierfedele",
        "note": "Frazione di San Pietro di Caridà, anche nota come San Pier Fedele",
        "place": "village",
        "population": "350"
      }
    },
    {
      "type": "node",
      "id": 3145757836,
      "lat": 38.5156504,
      "lon": 16.1645975,
      "timestamp": "2017-03-05T13:46:40Z",
      "version": 3,
      "changeset": 46596366,
      "user": "sbiribizio",
      "uid": 354284,
      "tags": {
        "name": "Monsoreto",
        "place": "village",
        "wikidata": "Q3860995",
        "wikipedia": "it:Monsoreto"
      }
    },
    {
      "type": "node",
      "id": 3205790584,
      "lat": 38.3465262,
      "lon": 15.8407462,
      "timestamp": "2021-10-22T16:16:29Z",
      "version": 4,
      "changeset": 112845822,
      "user": "Binnette",
      "uid": 918586,
      "tags": {
        "ele": "582",
        "name": "Monte Sant'Elia",
        "natural": "peak",
        "wikidata": "Q3861978",
        "wikipedia": "it:Monte Sant'Elia (Palmi)"
      }
    },
    {
      "type": "node",
      "id": 3234533701,
      "lat": 38.305451,
      "lon": 15.8814509,
      "timestamp": "2014-12-14T16:08:40Z",
      "version": 1,
      "changeset": 27461472,
      "user": "Guest One",
      "uid": 673069,
      "tags": {
        "amenity": "drinking_water"
      }
    },
    {
      "type": "node",
      "id": 3234727094,
      "lat": 38.3025771,
      "lon": 15.8823853,
      "timestamp": "2014-12-14T17:36:42Z",
      "version": 1,
      "changeset": 27463518,
      "user": "Guest One",
      "uid": 673069,
      "tags": {
        "amenity": "drinking_water",
        "historic": "yes",
        "name": "Fontana del Tocco"
      }
    },
    {
      "type": "node",
      "id": 3238370780,
      "lat": 38.5362462,
      "lon": 16.1578438,
      "timestamp": "2015-08-19T17:40:41Z",
      "version": 2,
      "changeset": 33445618,
      "user": "Fabio Monteleone",
      "uid": 3163703,
      "tags": {
        "name": "Melicuccà - Frazione di Dinami",
        "place": "hamlet",
        "source": "Note 286800"
      }
    },
    {
      "type": "node",
      "id": 3337650742,
      "lat": 38.3114466,
      "lon": 16.0040846,
      "timestamp": "2018-02-28T15:05:21Z",
      "version": 2,
      "changeset": 56758664,
      "user": "trekker48",
      "uid": 961387,
      "tags": {
        "natural": "spring"
      }
    },
    {
      "type": "node",
      "id": 3572662203,
      "lat": 38.284318,
      "lon": 16.1226631,
      "timestamp": "2016-07-19T01:10:33Z",
      "version": 4,
      "changeset": 40846102,
      "user": "mcheckimport",
      "uid": 893327,
      "tags": {
        "name": "Sorgente Castagnareda",
        "natural": "spring"
      }
    },
    {
      "type": "node",
      "id": 3572662393,
      "lat": 38.2871539,
      "lon": 16.1186826,
      "timestamp": "2016-07-19T01:10:33Z",
      "version": 2,
      "changeset": 40846102,
      "user": "mcheckimport",
      "uid": 893327,
      "tags": {
        "amenity": "drinking_water",
        "name": "Acqua"
      }
    },
    {
      "type": "node",
      "id": 3672534422,
      "lat": 38.5828563,
      "lon": 15.8990489,
      "timestamp": "2015-07-29T22:14:16Z",
      "version": 1,
      "changeset": 32966910,
      "user": "luigi bertarini",
      "uid": 893481,
      "tags": {
        "amenity": "drinking_water"
      }
    },
    {
      "type": "node",
      "id": 3672539959,
      "lat": 38.5478385,
      "lon": 15.9426751,
      "timestamp": "2015-07-29T22:20:26Z",
      "version": 1,
      "changeset": 32966989,
      "user": "luigi bertarini",
      "uid": 893481,
      "tags": {
        "amenity": "drinking_water"
      }
    },
    {
      "type": "node",
      "id": 3672552589,
      "lat": 38.2874202,
      "lon": 15.8179673,
      "timestamp": "2015-07-29T22:25:10Z",
      "version": 1,
      "changeset": 32967040,
      "user": "luigi bertarini",
      "uid": 893481,
      "tags": {
        "amenity": "drinking_water"
      }
    },
    {
      "type": "node",
      "id": 3675106825,
      "lat": 38.2960973,
      "lon": 15.8309209,
      "timestamp": "2015-07-31T15:27:56Z",
      "version": 1,
      "changeset": 33009699,
      "user": "luigi bertarini",
      "uid": 893481,
      "tags": {
        "amenity": "drinking_water"
      }
    },
    {
      "type": "node",
      "id": 3687098052,
      "lat": 38.4284746,
      "lon": 15.8974924,
      "timestamp": "2015-08-08T16:26:11Z",
      "version": 1,
      "changeset": 33204301,
      "user": "lucadelu",
      "uid": 13591,
      "tags": {
        "name": "Splendido Splendente",
        "shop": "supermarket"
      }
    },
    {
      "type": "node",
      "id": 3718261583,
      "lat": 38.5295207,
      "lon": 16.1480176,
      "timestamp": "2015-08-28T09:27:47Z",
      "version": 1,
      "changeset": 33639079,
      "user": "Fabio Monteleone",
      "uid": 3163703,
      "tags": {
        "name": "ICA Supermarket",
        "shop": "supermarket"
      }
    },
    {
      "type": "node",
      "id": 3718265274,
      "lat": 38.5268445,
      "lon": 16.1478667,
      "timestamp": "2020-12-09T19:35:37Z",
      "version": 2,
      "changeset": 95570748,
      "user": "wheelmap_visitor",
      "uid": 290680,
      "tags": {
        "name": "ICA Supermarket",
        "shop": "supermarket",
        "wheelchair": "no"
      }
    },
    {
      "type": "node",
      "id": 3718265278,
      "lat": 38.5295763,
      "lon": 16.1459421,
      "timestamp": "2015-08-28T09:27:18Z",
      "version": 1,
      "changeset": 33639065,
      "user": "Fabio Monteleone",
      "uid": 3163703,
      "tags": {
        "name": "ICA Supermarket",
        "shop": "supermarket"
      }
    },
    {
      "type": "node",
      "id": 3718267343,
      "lat": 38.5267672,
      "lon": 16.14765,
      "timestamp": "2015-08-28T09:28:30Z",
      "version": 1,
      "changeset": 33639096,
      "user": "Fabio Monteleone",
      "uid": 3163703,
      "tags": {
        "name": "ICA Supermarket",
        "shop": "supermarket"
      }
    },
    {
      "type": "node",
      "id": 3718270308,
      "lat": 38.5314006,
      "lon": 16.1443765,
      "timestamp": "2015-08-28T09:31:42Z",
      "version": 1,
      "changeset": 33639180,
      "user": "Fabio Monteleone",
      "uid": 3163703,
      "tags": {
        "name": "ICA Supermarket",
        "shop": "supermarket"
      }
    },
    {
      "type": "node",
      "id": 3718286315,
      "lat": 38.5358377,
      "lon": 16.1580307,
      "timestamp": "2015-08-28T09:39:47Z",
      "version": 1,
      "changeset": 33639455,
      "user": "Fabio Monteleone",
      "uid": 3163703,
      "tags": {
        "name": "ICA Supermarket",
        "shop": "supermarket"
      }
    },
    {
      "type": "node",
      "id": 3718287755,
      "lat": 38.5353245,
      "lon": 16.1576734,
      "timestamp": "2015-08-28T09:41:12Z",
      "version": 2,
      "changeset": 33639482,
      "user": "Fabio Monteleone",
      "uid": 3163703,
      "tags": {
        "name": "ICA Supermarket",
        "shop": "supermarket"
      }
    },
    {
      "type": "node",
      "id": 3732853449,
      "lat": 38.2736647,
      "lon": 16.1306107,
      "timestamp": "2016-07-19T01:10:33Z",
      "version": 2,
      "changeset": 40846102,
      "user": "mcheckimport",
      "uid": 893327,
      "tags": {
        "name": "Sorgente",
        "natural": "spring"
      }
    },
    {
      "type": "node",
      "id": 3799851043,
      "lat": 38.6759329,
      "lon": 16.0998186,
      "timestamp": "2021-04-08T21:58:00Z",
      "version": 10,
      "changeset": 102591069,
      "user": "EnumMapper",
      "uid": 2188716,
      "tags": {
        "capital": "6",
        "name": "Vibo Valentia",
        "name:zh-Hans": "维博瓦伦蒂亚",
        "name:zh-Hant": "維博瓦倫蒂亞",
        "place": "city",
        "population": "33941",
        "wikidata": "Q13625"
      }
    },
    {
      "type": "node",
      "id": 3823138369,
      "lat": 38.6041658,
      "lon": 15.9077945,
      "timestamp": "2017-03-05T13:46:43Z",
      "version": 3,
      "changeset": 46596366,
      "user": "sbiribizio",
      "uid": 354284,
      "tags": {
        "ele": "710",
        "name": "Monte Poro",
        "natural": "peak",
        "wikidata": "Q3861861",
        "wikipedia": "it:Monte Poro"
      }
    },
    {
      "type": "node",
      "id": 4190003000,
      "lat": 38.5830035,
      "lon": 15.9400503,
      "timestamp": "2016-05-16T16:29:36Z",
      "version": 1,
      "changeset": 39356860,
      "user": "systemgvp",
      "uid": 3956698,
      "tags": {
        "name": "Sant'Irene",
        "natural": "spring"
      }
    },
    {
      "type": "node",
      "id": 4200805964,
      "lat": 38.3932122,
      "lon": 15.8629992,
      "timestamp": "2016-05-22T20:26:22Z",
      "version": 1,
      "changeset": 39495684,
      "user": "Walter Schlögl",
      "uid": 78656,
      "tags": {
        "name": "Musumeci Antonina Camping",
        "shower": "cold",
        "tourism": "camp_site"
      }
    },
    {
      "type": "node",
      "id": 4270021663,
      "lat": 38.6805425,
      "lon": 15.8958155,
      "timestamp": "2016-06-28T15:55:05Z",
      "version": 1,
      "changeset": 40347048,
      "user": "ingcelsi",
      "uid": 260238,
      "tags": {
        "name": "Grotta del Palombaro",
        "natural": "cave_entrance",
        "tourism": "attraction"
      }
    },
    {
      "type": "node",
      "id": 4272127734,
      "lat": 38.4053372,
      "lon": 16.0786155,
      "timestamp": "2016-06-29T19:05:36Z",
      "version": 1,
      "changeset": 40374483,
      "user": "Il progettista 98",
      "uid": 1255213,
      "tags": {
        "amenity": "drinking_water"
      }
    },
    {
      "type": "node",
      "id": 4341588101,
      "lat": 38.5942416,
      "lon": 15.9047216,
      "timestamp": "2017-03-05T13:46:44Z",
      "version": 2,
      "changeset": 46596366,
      "user": "sbiribizio",
      "uid": 354284,
      "tags": {
        "name": "Caroniti",
        "place": "hamlet",
        "wikidata": "Q3660618",
        "wikipedia": "it:Caroniti"
      }
    },
    {
      "type": "node",
      "id": 4374409889,
      "lat": 38.661909,
      "lon": 15.859283,
      "timestamp": "2020-07-03T11:10:30Z",
      "version": 5,
      "changeset": 87500188,
      "user": "sbrzezin",
      "uid": 8709319,
      "tags": {
        "name": "Eurospar",
        "shop": "supermarket"
      }
    },
    {
      "type": "node",
      "id": 4407261098,
      "lat": 38.6783594,
      "lon": 15.8961335,
      "timestamp": "2017-06-20T13:23:11Z",
      "version": 3,
      "changeset": 49693577,
      "user": "dgitto",
      "uid": 554973,
      "tags": {
        "addr:housenumber": "41",
        "addr:postcode": "89861",
        "addr:street": "Via Indipendenza",
        "name": "Bontà e delizie di Calabria",
        "shop": "convenience"
      }
    },
    {
      "type": "node",
      "id": 4413586898,
      "lat": 38.6586689,
      "lon": 15.8564109,
      "timestamp": "2018-06-02T10:35:48Z",
      "version": 5,
      "changeset": 59482436,
      "user": "pürierstab",
      "uid": 4393065,
      "tags": {
        "addr:street": "Via Provinciale Santa Domenica",
        "name": "Conad",
        "name:it": "Supermercato CONAD",
        "opening_hours": "Mo-Sa 08:30-20:00, 09:00-18:00; Su 09:00-13:00",
        "phone": "+39 963 669824",
        "shop": "supermarket"
      }
    },
    {
      "type": "node",
      "id": 4431492602,
      "lat": 38.6207736,
      "lon": 15.8311419,
      "timestamp": "2017-03-05T13:46:45Z",
      "version": 2,
      "changeset": 46596366,
      "user": "sbiribizio",
      "uid": 354284,
      "tags": {
        "name": "Grotticelle",
        "place": "village",
        "wikidata": "Q2581946",
        "wikipedia": "it:Grotticelle (Ricadi)"
      }
    },
    {
      "type": "node",
      "id": 4433156508,
      "lat": 38.5927408,
      "lon": 15.9044051,
      "timestamp": "2016-10-26T10:52:53Z",
      "version": 2,
      "changeset": 43189356,
      "user": "peekmaster",
      "uid": 1775692,
      "tags": {
        "amenity": "drinking_water"
      }
    },
    {
      "type": "node",
      "id": 4433156921,
      "lat": 38.5927097,
      "lon": 15.8998287,
      "timestamp": "2016-10-05T18:34:41Z",
      "version": 1,
      "changeset": 42665320,
      "user": "peekmaster",
      "uid": 1775692,
      "tags": {
        "amenity": "drinking_water"
      }
    },
    {
      "type": "node",
      "id": 4434605331,
      "lat": 38.6732156,
      "lon": 15.8913149,
      "timestamp": "2016-10-06T16:37:28Z",
      "version": 3,
      "changeset": 42689536,
      "user": "peekmaster",
      "uid": 1775692,
      "tags": {
        "addr:city": "Tropea",
        "addr:postcode": "89861",
        "addr:street": "Via Annunziaata",
        "name": "Market Ventrice",
        "shop": "supermarket"
      }
    },
    {
      "type": "node",
      "id": 4434628694,
      "lat": 38.5805682,
      "lon": 15.8972129,
      "timestamp": "2016-10-06T16:43:18Z",
      "version": 1,
      "changeset": 42689671,
      "user": "peekmaster",
      "uid": 1775692,
      "tags": {
        "amenity": "drinking_water"
      }
    },
    {
      "type": "node",
      "id": 4436784132,
      "lat": 38.591679,
      "lon": 16.0587384,
      "timestamp": "2016-10-07T19:24:16Z",
      "version": 1,
      "changeset": 42719716,
      "user": "Karthoo",
      "uid": 3232636,
      "tags": {
        "name": "Paravati",
        "place": "village"
      }
    },
    {
      "type": "node",
      "id": 4453902890,
      "lat": 38.7159332,
      "lon": 16.1197919,
      "timestamp": "2017-03-05T13:46:46Z",
      "version": 2,
      "changeset": 46596366,
      "user": "sbiribizio",
      "uid": 354284,
      "tags": {
        "name": "Vibo Marina",
        "place": "village",
        "wikidata": "Q1771685",
        "wikipedia": "it:Vibo Marina"
      }
    },
    {
      "type": "node",
      "id": 4464417000,
      "lat": 38.6508648,
      "lon": 15.9872831,
      "timestamp": "2016-10-26T06:45:53Z",
      "version": 1,
      "changeset": 43183372,
      "user": "peekmaster",
      "uid": 1775692,
      "tags": {
        "natural": "spring"
      }
    },
    {
      "type": "node",
      "id": 4464417001,
      "lat": 38.6507976,
      "lon": 15.9869413,
      "timestamp": "2016-10-26T06:45:53Z",
      "version": 1,
      "changeset": 43183372,
      "user": "peekmaster",
      "uid": 1775692,
      "tags": {
        "natural": "spring"
      }
    },
    {
      "type": "node",
      "id": 4471936659,
      "lat": 38.2952805,
      "lon": 15.825593,
      "timestamp": "2017-03-05T13:46:46Z",
      "version": 2,
      "changeset": 46596366,
      "user": "sbiribizio",
      "uid": 354284,
      "tags": {
        "name": "Pellegrina",
        "place": "village",
        "wikidata": "Q3898909",
        "wikipedia": "it:Pellegrina (Bagnara Calabra)"
      }
    },
    {
      "type": "node",
      "id": 4471936660,
      "lat": 38.4735614,
      "lon": 16.0768766,
      "timestamp": "2017-03-05T13:46:46Z",
      "version": 2,
      "changeset": 46596366,
      "user": "sbiribizio",
      "uid": 354284,
      "tags": {
        "name": "Plaesano",
        "place": "village",
        "wikidata": "Q3906161",
        "wikipedia": "it:Plaesano"
      }
    },
    {
      "type": "node",
      "id": 4519487190,
      "lat": 38.6541316,
      "lon": 15.9864085,
      "timestamp": "2016-11-24T19:31:27Z",
      "version": 1,
      "changeset": 43929629,
      "user": "Masala2",
      "uid": 3792744,
      "tags": {
        "amenity": "drinking_water"
      }
    },
    {
      "type": "node",
      "id": 4522600593,
      "lat": 38.3469716,
      "lon": 15.840892,
      "timestamp": "2020-12-18T15:42:07Z",
      "version": 3,
      "changeset": 96079827,
      "user": "Città di Palmi",
      "uid": 629767,
      "tags": {
        "amenity": "drinking_water"
      }
    },
    {
      "type": "node",
      "id": 4547010046,
      "lat": 38.6130485,
      "lon": 16.1687653,
      "timestamp": "2017-03-05T13:46:47Z",
      "version": 2,
      "changeset": 46596366,
      "user": "sbiribizio",
      "uid": 354284,
      "tags": {
        "name": "Sant'Angelo di Gerocarne",
        "place": "village",
        "wikidata": "Q3948723",
        "wikipedia": "it:Sant'Angelo di Gerocarne"
      }
    },
    {
      "type": "node",
      "id": 4549157812,
      "lat": 38.5464765,
      "lon": 15.9340149,
      "timestamp": "2020-04-04T20:44:47Z",
      "version": 2,
      "changeset": 83082929,
      "user": "Edward",
      "uid": 364,
      "tags": {
        "name": "Nicotera Marina",
        "place": "hamlet",
        "wikidata": "Q27990663"
      }
    },
    {
      "type": "node",
      "id": 4589289708,
      "lat": 38.6833392,
      "lon": 16.1152517,
      "timestamp": "2017-01-04T15:33:40Z",
      "version": 1,
      "changeset": 44901393,
      "user": "Sante Barbuto",
      "uid": 5074039,
      "tags": {
        "addr:city": "Vibo Valentia",
        "addr:postcode": "89900",
        "name": "ARD Discount",
        "shop": "supermarket"
      }
    },
    {
      "type": "node",
      "id": 4589289709,
      "lat": 38.6828367,
      "lon": 16.1148869,
      "timestamp": "2017-01-04T15:33:40Z",
      "version": 1,
      "changeset": 44901393,
      "user": "Sante Barbuto",
      "uid": 5074039,
      "tags": {
        "addr:city": "Vibo Valentia",
        "addr:postcode": "89900",
        "name": "Splendidi e Splendenti",
        "shop": "supermarket"
      }
    },
    {
      "type": "node",
      "id": 4652767547,
      "lat": 38.3010593,
      "lon": 15.8810418,
      "timestamp": "2017-02-01T14:14:55Z",
      "version": 1,
      "changeset": 45717691,
      "user": "Guest One",
      "uid": 673069,
      "tags": {
        "amenity": "drinking_water"
      }
    },
    {
      "type": "node",
      "id": 4655760359,
      "lat": 38.737149,
      "lon": 16.1617023,
      "timestamp": "2017-02-02T10:27:11Z",
      "version": 1,
      "changeset": 45742522,
      "user": "select",
      "uid": 3042095,
      "tags": {
        "name": "Grotta Azzurra",
        "natural": "cave_entrance"
      }
    },
    {
      "type": "node",
      "id": 4655929399,
      "lat": 38.7406337,
      "lon": 16.1704253,
      "timestamp": "2017-02-02T14:29:02Z",
      "version": 4,
      "changeset": 45748770,
      "user": "select",
      "uid": 3042095,
      "tags": {
        "name": "Grotta del Bue",
        "natural": "cave_entrance"
      }
    },
    {
      "type": "node",
      "id": 4656017672,
      "lat": 38.7375267,
      "lon": 16.1628647,
      "timestamp": "2017-02-02T11:32:51Z",
      "version": 4,
      "changeset": 45744396,
      "user": "select",
      "uid": 3042095,
      "tags": {
        "name": "Grotta du Palumbaru",
        "natural": "cave_entrance"
      }
    },
    {
      "type": "node",
      "id": 4656051137,
      "lat": 38.7380542,
      "lon": 16.1635755,
      "timestamp": "2017-02-02T12:09:22Z",
      "version": 3,
      "changeset": 45745346,
      "user": "select",
      "uid": 3042095,
      "tags": {
        "natural": "cave_entrance"
      }
    },
    {
      "type": "node",
      "id": 4770256966,
      "lat": 38.3046967,
      "lon": 16.1113243,
      "timestamp": "2021-03-04T18:52:07Z",
      "version": 2,
      "changeset": 100440816,
      "user": "marcoberinger",
      "uid": 3621610,
      "tags": {
        "drinking_water": "yes",
        "drinking_water:legal": "yes",
        "name": "Fonte Acqua Bianca",
        "natural": "spring"
      }
    },
    {
      "type": "node",
      "id": 4788858777,
      "lat": 38.6222458,
      "lon": 16.044403,
      "timestamp": "2017-09-11T04:11:53Z",
      "version": 2,
      "changeset": 51925818,
      "user": "nyuriks",
      "uid": 339581,
      "tags": {
        "name": "Arzona",
        "place": "village",
        "wikidata": "Q3624710",
        "wikipedia": "it:Arzona"
      }
    },
    {
      "type": "node",
      "id": 4788858778,
      "lat": 38.6821307,
      "lon": 16.065977,
      "timestamp": "2017-09-11T04:11:53Z",
      "version": 2,
      "changeset": 51925818,
      "user": "nyuriks",
      "uid": 339581,
      "tags": {
        "name": "Triparni",
        "place": "village",
        "wikidata": "Q2779514",
        "wikipedia": "it:Triparni"
      }
    },
    {
      "type": "node",
      "id": 4788858779,
      "lat": 38.6834024,
      "lon": 16.0136266,
      "timestamp": "2019-09-12T23:20:10Z",
      "version": 3,
      "changeset": 74411868,
      "user": "pikappa79",
      "uid": 330007,
      "tags": {
        "name": "San Cono",
        "place": "hamlet",
        "wikidata": "Q2542202",
        "wikipedia": "it:San Cono (Cessaniti)"
      }
    },
    {
      "type": "node",
      "id": 4788858818,
      "lat": 38.3624359,
      "lon": 15.9764787,
      "timestamp": "2017-09-11T04:11:53Z",
      "version": 2,
      "changeset": 51925818,
      "user": "nyuriks",
      "uid": 339581,
      "tags": {
        "name": "San Martino di Taurianova",
        "place": "village",
        "wikidata": "Q1158745",
        "wikipedia": "it:San Martino di Taurianova"
      }
    },
    {
      "type": "node",
      "id": 4788858819,
      "lat": 38.3160732,
      "lon": 15.9392557,
      "timestamp": "2017-09-11T04:11:53Z",
      "version": 2,
      "changeset": 51925818,
      "user": "nyuriks",
      "uid": 339581,
      "tags": {
        "name": "Castellace",
        "place": "hamlet",
        "wikidata": "Q4949916",
        "wikipedia": "it:Castellace"
      }
    },
    {
      "type": "node",
      "id": 4790745534,
      "lat": 38.7089847,
      "lon": 16.096859,
      "timestamp": "2017-09-11T04:11:53Z",
      "version": 2,
      "changeset": 51925818,
      "user": "nyuriks",
      "uid": 339581,
      "tags": {
        "name": "Bivona",
        "place": "village",
        "wikidata": "Q3640585",
        "wikipedia": "it:Bivona (Vibo Valentia)"
      }
    },
    {
      "type": "node",
      "id": 4790745557,
      "lat": 38.6756029,
      "lon": 15.9316266,
      "timestamp": "2019-10-05T20:42:22Z",
      "version": 3,
      "changeset": 75327626,
      "user": "pikappa79",
      "uid": 330007,
      "tags": {
        "name": "Fitili",
        "place": "hamlet",
        "wikidata": "Q3746172",
        "wikipedia": "it:Fitili"
      }
    },
    {
      "type": "node",
      "id": 4911468913,
      "lat": 38.7341038,
      "lon": 16.1595301,
      "timestamp": "2017-06-12T20:00:19Z",
      "version": 1,
      "changeset": 49480256,
      "user": "krzyk",
      "uid": 303741,
      "tags": {
        "amenity": "drinking_water"
      }
    },
    {
      "type": "node",
      "id": 4911469655,
      "lat": 38.7370214,
      "lon": 16.162439,
      "timestamp": "2017-06-12T20:00:18Z",
      "version": 1,
      "changeset": 49480256,
      "user": "krzyk",
      "uid": 303741,
      "tags": {
        "amenity": "drinking_water"
      }
    },
    {
      "type": "node",
      "id": 5001592392,
      "lat": 38.3538696,
      "lon": 16.0059407,
      "timestamp": "2019-06-06T11:05:47Z",
      "version": 2,
      "changeset": 70985749,
      "user": "polfra",
      "uid": 1932714,
      "tags": {
        "brand": "EuroSpin",
        "brand:wikidata": "Q1374674",
        "brand:wikipedia": "it:Eurospin",
        "name": "EuroSpin",
        "shop": "supermarket"
      }
    },
    {
      "type": "node",
      "id": 5001592393,
      "lat": 38.3567764,
      "lon": 15.9996643,
      "timestamp": "2017-07-29T12:41:40Z",
      "version": 1,
      "changeset": 50671297,
      "user": "Cristian1989",
      "uid": 429539,
      "tags": {
        "name": "Conad",
        "shop": "supermarket"
      }
    },
    {
      "type": "node",
      "id": 5001873563,
      "lat": 38.4062448,
      "lon": 15.9165342,
      "timestamp": "2017-07-29T16:56:11Z",
      "version": 2,
      "changeset": 50676282,
      "user": "Cristian1989",
      "uid": 429539,
      "tags": {
        "addr:city": "Gioia Tauro",
        "addr:postcode": "89013",
        "name": "Sigma",
        "shop": "supermarket"
      }
    },
    {
      "type": "node",
      "id": 5001873564,
      "lat": 38.4068966,
      "lon": 15.9172152,
      "timestamp": "2017-07-29T16:53:38Z",
      "version": 1,
      "changeset": 50676282,
      "user": "Cristian1989",
      "uid": 429539,
      "tags": {
        "addr:city": "Gioia Tauro",
        "addr:postcode": "89013",
        "name": "Casa",
        "shop": "convenience",
        "website": "https://it.casashops.com/it/"
      }
    },
    {
      "type": "node",
      "id": 5015297306,
      "lat": 38.3076972,
      "lon": 16.031389,
      "timestamp": "2017-08-04T19:32:53Z",
      "version": 1,
      "changeset": 50848091,
      "user": "Cristian1989",
      "uid": 429539,
      "tags": {
        "amenity": "drinking_water"
      }
    },
    {
      "type": "node",
      "id": 5017366105,
      "lat": 38.6043559,
      "lon": 15.8716822,
      "timestamp": "2017-08-06T05:16:55Z",
      "version": 1,
      "changeset": 50874991,
      "user": "dgitto",
      "uid": 554973,
      "tags": {
        "name": "Coccorino",
        "place": "hamlet"
      }
    },
    {
      "type": "node",
      "id": 5017366742,
      "lat": 38.5805846,
      "lon": 15.9035414,
      "timestamp": "2017-08-06T05:16:56Z",
      "version": 1,
      "changeset": 50874991,
      "user": "dgitto",
      "uid": 554973,
      "tags": {
        "name": "Calafatoni",
        "place": "hamlet"
      }
    },
    {
      "type": "node",
      "id": 5020261421,
      "lat": 38.6108854,
      "lon": 15.8496156,
      "timestamp": "2017-08-07T13:52:54Z",
      "version": 1,
      "changeset": 50918731,
      "user": "locc",
      "uid": 58216,
      "tags": {
        "name": "Big-Market",
        "name:it": "Big-Market",
        "shop": "supermarket"
      }
    },
    {
      "type": "node",
      "id": 5031234921,
      "lat": 38.6443035,
      "lon": 15.8380005,
      "timestamp": "2017-08-12T22:40:11Z",
      "version": 1,
      "changeset": 51069253,
      "user": "Rafael Raposo Pires",
      "uid": 4317402,
      "tags": {
        "name": "Camping Fuego",
        "name:it": "Camping Fuego",
        "tourism": "camp_site"
      }
    },
    {
      "type": "node",
      "id": 5045830697,
      "lat": 38.7264664,
      "lon": 16.029868,
      "timestamp": "2021-08-13T13:04:20Z",
      "version": 3,
      "changeset": 109630608,
      "user": "Cascafico",
      "uid": 361003,
      "tags": {
        "name": "Conad",
        "opening_hours": "8:00-13:00,16:00-20:00",
        "shop": "supermarket"
      }
    },
    {
      "type": "node",
      "id": 5060561229,
      "lat": 38.3112828,
      "lon": 15.822163,
      "timestamp": "2017-08-26T17:28:47Z",
      "version": 6,
      "changeset": 51464197,
      "user": "rondock",
      "uid": 5769150,
      "tags": {
        "alt_name": "Grotta delle Rose",
        "fee": "no",
        "name": "Grotta delle Rondini",
        "natural": "cave_entrance"
      }
    },
    {
      "type": "node",
      "id": 5060561230,
      "lat": 38.3148186,
      "lon": 15.8241258,
      "timestamp": "2017-08-26T17:28:47Z",
      "version": 5,
      "changeset": 51464197,
      "user": "rondock",
      "uid": 5769150,
      "tags": {
        "name": "Grotta del Monaco",
        "natural": "cave_entrance"
      }
    },
    {
      "type": "node",
      "id": 5060600593,
      "lat": 38.3145345,
      "lon": 15.8235441,
      "timestamp": "2017-08-26T17:28:47Z",
      "version": 3,
      "changeset": 51464197,
      "user": "rondock",
      "uid": 5769150,
      "tags": {
        "name": "Grotta di San Sebastiano",
        "natural": "cave_entrance"
      }
    },
    {
      "type": "node",
      "id": 5060954555,
      "lat": 38.2889173,
      "lon": 15.8042156,
      "timestamp": "2019-12-20T17:58:11Z",
      "version": 2,
      "changeset": 78694347,
      "user": "wheelmap_visitor",
      "uid": 290680,
      "tags": {
        "amenity": "drinking_water",
        "wheelchair": "yes"
      }
    },
    {
      "type": "node",
      "id": 5249574043,
      "lat": 38.4181284,
      "lon": 16.0915537,
      "timestamp": "2017-11-29T18:16:56Z",
      "version": 2,
      "changeset": 54184826,
      "user": "Francesco Salomone",
      "uid": 1808422,
      "tags": {
        "amenity": "drinking_water",
        "description": "Si possono consultare le analisi di potabilità al seguente link https://acquapotabile.crowdmap.com//mobile/reports/search?town=via+regina+elena%2C+cinquefrondi&distance=0.1&category_id=0&order=date",
        "name": "Fontana di Venere"
      }
    },
    {
      "type": "node",
      "id": 5254560880,
      "lat": 38.4182883,
      "lon": 16.0954133,
      "timestamp": "2017-11-29T19:08:22Z",
      "version": 1,
      "changeset": 54186071,
      "user": "Francesco Salomone",
      "uid": 1808422,
      "tags": {
        "amenity": "drinking_water",
        "description": "Analisi di potabilità consultabili su https://acquapotabile.crowdmap.com//mobile/reports/search?town=via+vittorio+veneto+1%2C+cinquefrondi&distance=0.1&category_id=1&order=date"
      }
    },
    {
      "type": "node",
      "id": 5254575849,
      "lat": 38.4168127,
      "lon": 16.0950708,
      "timestamp": "2017-11-29T19:15:55Z",
      "version": 1,
      "changeset": 54186281,
      "user": "Francesco Salomone",
      "uid": 1808422,
      "tags": {
        "amenity": "drinking_water",
        "description": "Analisi di potabilità disponibili su https://acquapotabile.crowdmap.com//mobile/reports/search?town=largo+del+tocco%2C+cinquefrondi&distance=0.1&category_id=1&order=date"
      }
    },
    {
      "type": "node",
      "id": 5254606868,
      "lat": 38.418316,
      "lon": 16.0972431,
      "timestamp": "2017-11-29T19:28:05Z",
      "version": 1,
      "changeset": 54186878,
      "user": "Francesco Salomone",
      "uid": 1808422,
      "tags": {
        "amenity": "drinking_water",
        "description": "Analisi di potabilità consultabili su https://acquapotabile.crowdmap.com//mobile/reports/search?town=santa+maria%2C+cinquefrondi&distance=0.1&category_id=0&order=date"
      }
    },
    {
      "type": "node",
      "id": 5254621006,
      "lat": 38.4160506,
      "lon": 16.0971278,
      "timestamp": "2017-11-29T19:36:51Z",
      "version": 1,
      "changeset": 54187131,
      "user": "Francesco Salomone",
      "uid": 1808422,
      "tags": {
        "amenity": "drinking_water",
        "description": "Analisi di potabilità disponibili su https://acquapotabile.crowdmap.com//mobile/reports/search?town=municipio+cinquefrondi&distance=0.1&category_id=1&order=date"
      }
    },
    {
      "type": "node",
      "id": 5254631835,
      "lat": 38.4058334,
      "lon": 16.1181567,
      "timestamp": "2017-11-29T19:40:15Z",
      "version": 1,
      "changeset": 54187226,
      "user": "Francesco Salomone",
      "uid": 1808422,
      "tags": {
        "amenity": "drinking_water",
        "description": "Analisi di potabilità consultabili su https://acquapotabile.crowdmap.com/mobile/reports/search?town=petricciana%2C+cinquefrondi"
      }
    },
    {
      "type": "node",
      "id": 5424722230,
      "lat": 38.6634391,
      "lon": 15.9035151,
      "timestamp": "2018-02-20T15:11:39Z",
      "version": 1,
      "changeset": 56523476,
      "user": "aza_thoth",
      "uid": 7640790,
      "tags": {
        "amenity": "drinking_water"
      }
    },
    {
      "type": "node",
      "id": 5426907829,
      "lat": 38.6641991,
      "lon": 15.8926333,
      "timestamp": "2018-02-21T15:46:18Z",
      "version": 1,
      "changeset": 56553486,
      "user": "aza_thoth",
      "uid": 7640790,
      "tags": {
        "name": "Sant'Angelo di Drapia",
        "place": "hamlet"
      }
    },
    {
      "type": "node",
      "id": 5448660243,
      "lat": 38.6546829,
      "lon": 15.8983511,
      "timestamp": "2018-03-02T17:10:18Z",
      "version": 1,
      "changeset": 56826375,
      "user": "aza_thoth",
      "uid": 7640790,
      "tags": {
        "amenity": "drinking_water"
      }
    },
    {
      "type": "node",
      "id": 5457225506,
      "lat": 38.3386279,
      "lon": 15.8408641,
      "timestamp": "2021-07-28T10:57:42Z",
      "version": 2,
      "changeset": 108751081,
      "user": "marcoberinger",
      "uid": 3621610,
      "tags": {
        "drinking_water": "yes",
        "name": "Fonte delle Scrise",
        "natural": "spring"
      }
    },