{
  "osm3s": {
    "timestamp_osm_date": "2022-07-25T23:59:59Z",
    "timestamp_osm_base": "2022-07-26T05:20:23Z",
    "copyright": "The data included in this document is from www.openstreetmap.org. The data is made available under ODbL."
  },
  "elements": [
    {
      "type": "node",
      "id": 158265998,
      "lat": 43.6120128,
      "lon": -75.0987814,
      "timestamp": "2008-12-06T16:28:21Z",
      "version": 2,
      "changeset": 158653,
      "user": "davidearl",
      "uid": 3582,
      "tags": {
        "ele": "465",
        "gnis:Class": "Populated Place",
        "gnis:County": "Herkimer",
        "gnis:County_num": "043",
        "gnis:ST_alpha": "NY",
        "gnis:ST_num": "36",
        "gnis:id": "956792",
        "import_uuid": "bb7269ee-502a-5391-8056-e3ce0e66489c",
        "is_in": "Herkimer,New York,N.Y.,NY,USA",
        "name": "McKeever",
        "place": "hamlet"
      }
    },
    {
      "type": "node",
      "id": 158317202,
      "lat": 43.890066,
      "lon": -75.0362944,
      "timestamp": "2008-12-06T16:28:58Z",
      "version": 2,
      "changeset": 158653,
      "user": "davidearl",
      "uid": 3582,
      "tags": {
        "ele": "515",
        "gnis:Class": "Populated Place",
        "gnis:County": "Herkimer",
        "gnis:County_num": "043",
        "gnis:ST_alpha": "NY",
        "gnis:ST_num": "36",
        "gnis:id": "972036",
        "import_uuid": "bb7269ee-502a-5391-8056-e3ce0e66489c",
        "is_in": "Herkimer,New York,N.Y.,NY,USA",
        "name": "Stillwater",
        "place": "hamlet"
      }
    },
    {
      "type": "node",
      "id": 158348205,
      "lat": 43.7000679,
      "lon": -75.0018408,
      "timestamp": "2022-02-22T02:46:59Z",
      "version": 3,
      "changeset": 117707203,
      "user": "ke9tv",
      "uid": 591186,
      "tags": {
        "ele": "520",
        "gnis:id": "967356",
        "name": "Thendara",
        "nist:fips_code": "3673495",
        "place": "hamlet",
        "wikidata": "Q7781363",
        "wikipedia": "en:Thendara, New York"
      }
    },
    {
      "type": "node",
      "id": 158500863,
      "lat": 43.8656231,
      "lon": -75.1807394,
      "timestamp": "2008-12-06T16:33:41Z",
      "version": 2,
      "changeset": 158653,
      "user": "davidearl",
      "uid": 3582,
      "tags": {
        "ele": "478",
        "gnis:Class": "Populated Place",
        "gnis:County": "Lewis",
        "gnis:County_num": "049",
        "gnis:ST_alpha": "NY",
        "gnis:ST_num": "36",
        "gnis:id": "959057",
        "import_uuid": "bb7269ee-502a-5391-8056-e3ce0e66489c",
        "is_in": "Lewis,New York,N.Y.,NY,USA",
        "name": "Number Four",
        "place": "hamlet"
      }
    },
    {
      "type": "node",
      "id": 158574299,
      "lat": 43.6617349,
      "lon": -75.0679504,
      "timestamp": "2008-12-06T16:34:56Z",
      "version": 2,
      "changeset": 158653,
      "user": "davidearl",
      "uid": 3582,
      "tags": {
        "ele": "513",
        "gnis:Class": "Populated Place",
        "gnis:County": "Herkimer",
        "gnis:County_num": "043",
        "gnis:ST_alpha": "NY",
        "gnis:ST_num": "36",
        "gnis:id": "972806",
        "import_uuid": "bb7269ee-502a-5391-8056-e3ce0e66489c",
        "is_in": "Herkimer,New York,N.Y.,NY,USA",
        "name": "Minnehaha",
        "place": "hamlet"
      }
    },
    {
      "type": "node",
      "id": 158585972,
      "lat": 43.5911796,
      "lon": -75.111836,
      "timestamp": "2022-02-22T02:46:59Z",
      "version": 3,
      "changeset": 117707203,
      "user": "ke9tv",
      "uid": 591186,
      "tags": {
        "ele": "471",
        "gnis:id": "959572",
        "name": "Otter Lake",
        "nist:fips_code": "3655750",
        "place": "hamlet",
        "wikidata": "Q48740436",
        "wikipedia": "en:Otter Lake, New York"
      }
    },
    {
      "type": "node",
      "id": 158598096,
      "lat": 43.8700671,
      "lon": -75.1393502,
      "timestamp": "2008-12-06T16:35:19Z",
      "version": 2,
      "changeset": 158653,
      "user": "davidearl",
      "uid": 3582,
      "tags": {
        "ele": "442",
        "gnis:Class": "Populated Place",
        "gnis:County": "Herkimer",
        "gnis:County_num": "043",
        "gnis:ST_alpha": "NY",
        "gnis:ST_num": "36",
        "gnis:id": "957742",
        "import_uuid": "bb7269ee-502a-5391-8056-e3ce0e66489c",
        "is_in": "Herkimer,New York,N.Y.,NY,USA",
        "name": "Moshier Falls",
        "place": "hamlet"
      }
    },
    {
      "type": "node",
      "id": 158808482,
      "lat": 43.7099532,
      "lon": -74.974448,
      "timestamp": "2022-02-22T02:46:59Z",
      "version": 4,
      "changeset": 117707203,
      "user": "ke9tv",
      "uid": 591186,
      "tags": {
        "ele": "529",
        "gnis:id": "959281",
        "name": "Old Forge",
        "nist:fips_code": "3654639",
        "place": "hamlet",
        "wikidata": "Q7084012",
        "wikipedia": "en:Old Forge, New York"
      }
    },
    {
      "type": "node",
      "id": 158818596,
      "lat": 43.974229,
      "lon": -74.827402,
      "timestamp": "2008-12-06T16:38:33Z",
      "version": 2,
      "changeset": 158653,
      "user": "davidearl",
      "uid": 3582,
      "tags": {
        "ele": "534",
        "gnis:Class": "Populated Place",
        "gnis:County": "Hamilton",
        "gnis:County_num": "041",
        "gnis:ST_alpha": "NY",
        "gnis:ST_num": "36",
        "gnis:id": "972920",
        "import_uuid": "bb7269ee-502a-5391-8056-e3ce0e66489c",
        "is_in": "Hamilton,New York,N.Y.,NY,USA",
        "name": "Partlow",
        "place": "hamlet"
      }
    },
    {
      "type": "node",
      "id": 158821995,
      "lat": 43.6992339,
      "lon": -74.9262832,
      "timestamp": "2008-12-06T16:38:54Z",
      "version": 2,
      "changeset": 158653,
      "user": "davidearl",
      "uid": 3582,
      "tags": {
        "ele": "562",
        "gnis:Class": "Populated Place",
        "gnis:County": "Herkimer",
        "gnis:County_num": "043",
        "gnis:ST_alpha": "NY",
        "gnis:ST_num": "36",
        "gnis:id": "957951",
        "import_uuid": "bb7269ee-502a-5391-8056-e3ce0e66489c",
        "is_in": "Herkimer,New York,N.Y.,NY,USA",
        "name": "Mountain Lodge",
        "place": "hamlet"
      }
    },
    {
      "type": "node",
      "id": 158826927,
      "lat": 43.7695099,
      "lon": -74.816839,
      "timestamp": "2022-02-22T02:46:59Z",
      "version": 3,
      "changeset": 117707203,
      "user": "ke9tv",
      "uid": 591186,
      "tags": {
        "ele": "542",
        "gnis:id": "948907",
        "name": "Eagle Bay",
        "nist:fips_code": "3621380",
        "place": "hamlet",
        "wikidata": "Q5325019",
        "wikipedia": "en:Eagle Bay, New York"
      }
    },
    {
      "type": "node",
      "id": 158836352,
      "lat": 43.8183991,
      "lon": -74.9151774,
      "timestamp": "2008-12-06T16:39:24Z",
      "version": 2,
      "changeset": 158653,
      "user": "davidearl",
      "uid": 3582,
      "tags": {
        "ele": "626",
        "gnis:Class": "Populated Place",
        "gnis:County": "Herkimer",
        "gnis:County_num": "043",
        "gnis:ST_alpha": "NY",
        "gnis:ST_num": "36",
        "gnis:id": "943929",
        "import_uuid": "bb7269ee-502a-5391-8056-e3ce0e66489c",
        "is_in": "Herkimer,New York,N.Y.,NY,USA",
        "name": "Big Moose",
        "place": "hamlet"
      }
    },
    {
      "type": "node",
      "id": 158839168,
      "lat": 43.9575627,
      "lon": -74.8393463,
      "timestamp": "2008-12-06T16:39:34Z",
      "version": 2,
      "changeset": 158653,
      "user": "davidearl",
      "uid": 3582,
      "tags": {
        "ele": "523",
        "gnis:Class": "Populated Place",
        "gnis:County": "Hamilton",
        "gnis:County_num": "041",
        "gnis:ST_alpha": "NY",
        "gnis:ST_num": "36",
        "gnis:id": "972678",
        "import_uuid": "bb7269ee-502a-5391-8056-e3ce0e66489c",
        "is_in": "Hamilton,New York,N.Y.,NY,USA",
        "name": "Keepawa",
        "place": "hamlet"
      }
    },
    {
      "type": "node",
      "id": 158842389,
      "lat": 44.0042279,
      "lon": -74.7765678,
      "timestamp": "2008-12-06T16:39:41Z",
      "version": 2,
      "changeset": 158653,
      "user": "davidearl",
      "uid": 3582,
      "tags": {
        "ele": "543",
        "gnis:Class": "Populated Place",
        "gnis:County": "Hamilton",
        "gnis:County_num": "041",
        "gnis:ST_alpha": "NY",
        "gnis:ST_num": "36",
        "gnis:id": "972829",
        "import_uuid": "bb7269ee-502a-5391-8056-e3ce0e66489c",
        "is_in": "Hamilton,New York,N.Y.,NY,USA",
        "name": "Nehasane",
        "place": "hamlet"
      }
    },
    {
      "type": "node",
      "id": 158843412,
      "lat": 43.9286747,
      "lon": -74.8732354,
      "timestamp": "2008-12-06T16:39:50Z",
      "version": 2,
      "changeset": 158653,
      "user": "davidearl",
      "uid": 3582,
      "tags": {
        "ele": "516",
        "gnis:Class": "Populated Place",
        "gnis:County": "Hamilton",
        "gnis:County_num": "041",
        "gnis:ST_alpha": "NY",
        "gnis:ST_num": "36",
        "gnis:id": "972729",
        "import_uuid": "bb7269ee-502a-5391-8056-e3ce0e66489c",
        "is_in": "Hamilton,New York,N.Y.,NY,USA",
        "name": "Little Rapids",
        "place": "hamlet"
      }
    },
    {
      "type": "node",
      "id": 158843414,
      "lat": 43.8831183,
      "lon": -74.6043342,
      "timestamp": "2008-12-06T16:39:50Z",
      "version": 2,
      "changeset": 158653,
      "user": "davidearl",
      "uid": 3582,
      "tags": {
        "ele": "559",
        "gnis:Class": "Populated Place",
        "gnis:County": "Hamilton",
        "gnis:County_num": "041",
        "gnis:ST_alpha": "NY",
        "gnis:ST_num": "36",
        "gnis:id": "973288",
        "import_uuid": "bb7269ee-502a-5391-8056-e3ce0e66489c",
        "is_in": "Hamilton,New York,N.Y.,NY,USA",
        "name": "Woods",
        "place": "hamlet"
      }
    },
    {
      "type": "node",
      "id": 158844603,
      "lat": 43.9375632,
      "lon": -74.8526795,
      "timestamp": "2008-12-06T16:40:04Z",
      "version": 2,
      "changeset": 158653,
      "user": "davidearl",
      "uid": 3582,
      "tags": {
        "ele": "518",
        "gnis:Class": "Populated Place",
        "gnis:County": "Herkimer",
        "gnis:County_num": "043",
        "gnis:ST_alpha": "NY",
        "gnis:ST_num": "36",
        "gnis:id": "944628",
        "import_uuid": "bb7269ee-502a-5391-8056-e3ce0e66489c",
        "is_in": "Herkimer,New York,N.Y.,NY,USA",
        "name": "Brandreth",
        "place": "hamlet"
      }
    },
    {
      "type": "node",
      "id": 158846279,
      "lat": 44.0433942,
      "lon": -74.7476789,
      "timestamp": "2008-12-06T16:40:12Z",
      "version": 2,
      "changeset": 158653,
      "user": "davidearl",
      "uid": 3582,
      "tags": {
        "ele": "537",
        "gnis:Class": "Populated Place",
        "gnis:County": "Hamilton",
        "gnis:County_num": "041",
        "gnis:ST_alpha": "NY",
        "gnis:ST_num": "36",
        "gnis:id": "973013",
        "import_uuid": "bb7269ee-502a-5391-8056-e3ce0e66489c",
        "is_in": "Hamilton,New York,N.Y.,NY,USA",
        "name": "Robinwood",
        "place": "hamlet"
      }
    },
    {
      "type": "node",
      "id": 158851938,
      "lat": 43.8714519,
      "lon": -74.6343352,
      "timestamp": "2008-12-06T16:40:22Z",
      "version": 2,
      "changeset": 158653,
      "user": "davidearl",
      "uid": 3582,
      "tags": {
        "ele": "541",
        "gnis:Class": "Populated Place",
        "gnis:County": "Hamilton",
        "gnis:County_num": "041",
        "gnis:ST_alpha": "NY",
        "gnis:ST_num": "36",
        "gnis:id": "952337",
        "import_uuid": "bb7269ee-502a-5391-8056-e3ce0e66489c",
        "is_in": "Hamilton,New York,N.Y.,NY,USA",
        "name": "Hasbroucks",
        "place": "hamlet"
      }
    },
    {
      "type": "node",
      "id": 158858911,
      "lat": 44.0808942,
      "lon": -74.7026776,
      "timestamp": "2008-12-06T16:41:07Z",
      "version": 2,
      "changeset": 158653,
      "user": "davidearl",
      "uid": 3582,
      "tags": {
        "ele": "552",
        "gnis:Class": "Populated Place",
        "gnis:County": "Hamilton",
        "gnis:County_num": "041",
        "gnis:ST_alpha": "NY",
        "gnis:ST_num": "36",
        "gnis:id": "973032",
        "import_uuid": "bb7269ee-502a-5391-8056-e3ce0e66489c",
        "is_in": "Hamilton,New York,N.Y.,NY,USA",
        "name": "Sabattis",
        "place": "hamlet"
      }
    },
    {
      "type": "node",
      "id": 158862909,
      "lat": 43.7645093,
      "lon": -74.6282205,
      "timestamp": "2017-09-24T21:01:58Z",
      "version": 5,
      "changeset": 52339332,
      "user": "nyuriks",
      "uid": 339581,
      "tags": {
        "ele": "596",
        "gnis:Class": "Populated Place",
        "gnis:County": "Hamilton",
        "gnis:County_num": "041",
        "gnis:ST_alpha": "NY",
        "gnis:ST_num": "36",
        "gnis:id": "963219",
        "import_uuid": "bb7269ee-502a-5391-8056-e3ce0e66489c",
        "is_in": "Hamilton,New York,N.Y.,NY,USA",
        "name": "Sagamore",
        "place": "hamlet",
        "wikidata": "Q7398974",
        "wikipedia": "en:Sagamore Camp"
      }
    },
    {
      "type": "node",
      "id": 158863275,
      "lat": 43.8131196,
      "lon": -74.6573899,
      "timestamp": "2017-09-28T17:23:30Z",
      "version": 3,
      "changeset": 52452553,
      "user": "Edward",
      "uid": 364,
      "tags": {
        "ele": "538",
        "gnis:Class": "Populated Place",
        "gnis:County": "Hamilton",
        "gnis:County_num": "041",
        "gnis:ST_alpha": "NY",
        "gnis:ST_num": "36",
        "gnis:id": "962197",
        "import_uuid": "bb7269ee-502a-5391-8056-e3ce0e66489c",
        "is_in": "Hamilton,New York,N.Y.,NY,USA",
        "name": "Raquette Lake",
        "place": "hamlet",
        "wikidata": "Q3472789"
      }
    },
    {
      "type": "node",
      "id": 158863279,
      "lat": 43.754729,
      "lon": -74.793205,
      "timestamp": "2022-02-28T02:52:41Z",
      "version": 5,
      "changeset": 117927164,
      "user": "ke9tv",
      "uid": 591186,
      "tags": {
        "census:population": "391;2006",
        "ele": "533",
        "gnis:id": "953730",
        "name": "Inlet",
        "nist:fips_code": "3604137495",
        "place": "village",
        "population": "355",
        "ref:us:ny:swis": "202800",
        "source:population": "https://gis.ny.gov/civil-boundaries/ 2020",
        "wikidata": "Q3708550",
        "wikipedia": "en:Inlet, New York"
      }
    },
    {
      "type": "node",
      "id": 158863714,
      "lat": 43.8522879,
      "lon": -74.9512909,
      "timestamp": "2008-12-06T16:41:39Z",
      "version": 2,
      "changeset": 158653,
      "user": "davidearl",
      "uid": 3582,
      "tags": {
        "ele": "572",
        "gnis:Class": "Populated Place",
        "gnis:County": "Herkimer",
        "gnis:County_num": "043",
        "gnis:ST_alpha": "NY",
        "gnis:ST_num": "36",
        "gnis:id": "973291",
        "import_uuid": "bb7269ee-502a-5391-8056-e3ce0e66489c",
        "is_in": "Herkimer,New York,N.Y.,NY,USA",
        "name": "Woods Lake",
        "place": "hamlet"
      }
    },
    {
      "type": "node",
      "id": 158871468,
      "lat": 43.9036755,
      "lon": -74.9099025,
      "timestamp": "2008-12-06T16:41:58Z",
      "version": 2,
      "changeset": 158653,
      "user": "davidearl",
      "uid": 3582,
      "tags": {
        "ele": "516",
        "gnis:Class": "Populated Place",
        "gnis:County": "Herkimer",
        "gnis:County_num": "043",
        "gnis:ST_alpha": "NY",
        "gnis:ST_num": "36",
        "gnis:id": "943444",
        "import_uuid": "bb7269ee-502a-5391-8056-e3ce0e66489c",
        "is_in": "Herkimer,New York,N.Y.,NY,USA",
        "name": "Beaver River",
        "place": "hamlet"
      }
    },
    {
      "type": "node",
      "id": 304241566,
      "lat": 43.597626,
      "lon": -74.6236029,
      "timestamp": "2015-07-14T04:13:24Z",
      "version": 3,
      "changeset": 32618511,
      "user": "ke9tv",
      "uid": 591186,
      "tags": {
        "amenity": "shelter",
        "name": "West Lake Lean-to #2",
        "shelter_type": "lean_to"
      }
    },
    {
      "type": "node",
      "id": 304241916,
      "lat": 43.5804441,
      "lon": -74.5762241,
      "timestamp": "2019-10-22T02:21:54Z",
      "version": 3,
      "changeset": 76023740,
      "user": "iamkrzys",
      "uid": 610611,
      "tags": {
        "amenity": "shelter",
        "name": "Sampson Lake Lean-To"
      }
    },
    {
      "type": "node",
      "id": 304266953,
      "lat": 43.5933046,
      "lon": -74.6269602,
      "timestamp": "2015-07-14T04:13:24Z",
      "version": 3,
      "changeset": 32618511,
      "user": "ke9tv",
      "uid": 591186,
      "tags": {
        "amenity": "shelter",
        "name": "West Lake Lean-to #1",
        "shelter_type": "lean_to"
      }
    },
    {
      "type": "node",
      "id": 304311600,
      "lat": 43.5866616,
      "lon": -74.6213832,
      "timestamp": "2021-09-22T12:02:47Z",
      "version": 4,
      "changeset": 111540639,
      "user": "WArthurton",
      "uid": 14157530,
      "tags": {
        "amenity": "shelter",
        "name": "South Lake Lean-to",
        "operator": "NYSDEC",
        "shelter_type": "lean_to",
        "wheelchair": "no"
      }
    },
    {
      "type": "node",
      "id": 357549158,
      "lat": 43.7656206,
      "lon": -74.7612816,
      "timestamp": "2017-09-28T17:23:29Z",
      "version": 2,
      "changeset": 52452553,
      "user": "Edward",
      "uid": 364,
      "tags": {
        "ele": "748",
        "gnis:county_id": "041",
        "gnis:created": "01/23/1980",
        "gnis:feature_id": "944076",
        "gnis:state_id": "36",
        "name": "Black Bear Mountain",
        "natural": "peak",
        "wikidata": "Q34805464"
      }
    },
    {
      "type": "node",
      "id": 357549667,
      "lat": 43.8650631,
      "lon": -74.6110006,
      "timestamp": "2017-09-28T17:25:43Z",
      "version": 2,
      "changeset": 52452553,
      "user": "Edward",
      "uid": 364,
      "tags": {
        "ele": "695",
        "gnis:county_id": "041",
        "gnis:created": "01/23/1980",
        "gnis:feature_id": "944362",
        "gnis:state_id": "36",
        "name": "Bluff Point Hill",
        "natural": "peak",
        "wikidata": "Q34805838"
      }
    },
    {
      "type": "node",
      "id": 357550111,
      "lat": 43.7378431,
      "lon": -74.5546055,
      "timestamp": "2017-09-28T17:24:06Z",
      "version": 2,
      "changeset": 52452553,
      "user": "Edward",
      "uid": 364,
      "tags": {
        "ele": "957",
        "gnis:county_id": "041",
        "gnis:created": "01/23/1980",
        "gnis:feature_id": "944582",
        "gnis:state_id": "36",
        "name": "Bradley Mountain",
        "natural": "peak",
        "wikidata": "Q34806077"
      }
    },
    {
      "type": "node",
      "id": 357551244,
      "lat": 43.7764535,
      "lon": -74.5790521,
      "timestamp": "2017-09-28T17:23:43Z",
      "version": 2,
      "changeset": 52452553,
      "user": "Edward",
      "uid": 364,
      "tags": {
        "ele": "760",
        "gnis:county_id": "041",
        "gnis:created": "01/23/1980",
        "gnis:feature_id": "945038",
        "gnis:state_id": "36",
        "name": "Buck Mountain",
        "natural": "peak",
        "wikidata": "Q34806597"
      }
    },
    {
      "type": "node",
      "id": 357551273,
      "lat": 44.0528383,
      "lon": -74.5326687,
      "timestamp": "2017-09-28T17:25:15Z",
      "version": 2,
      "changeset": 52452553,
      "user": "Edward",
      "uid": 364,
      "tags": {
        "ele": "729",
        "gnis:county_id": "041",
        "gnis:created": "01/23/1980",
        "gnis:feature_id": "945043",
        "gnis:state_id": "36",
        "name": "Buck Mountain",
        "natural": "peak",
        "wikidata": "Q34806621"
      }
    },
    {
      "type": "node",
      "id": 357552545,
      "lat": 43.7870093,
      "lon": -74.7896165,
      "timestamp": "2017-09-28T17:24:42Z",
      "version": 2,
      "changeset": 52452553,
      "user": "Edward",
      "uid": 364,
      "tags": {
        "ele": "695",
        "gnis:county_id": "041",
        "gnis:created": "01/23/1980",
        "gnis:feature_id": "945951",
        "gnis:state_id": "36",
        "name": "Cascade Mountain",
        "natural": "peak",
        "wikidata": "Q34807755"
      }
    },
    {
      "type": "node",
      "id": 357552853,
      "lat": 43.7122879,
      "lon": -74.5429375,
      "timestamp": "2017-09-28T17:24:41Z",
      "version": 2,
      "changeset": 52452553,
      "user": "Edward",
      "uid": 364,
      "tags": {
        "ele": "1038",
        "gnis:county_id": "041",
        "gnis:created": "01/23/1980",
        "gnis:feature_id": "946166",
        "gnis:state_id": "36",
        "name": "Cellar Mountain",
        "natural": "peak",
        "wikidata": "Q34808408"
      }
    },
    {
      "type": "node",
      "id": 357554399,
      "lat": 43.6203448,
      "lon": -74.5571019,
      "timestamp": "2017-09-28T17:26:07Z",
      "version": 2,
      "changeset": 52452553,
      "user": "Edward",
      "uid": 364,
      "tags": {
        "ele": "826",
        "gnis:county_id": "041",
        "gnis:created": "01/23/1980",
        "gnis:feature_id": "946963",
        "gnis:state_id": "36",
        "name": "Cobble Hill",
        "natural": "peak",
        "wikidata": "Q34809008"
      }
    },
    {
      "type": "node",
      "id": 357558608,
      "lat": 43.7981199,
      "lon": -74.5904421,
      "timestamp": "2017-09-28T17:24:59Z",
      "version": 2,
      "changeset": 52452553,
      "user": "Edward",
      "uid": 364,
      "tags": {
        "ele": "769",
        "gnis:county_id": "041",
        "gnis:created": "01/23/1980",
        "gnis:feature_id": "949717",
        "gnis:state_id": "36",
        "name": "Estelle Mountain",
        "natural": "peak",
        "wikidata": "Q34822157"
      }
    },
    {
      "type": "node",
      "id": 357559244,
      "lat": 43.708677,
      "lon": -74.7798908,
      "timestamp": "2017-09-28T17:25:38Z",
      "version": 2,
      "changeset": 52452553,
      "user": "Edward",
      "uid": 364,
      "tags": {
        "ele": "711",
        "gnis:county_id": "041",
        "gnis:created": "01/23/1980",
        "gnis:feature_id": "949935",
        "gnis:state_id": "36",
        "name": "Fawn Lake Mountain",
        "natural": "peak",
        "wikidata": "Q34868188"
      }
    },
    {
      "type": "node",
      "id": 357560445,
      "lat": 43.8136751,
      "lon": -74.671835,
      "timestamp": "2017-09-28T17:25:20Z",
      "version": 2,
      "changeset": 52452553,
      "user": "Edward",
      "uid": 364,
      "tags": {
        "ele": "626",
        "gnis:county_id": "041",
        "gnis:created": "01/23/1980",
        "gnis:feature_id": "950577",
        "gnis:state_id": "36",
        "name": "Fox Mountain",
        "natural": "peak",
        "wikidata": "Q34822688"
      }
    },
    {
      "type": "node",
      "id": 357560567,
      "lat": 44.0067279,
      "lon": -74.7774013,
      "timestamp": "2017-09-28T17:24:46Z",
      "version": 2,
      "changeset": 52452553,
      "user": "Edward",
      "uid": 364,
      "tags": {
        "ele": "666",
        "gnis:county_id": "041",
        "gnis:created": "01/23/1980",
        "gnis:feature_id": "950647",
        "gnis:state_id": "36",
        "name": "Frederica Mountain",
        "natural": "peak",
        "wikidata": "Q34869820"
      }
    },
    {
      "type": "node",
      "id": 357560582,
      "lat": 43.9933948,
      "lon": -74.7951793,
      "timestamp": "2017-09-28T17:25:23Z",
      "version": 2,
      "changeset": 52452553,
      "user": "Edward",
      "uid": 364,
      "tags": {
        "ele": "686",
        "gnis:county_id": "041",
        "gnis:created": "01/23/1980",
        "gnis:feature_id": "950651",
        "gnis:state_id": "36",
        "name": "Mount Frederick",
        "natural": "peak",
        "wikidata": "Q34881367"
      }
    },
    {
      "type": "node",
      "id": 357561952,
      "lat": 43.6172893,
      "lon": -74.5432124,
      "timestamp": "2017-09-28T17:23:28Z",
      "version": 2,
      "changeset": 52452553,
      "user": "Edward",
      "uid": 364,
      "tags": {
        "ele": "822",
        "gnis:county_id": "041",
        "gnis:created": "01/23/1980",
        "gnis:feature_id": "951330",
        "gnis:state_id": "36",
        "name": "Goodluck Mountain",
        "natural": "peak",
        "wikidata": "Q34916750"
      }
    },
    {
      "type": "node",
      "id": 357562675,
      "lat": 43.7553428,
      "lon": -74.5923854,
      "timestamp": "2017-09-28T17:24:56Z",
      "version": 2,
      "changeset": 52452553,
      "user": "Edward",
      "uid": 364,
      "tags": {
        "ele": "788",
        "gnis:county_id": "041",
        "gnis:created": "01/23/1980",
        "gnis:feature_id": "951733",
        "gnis:state_id": "36",
        "name": "Green Top",
        "natural": "peak",
        "wikidata": "Q34870282"
      }
    },
    {
      "type": "node",
      "id": 357565282,
      "lat": 43.9953391,
      "lon": -74.7807344,
      "timestamp": "2017-09-28T17:25:46Z",
      "version": 2,
      "changeset": 52452553,
      "user": "Edward",
      "uid": 364,
      "tags": {
        "ele": "622",
        "gnis:county_id": "041",
        "gnis:created": "01/23/1980",
        "gnis:feature_id": "953120",
        "gnis:state_id": "36",
        "name": "Home Hill",
        "natural": "peak",
        "wikidata": "Q34824173"
      }
    },
    {
      "type": "node",
      "id": 357566155,
      "lat": 43.6131223,
      "lon": -74.7684973,
      "timestamp": "2017-09-28T17:23:37Z",
      "version": 2,
      "changeset": 52452553,
      "user": "Edward",
      "uid": 364,
      "tags": {
        "ele": "795",
        "gnis:county_id": "041",
        "gnis:created": "01/23/1980",
        "gnis:feature_id": "953675",
        "gnis:state_id": "36",
        "name": "Indian Lake Mountain",
        "natural": "peak",
        "wikidata": "Q34824863"
      }
    },
    {
      "type": "node",
      "id": 357568202,
      "lat": 43.6295111,
      "lon": -74.6229377,
      "timestamp": "2021-09-01T07:57:35Z",
      "version": 2,
      "changeset": 110549318,
      "user": "Edward",
      "uid": 364,
      "tags": {
        "ele": "983",
        "gnis:county_id": "041",
        "gnis:created": "01/23/1980",
        "gnis:feature_id": "954731",
        "gnis:state_id": "36",
        "name": "Kitty Cobble",
        "natural": "peak",
        "wikidata": "Q49041955"
      }
    },
    {
      "type": "node",
      "id": 357569360,
      "lat": 43.6700663,
      "lon": -74.5707151,
      "timestamp": "2017-09-28T17:24:44Z",
      "version": 2,
      "changeset": 52452553,
      "user": "Edward",
      "uid": 364,
      "tags": {
        "ele": "1100",
        "gnis:county_id": "041",
        "gnis:created": "01/23/1980",
        "gnis:feature_id": "955594",
        "gnis:state_id": "36",
        "name": "Little Moose Mountain",
        "natural": "peak",
        "wikidata": "Q34826722"
      }
    },
    {
      "type": "node",
      "id": 357569716,
      "lat": 44.0753385,
      "lon": -74.6396188,
      "timestamp": "2017-09-28T17:23:27Z",
      "version": 2,
      "changeset": 52452553,
      "user": "Edward",
      "uid": 364,
      "tags": {
        "ele": "702",
        "gnis:county_id": "041",
        "gnis:created": "01/23/1980",
        "gnis:feature_id": "955985",
        "gnis:state_id": "36",
        "name": "Loon Pond Mountain",
        "natural": "peak",
        "wikidata": "Q34925942"
      }
    },
    {
      "type": "node",
      "id": 357570158,
      "lat": 43.6653442,
      "lon": -74.5532143,
      "timestamp": "2017-09-28T17:26:00Z",
      "version": 2,
      "changeset": 52452553,
      "user": "Edward",
      "uid": 364,
      "tags": {
        "ele": "1053",
        "gnis:county_id": "041",
        "gnis:created": "01/23/1980",
        "gnis:feature_id": "956334",
        "gnis:state_id": "36",
        "name": "Manbury Mountain",
        "natural": "peak",
        "wikidata": "Q34926951"
      }
    },
    {
      "type": "node",
      "id": 357571770,
      "lat": 43.6622883,
      "lon": -74.7429432,
      "timestamp": "2017-09-28T17:25:28Z",
      "version": 2,
      "changeset": 52452553,
      "user": "Edward",
      "uid": 364,
      "tags": {
        "ele": "753",
        "gnis:county_id": "041",
        "gnis:created": "01/23/1980",
        "gnis:feature_id": "957451",
        "gnis:state_id": "36",
        "name": "Mitchell Ponds Mountain",
        "natural": "peak",
        "wikidata": "Q34828187"
      }
    },
    {
      "type": "node",
      "id": 357572016,
      "lat": 43.9564503,
      "lon": -74.5832244,
      "timestamp": "2017-09-28T17:24:32Z",
      "version": 2,
      "changeset": 52452553,
      "user": "Edward",
      "uid": 364,
      "tags": {
        "ele": "759",
        "gnis:county_id": "041",
        "gnis:created": "01/23/1980",
        "gnis:feature_id": "957635",
        "gnis:state_id": "36",
        "name": "Moose Pond Mountain",
        "natural": "peak",
        "wikidata": "Q34879820"
      }
    },
    {
      "type": "node",
      "id": 357576928,
      "lat": 43.9078401,
      "lon": -74.6446145,
      "timestamp": "2017-09-28T17:24:21Z",
      "version": 2,
      "changeset": 52452553,
      "user": "Edward",
      "uid": 364,
      "tags": {
        "ele": "841",
        "gnis:county_id": "041",
        "gnis:created": "01/23/1980",
        "gnis:feature_id": "960396",
        "gnis:state_id": "36",
        "name": "Pilgrim Mountain",
        "natural": "peak",
        "wikidata": "Q34892664"
      }
    },
    {
      "type": "node",
      "id": 357582628,
      "lat": 43.7695097,
      "lon": -74.7965605,
      "timestamp": "2017-09-28T17:25:49Z",
      "version": 2,
      "changeset": 52452553,
      "user": "Edward",
      "uid": 364,
      "tags": {
        "ele": "651",
        "gnis:county_id": "041",
        "gnis:created": "01/23/1980",
        "gnis:feature_id": "962782",
        "gnis:state_id": "36",
        "name": "Rocky Mountain",
        "natural": "peak",
        "wikidata": "Q34830628"
      }
    },
    {
      "type": "node",
      "id": 357587770,
      "lat": 43.9631169,
      "lon": -74.6460052,
      "timestamp": "2017-09-28T17:24:08Z",
      "version": 2,
      "changeset": 52452553,
      "user": "Edward",
      "uid": 364,
      "tags": {
        "ele": "762",
        "gnis:county_id": "041",
        "gnis:created": "01/23/1980",
        "gnis:feature_id": "964315",
        "gnis:state_id": "36",
        "name": "Salmon Lake Mountain",
        "natural": "peak",
        "wikidata": "Q34902919"
      }
    },
    {
      "type": "node",
      "id": 357588970,
      "lat": 43.7183988,
      "lon": -74.7404455,
      "timestamp": "2017-09-28T17:26:13Z",
      "version": 2,
      "changeset": 52452553,
      "user": "Edward",
      "uid": 364,
      "tags": {
        "ele": "883",
        "gnis:county_id": "041",
        "gnis:created": "01/23/1980",
        "gnis:feature_id": "964871",
        "gnis:state_id": "36",
        "name": "Seventh Lake Mountain",
        "natural": "peak",
        "wikidata": "Q34905442"
      }
    },
    {
      "type": "node",
      "id": 357590853,
      "lat": 43.7711758,
      "lon": -74.5626625,
      "timestamp": "2017-09-28T17:23:56Z",
      "version": 2,
      "changeset": 52452553,
      "user": "Edward",
      "uid": 364,
      "tags": {
        "ele": "794",
        "gnis:county_id": "041",
        "gnis:created": "01/23/1980",
        "gnis:feature_id": "966184",
        "gnis:state_id": "36",
        "name": "Squirrel Top",
        "natural": "peak",
        "wikidata": "Q34910512"
      }
    },
    {
      "type": "node",
      "id": 357593081,
      "lat": 43.6889547,
      "lon": -74.7201658,
      "timestamp": "2017-09-28T17:24:42Z",
      "version": 2,
      "changeset": 52452553,
      "user": "Edward",
      "uid": 364,
      "tags": {
        "ele": "795",
        "gnis:county_id": "041",
        "gnis:created": "01/23/1980",
        "gnis:feature_id": "967614",
        "gnis:state_id": "36",
        "name": "Mount Tom",
        "natural": "peak",
        "wikidata": "Q34884018"
      }
    },
    {
      "type": "node",
      "id": 357593084,
      "lat": 43.6920105,
      "lon": -74.7932237,
      "timestamp": "2017-09-28T17:24:18Z",
      "version": 2,
      "changeset": 52452553,
      "user": "Edward",
      "uid": 364,
      "tags": {
        "ele": "804",
        "gnis:county_id": "041",
        "gnis:created": "01/23/1980",
        "gnis:feature_id": "967615",
        "gnis:state_id": "36",
        "name": "Mount Tom",
        "natural": "peak",
        "wikidata": "Q34884031"
      }
    },
    {
      "type": "node",
      "id": 357593118,
      "lat": 44.0606172,
      "lon": -74.8135152,
      "timestamp": "2017-09-28T17:25:59Z",
      "version": 2,
      "changeset": 52452553,
      "user": "Edward",
      "uid": 364,
      "tags": {
        "ele": "633",
        "gnis:county_id": "041",
        "gnis:created": "01/23/1980",
        "gnis:feature_id": "967625",
        "gnis:state_id": "36",
        "name": "Tomar Mountain",
        "natural": "peak",
        "wikidata": "Q34813383"
      }
    },
    {
      "type": "node",
      "id": 357594660,
      "lat": 43.8172862,
      "lon": -74.6829467,
      "timestamp": "2017-09-28T17:25:52Z",
      "version": 2,
      "changeset": 52452553,
      "user": "Edward",
      "uid": 364,
      "tags": {
        "ele": "634",
        "gnis:county_id": "041",
        "gnis:created": "01/23/1980",
        "gnis:feature_id": "968631",
        "gnis:state_id": "36",
        "name": "Wadsworth Mountain",
        "natural": "peak",
        "wikidata": "Q34818400"
      }
    },
    {
      "type": "node",
      "id": 357595400,
      "lat": 44.0042282,
      "lon": -74.7982353,
      "timestamp": "2017-09-28T17:25:28Z",
      "version": 2,
      "changeset": 52452553,
      "user": "Edward",
      "uid": 364,
      "tags": {
        "ele": "691",
        "gnis:county_id": "041",
        "gnis:created": "01/23/1980",
        "gnis:feature_id": "968977",
        "gnis:state_id": "36",
        "name": "Webb Mountain",
        "natural": "peak",
        "wikidata": "Q34819166"
      }
    },
    {
      "type": "node",
      "id": 357596804,
      "lat": 43.8600632,
      "lon": -74.7060046,
      "timestamp": "2017-09-28T17:24:51Z",
      "version": 2,
      "changeset": 52452553,
      "user": "Edward",
      "uid": 364,
      "tags": {
        "ele": "891",
        "gnis:county_id": "041",
        "gnis:created": "01/23/1980",
        "gnis:feature_id": "970811",
        "gnis:state_id": "36",
        "name": "West Mountain",
        "natural": "peak",
        "wikidata": "Q34819678"
      }
    },
    {
      "type": "node",
      "id": 357598306,
      "lat": 43.9286737,
      "lon": -74.7954548,
      "timestamp": "2017-09-28T17:25:28Z",
      "version": 2,
      "changeset": 52452553,
      "user": "Edward",
      "uid": 364,
      "tags": {
        "ele": "705",
        "gnis:county_id": "041",
        "gnis:created": "03/01/1990",
        "gnis:feature_id": "972016",
        "gnis:state_id": "36",
        "name": "Albany Mountain",
        "natural": "peak",
        "wikidata": "Q34802061"
      }
    },
    {
      "type": "node",
      "id": 357598359,
      "lat": 43.8006199,
      "lon": -74.7323927,
      "timestamp": "2017-09-28T17:24:24Z",
      "version": 2,
      "changeset": 52452553,
      "user": "Edward",
      "uid": 364,
      "tags": {
        "ele": "674",
        "gnis:county_id": "041",
        "gnis:created": "03/01/1990",
        "gnis:feature_id": "972066",
        "gnis:state_id": "36",
        "name": "Cascade Mountain",
        "natural": "peak",
        "wikidata": "Q34807763"
      }
    },
    {
      "type": "node",
      "id": 357598368,
      "lat": 43.999505,
      "lon": -74.6073935,
      "timestamp": "2017-09-28T17:26:12Z",
      "version": 2,
      "changeset": 52452553,
      "user": "Edward",
      "uid": 364,
      "tags": {
        "ele": "705",
        "gnis:county_id": "041",
        "gnis:created": "03/01/1990",
        "gnis:feature_id": "972076",
        "gnis:state_id": "36",
        "name": "Antediluvian Mountain",
        "natural": "peak",
        "wikidata": "Q34802218"
      }
    },
    {
      "type": "node",
      "id": 357598371,
      "lat": 43.9161734,
      "lon": -74.7226739,
      "timestamp": "2017-09-28T17:23:39Z",
      "version": 2,
      "changeset": 52452553,
      "user": "Edward",
      "uid": 364,
      "tags": {
        "ele": "769",
        "gnis:county_id": "041",
        "gnis:created": "03/01/1990",
        "gnis:feature_id": "972085",
        "gnis:state_id": "36",
        "name": "Buck Mountain",
        "natural": "peak",
        "wikidata": "Q34806613"
      }
    },
    {
      "type": "node",
      "id": 893635996,
      "lat": 43.7028616,
      "lon": -75.0962777,
      "timestamp": "2010-09-03T01:04:01Z",
      "version": 1,
      "changeset": 5667157,
      "user": "stuuf",
      "uid": 20784,
      "tags": {
        "amenity": "shelter",
        "name": "Middle Branch Lake Lean-to"
      }
    },
    {
      "type": "node",
      "id": 894232479,
      "lat": 43.6854446,
      "lon": -75.0982987,
      "timestamp": "2010-09-03T14:48:49Z",
      "version": 1,
      "changeset": 5671297,
      "user": "stuuf",
      "uid": 20784,
      "tags": {
        "amenity": "shelter",
        "name": "Middle Settlement Lake Lean-to"
      }
    },
    {
      "type": "node",
      "id": 2306728680,
      "lat": 43.8129266,
      "lon": -74.6568348,
      "timestamp": "2020-09-07T20:58:00Z",
      "version": 2,
      "changeset": 90548726,
      "user": "JessAk71",
      "uid": 381909,
      "tags": {
        "name": "Raquette Lake Supply Co. General Store",
        "shop": "convenience"
      }
    },
    {
      "type": "node",
      "id": 2313491966,
      "lat": 43.8161113,
      "lon": -74.6448018,
      "timestamp": "2013-05-20T19:40:23Z",
      "version": 1,
      "changeset": 16215031,
      "user": "MarshallMatt",
      "uid": 1453127,
      "tags": {
        "amenity": "shelter",
        "source": "local_knowledge"
      }
    },
    {
      "type": "node",
      "id": 2313492053,
      "lat": 43.8172416,
      "lon": -74.6435143,
      "timestamp": "2013-05-20T19:40:43Z",
      "version": 1,
      "changeset": 16215031,
      "user": "MarshallMatt",
      "uid": 1453127,
      "tags": {
        "amenity": "shelter",
        "source": "local_knowledge"
      }
    },
    {
      "type": "node",
      "id": 2313492975,
      "lat": 43.8442375,
      "lon": -74.6337296,
      "timestamp": "2013-05-20T19:41:20Z",
      "version": 1,
      "changeset": 16215031,
      "user": "MarshallMatt",
      "uid": 1453127,
      "tags": {
        "amenity": "shelter"
      }
    },
    {
      "type": "node",
      "id": 2313493323,
      "lat": 43.8443149,
      "lon": -74.6326353,
      "timestamp": "2013-05-20T19:41:31Z",
      "version": 1,
      "changeset": 16215031,
      "user": "MarshallMatt",
      "uid": 1453127,
      "tags": {
        "amenity": "shelter"
      }
    },
    {
      "type": "node",
      "id": 2313493482,
      "lat": 43.8452744,
      "lon": -74.6324207,
      "timestamp": "2013-05-20T19:41:40Z",
      "version": 1,
      "changeset": 16215031,
      "user": "MarshallMatt",
      "uid": 1453127,
      "tags": {
        "amenity": "shelter"
      }
    },
    {
      "type": "node",
      "id": 2354235913,
      "lat": 43.752218,
      "lon": -74.7961286,
      "timestamp": "2013-06-20T22:37:11Z",
      "version": 1,
      "changeset": 16637026,
      "user": "Frank Hamlett",
      "uid": 1563107,
      "tags": {
        "amenity": "drinking_water"
      }
    },
    {
      "type": "node",
      "id": 2571803049,
      "lat": 43.7789421,
      "lon": -74.7043434,
      "timestamp": "2013-12-08T18:08:56Z",
      "version": 1,
      "changeset": 19345228,
      "user": "stuuf",
      "uid": 20784,
      "tags": {
        "amenity": "shelter",
        "source": "survey"
      }
    },
    {
      "type": "node",
      "id": 2571803056,
      "lat": 43.779943,
      "lon": -74.7045633,
      "timestamp": "2013-12-08T18:08:56Z",
      "version": 1,
      "changeset": 19345228,
      "user": "stuuf",
      "uid": 20784,
      "tags": {
        "amenity": "shelter",
        "source": "estimated"
      }
    },
    {
      "type": "node",
      "id": 2602977074,
      "lat": 43.6280846,
      "lon": -74.5404223,
      "timestamp": "2015-07-14T04:13:23Z",
      "version": 2,
      "changeset": 32618511,
      "user": "ke9tv",
      "uid": 591186,
      "tags": {
        "amenity": "shelter",
        "fireplace": "yes",
        "name": "Cedar Lakes Lean-to #1",
        "shelter_type": "lean_to"
      }
    },
    {
      "type": "node",
      "id": 2602977075,
      "lat": 43.6263646,
      "lon": -74.5494481,
      "timestamp": "2015-07-14T04:13:23Z",
      "version": 3,
      "changeset": 32618511,
      "user": "ke9tv",
      "uid": 591186,
      "tags": {
        "amenity": "shelter",
        "fireplace": "yes",
        "name": "Cedar Lakes Lean-to #2",
        "shelter_type": "lean_to"
      }
    },
    {
      "type": "node",
      "id": 2602977076,
      "lat": 43.6086522,
      "lon": -74.5596973,
      "timestamp": "2015-07-14T04:13:24Z",
      "version": 2,
      "changeset": 32618511,
      "user": "ke9tv",
      "uid": 591186,
      "tags": {
        "amenity": "shelter",
        "fireplace": "yes",
        "name": "Cedar Lakes Lean-to #3",
        "shelter_type": "lean_to"
      }
    },
    {
      "type": "node",
      "id": 3649879292,
      "lat": 43.6285829,
      "lon": -74.5377394,
      "timestamp": "2015-07-14T04:13:05Z",
      "version": 1,
      "changeset": 32618511,
      "user": "ke9tv",
      "uid": 591186,
      "tags": {
        "internet_access": "no",
        "name": "Cedar Lakes Dam campsite",
        "operator": "NYSDEC",
        "sanitary_dump_station": "no",
        "tourism": "camp_site",
        "wheelchair": "no"
      }
    },
    {
      "type": "node",
      "id": 3649879296,
      "lat": 43.5871841,
      "lon": -74.6211336,
      "timestamp": "2015-07-14T04:13:06Z",
      "version": 1,
      "changeset": 32618511,
      "user": "ke9tv",
      "uid": 591186,
      "tags": {
        "internet_access": "no",
        "name": "South Lake campsite",
        "operator": "NYSDEC",
        "sanitary_dump_station": "no",
        "tourism": "camp_site",
        "wheelchair": "no"
      }
    },
    {
      "type": "node",
      "id": 3649879299,
      "lat": 43.6093356,
      "lon": -74.5656024,
      "timestamp": "2015-07-14T04:13:06Z",
      "version": 1,
      "changeset": 32618511,
      "user": "ke9tv",
      "uid": 591186,
      "tags": {
        "internet_access": "no",
        "name": "Third Cedar Lake campsite",
        "operator": "NYSDEC",
        "sanitary_dump_station": "no",
        "tourism": "camp_site",
        "wheelchair": "no"
      }
    },
    {
      "type": "node",
      "id": 3649879300,
      "lat": 43.5868088,
      "lon": -74.6141157,
      "timestamp": "2015-07-14T04:13:06Z",
      "version": 1,
      "changeset": 32618511,
      "user": "ke9tv",
      "uid": 591186,
      "tags": {
        "amenity": "shelter",
        "fireplace": "yes",
        "name": "West Canada Creek lean-to",
        "shelter_type": "lean_to"
      }
    },
    {
      "type": "node",
      "id": 5113874406,
      "lat": 43.721196,
      "lon": -75.1187939,
      "timestamp": "2017-09-18T22:16:49Z",
      "version": 1,
      "changeset": 52158389,
      "user": "stuuf",
      "uid": 20784,
      "tags": {
        "source": "survey",
        "tourism": "camp_site"
      }
    },
    {
      "type": "node",
      "id": 5657601793,
      "lat": 43.9050431,
      "lon": -75.1955943,
      "timestamp": "2018-06-02T02:07:14Z",
      "version": 1,
      "changeset": 59475831,
      "user": "stuuf",
      "uid": 20784,
      "tags": {
        "source": "survey",
        "tourism": "camp_site"
      }
    },
    {
      "type": "node",
      "id": 5661851288,
      "lat": 43.5982539,
      "lon": -75.0186067,
      "timestamp": "2018-07-05T21:55:44Z",
      "version": 6,
      "changeset": 60448806,
      "user": "davnadz",
      "uid": 2079241,
      "tags": {
        "amenity": "shelter",
        "bench": "no",
        "bin": "no",
        "building:levels": "1",
        "description": "larger than usual size",
        "height": "2",
        "name": "Woodhull Lake Lean-to",
        "shelter_type": "lean_to",
        "source": "survey;gps"
      }
    },
    {
      "type": "node",
      "id": 5661851289,
      "lat": 43.6000694,
      "lon": -75.0521471,
      "timestamp": "2020-07-08T04:07:59Z",
      "version": 5,
      "changeset": 87682321,
      "user": "ppjj",
      "uid": 6771650,
      "tags": {
        "amenity": "shelter",
        "building:levels": "1",
        "height": "2",
        "name": "Bear Lake Lean-to",
        "shelter_type": "lean_to",
        "source": "gps;survey"
      }
    },
    {
      "type": "node",
      "id": 5662002302,
      "lat": 43.6024214,
      "lon": -75.0546898,
      "timestamp": "2018-07-05T21:55:44Z",
      "version": 2,
      "changeset": 60448806,
      "user": "davnadz",
      "uid": 2079241,
      "tags": {
        "source": "survey;gps",
        "tourism": "camp_site"
      }
    },
    {
      "type": "node",
      "id": 5662002303,
      "lat": 43.6149041,
      "lon": -75.0304169,
      "timestamp": "2018-07-10T07:00:11Z",
      "version": 4,
      "changeset": 60561819,
      "user": "davnadz",
      "uid": 2079241,
      "tags": {
        "fixme": "resurvey",
        "source": "survey;gps",
        "tourism": "camp_site"
      }
    },
    {
      "type": "node",
      "id": 5737491203,
      "lat": 43.5923719,
      "lon": -75.0058472,
      "timestamp": "2018-07-10T07:00:11Z",
      "version": 5,
      "changeset": 60561819,
      "user": "davnadz",
      "uid": 2079241,
      "tags": {
        "fixme": "resurvey",
        "source": "local knowledge",
        "tourism": "camp_site"
      }
    },
    {
      "type": "node",
      "id": 5737491204,
      "lat": 43.5889509,
      "lon": -74.9991839,
      "timestamp": "2018-07-10T07:00:11Z",
      "version": 5,
      "changeset": 60561819,
      "user": "davnadz",
      "uid": 2079241,
      "tags": {
        "fixme": "resurvey",
        "source": "local knowledge",
        "tourism": "camp_site"
      }
    },
    {
      "type": "node",
      "id": 5737491206,
      "lat": 43.6172863,
      "lon": -75.0323999,
      "timestamp": "2018-07-10T07:00:11Z",
      "version": 4,
      "changeset": 60561819,
      "user": "davnadz",
      "uid": 2079241,
      "tags": {
        "fixme": "resurvey",
        "source": "http://andyarthur.org/map-remsen-falls-trail.html",
        "tourism": "camp_site"
      }
    },
    {
      "type": "node",
      "id": 5737491207,
      "lat": 43.6105808,
      "lon": -75.0265849,
      "timestamp": "2018-07-10T07:00:11Z",
      "version": 4,
      "changeset": 60561819,
      "user": "davnadz",
      "uid": 2079241,
      "tags": {
        "fixme": "resurvey",
        "source": "http://andyarthur.org/map-remsen-falls-trail.html",
        "tourism": "camp_site"
      }
    },
    {
      "type": "node",
      "id": 5737491208,
      "lat": 43.6299457,
      "lon": -75.0363146,
      "timestamp": "2018-07-03T21:01:42Z",
      "version": 1,
      "changeset": 60391335,
      "user": "davnadz",
      "uid": 2079241,
      "tags": {
        "amenity": "shelter",
        "name": "Remsen Falls Lean-to",
        "shelter_type": "lean_to",
        "source": "http://andyarthur.org/map-remsen-falls-trail.html;aerial imagery"
      }
    },
    {
      "type": "node",
      "id": 5737491209,
      "lat": 43.6133715,
      "lon": -75.055436,
      "timestamp": "2018-07-10T06:46:59Z",
      "version": 4,
      "changeset": 60561819,
      "user": "davnadz",
      "uid": 2079241,
      "tags": {
        "backcountry": "yes",
        "operator": "NY DEC",
        "source": "http://andyarthur.org/map-remsen-falls-trail.html",
        "tents": "yes",
        "tourism": "camp_site"
      }
    },
    {
      "type": "node",
      "id": 5750905002,
      "lat": 43.6087444,
      "lon": -75.079236,
      "timestamp": "2018-07-10T06:46:55Z",
      "version": 1,
      "changeset": 60561819,
      "user": "davnadz",
      "uid": 2079241,
      "tags": {
        "backcountry": "yes",
        "operator": "NY DEC",
        "tents": "yes",
        "tourism": "camp_site"
      }
    },
    {
      "type": "node",
      "id": 5750905003,
      "lat": 43.6093736,
      "lon": -75.0705242,
      "timestamp": "2018-07-10T06:46:55Z",
      "version": 1,
      "changeset": 60561819,
      "user": "davnadz",
      "uid": 2079241,
      "tags": {
        "backcountry": "yes",
        "operator": "NY DEC",
        "tents": "yes",
        "tourism": "camp_site"
      }
    },
    {
      "type": "node",
      "id": 5750905004,
      "lat": 43.6131878,
      "lon": -75.061909,
      "timestamp": "2018-07-10T06:46:55Z",
      "version": 1,
      "changeset": 60561819,
      "user": "davnadz",
      "uid": 2079241,
      "tags": {
        "backcountry": "yes",
        "operator": "NY DEC",
        "tents": "yes",
        "tourism": "camp_site"
      }
    },
    {
      "type": "node",
      "id": 5750905005,
      "lat": 43.6057461,
      "lon": -75.0240322,
      "timestamp": "2018-07-10T06:46:55Z",
      "version": 1,
      "changeset": 60561819,
      "user": "davnadz",
      "uid": 2079241,
      "tags": {
        "backcountry": "yes",
        "operator": "NY DEC",
        "source": "survey;gps",
        "tents": "yes",
        "tourism": "camp_site"
      }
    },
    {
      "type": "node",
      "id": 5750905006,
      "lat": 43.6079088,
      "lon": -75.0248503,
      "timestamp": "2018-07-10T06:46:55Z",
      "version": 1,
      "changeset": 60561819,
      "user": "davnadz",
      "uid": 2079241,
      "tags": {
        "backcountry": "yes",
        "operator": "NY DEC",
        "source": "survey;gps",
        "tents": "yes",
        "tourism": "camp_site"
      }
    },
    {
      "type": "node",
      "id": 5750905007,
      "lat": 43.6177902,
      "lon": -75.0365797,
      "timestamp": "2018-07-10T06:46:55Z",
      "version": 1,
      "changeset": 60561819,
      "user": "davnadz",
      "uid": 2079241,
      "tags": {
        "backcountry": "yes",
        "operator": "NY DEC",
        "source": "survey;gps",
        "tents": "yes",
        "tourism": "camp_site"
      }
    },
    {
      "type": "node",
      "id": 5750905008,
      "lat": 43.6182038,
      "lon": -75.0358979,
      "timestamp": "2018-07-10T06:46:55Z",
      "version": 1,
      "changeset": 60561819,
      "user": "davnadz",
      "uid": 2079241,
      "tags": {
        "backcountry": "yes",
        "operator": "NY DEC",
        "source": "survey;gps",
        "tents": "yes",
        "tourism": "camp_site"
      }
    },
    {
      "type": "node",
      "id": 5750905017,
      "lat": 43.6270378,
      "lon": -75.0364498,
      "timestamp": "2018-07-10T06:46:55Z",
      "version": 1,
      "changeset": 60561819,
      "user": "davnadz",
      "uid": 2079241,
      "tags": {
        "backcountry": "yes",
        "operator": "NY DEC",
        "source": "survey;gps",
        "tents": "yes",
        "tourism": "camp_site"
      }
    },
    {
      "type": "node",
      "id": 5750905019,
      "lat": 43.625837,
      "lon": -75.0361706,
      "timestamp": "2018-07-10T06:46:55Z",
      "version": 1,
      "changeset": 60561819,
      "user": "davnadz",
      "uid": 2079241,
      "tags": {
        "backcountry": "yes",
        "operator": "NY DEC",
        "source": "survey;gps",
        "tents": "yes",
        "tourism": "camp_site"
      }
    },
    {
      "type": "node",
      "id": 5750905020,
      "lat": 43.6255973,
      "lon": -75.0358866,
      "timestamp": "2018-07-10T06:46:56Z",
      "version": 1,
      "changeset": 60561819,
      "user": "davnadz",
      "uid": 2079241,
      "tags": {
        "backcountry": "yes",
        "operator": "NY DEC",
        "source": "survey;gps",
        "tents": "yes",
        "tourism": "camp_site",
        "wheelchair": "yes"
      }
    },
    {
      "type": "node",
      "id": 5766626606,
      "lat": 43.6018826,
      "lon": -74.6561819,
      "timestamp": "2018-07-17T20:45:36Z",
      "version": 1,
      "changeset": 60813137,
      "user": "davnadz",
      "uid": 2079241,
      "tags": {
        "amenity": "shelter",
        "fireplace": "yes",
        "name": "Brooktrout Lake Lean-to",
        "shelter_type": "lean_to",
        "source": "survey;gps"
      }
    },
    {
      "type": "node",
      "id": 5766626607,
      "lat": 43.5982872,
      "lon": -74.6476471,
      "timestamp": "2018-07-17T20:45:36Z",
      "version": 1,
      "changeset": 60813137,
      "user": "davnadz",
      "uid": 2079241,
      "tags": {
        "backcountry": "yes",
        "operator": "NY DEC",
        "source": "survey;gps",
        "tents": "yes",
        "tourism": "camp_site"
      }
    },
    {
      "type": "node",
      "id": 5766626694,
      "lat": 43.6279922,
      "lon": -74.5379966,
      "timestamp": "2018-07-17T20:45:38Z",
      "version": 1,
      "changeset": 60813137,
      "user": "davnadz",
      "uid": 2079241,
      "tags": {
        "backcountry": "yes",
        "operator": "NY DEC",
        "tents": "yes",
        "tourism": "camp_site"
      }
    },
    {
      "type": "node",
      "id": 6052828527,
      "lat": 44.0835248,
      "lon": -74.7688758,
      "timestamp": "2018-11-11T15:06:54Z",
      "version": 1,
      "changeset": 64376877,
      "user": "giggling-walk",
      "uid": 22481,
      "tags": {
        "name": "22",
        "tourism": "camp_site"
      }
    },
    {
      "type": "node",
      "id": 6660820521,
      "lat": 43.7519842,
      "lon": -74.7956892,
      "timestamp": "2019-07-30T13:16:50Z",
      "version": 1,
      "changeset": 72812316,
      "user": "Loren S",
      "uid": 1819522,
      "tags": {
        "amenity": "shelter",
        "name": "Picnic Shelter",
        "shelter_type": "picnic_shelter"
      }
    },
    {
      "type": "node",
      "id": 6660824827,
      "lat": 43.6990425,
      "lon": -75.0050973,
      "timestamp": "2020-06-15T03:12:48Z",
      "version": 2,
      "changeset": 86641126,
      "user": "miluethi",
      "uid": 19488,
      "tags": {
        "amenity": "shelter",
        "name": "Picnic shelter",
        "shelter_type": "picnic_shelter"
      }
    },
    {
      "type": "node",
      "id": 6904306959,
      "lat": 43.6271409,
      "lon": -74.5503966,
      "timestamp": "2019-10-22T02:34:39Z",
      "version": 1,
      "changeset": 76023961,
      "user": "iamkrzys",
      "uid": 610611,
      "tags": {
        "tourism": "camp_site"
      }
    },
    {
      "type": "node",
      "id": 6904321956,
      "lat": 43.5968767,
      "lon": -74.5316403,
      "timestamp": "2019-10-22T02:21:54Z",
      "version": 1,
      "changeset": 76023740,
      "user": "iamkrzys",
      "uid": 610611,
      "tags": {
        "amenity": "shelter",
        "name": "Pillsbury Lake Lean-To",
        "shelter_type": "lean_to"
      }
    },
    {
      "type": "node",
      "id": 7600976285,
      "lat": 43.751334,
      "lon": -74.7317874,
      "timestamp": "2020-06-07T23:06:53Z",
      "version": 1,
      "changeset": 86321730,
      "user": "ADK_RAC",
      "uid": 11312085,
      "tags": {
        "tourism": "wilderness_hut"
      }
    },
    {
      "type": "node",
      "id": 7600976286,
      "lat": 43.751329,
      "lon": -74.7317762,
      "timestamp": "2020-06-07T23:06:54Z",
      "version": 1,
      "changeset": 86321730,
      "user": "ADK_RAC",
      "uid": 11312085,
      "tags": {
        "tourism": "camp_site"
      }
    },
    {
      "type": "node",
      "id": 7601188685,
      "lat": 43.7479366,
      "lon": -74.7444192,
      "timestamp": "2020-06-08T02:14:04Z",
      "version": 1,
      "changeset": 86324037,
      "user": "ADK_RAC",
      "uid": 11312085,
      "tags": {
        "name": "NYS Lean-to",
        "tourism": "wilderness_hut"
      }
    },
    {
      "type": "node",
      "id": 7667144095,
      "lat": 43.8912772,
      "lon": -74.5950847,
      "timestamp": "2020-07-01T17:26:44Z",
      "version": 2,
      "changeset": 87411940,
      "user": "ADK_RAC",
      "uid": 11312085,
      "tags": {
        "name": "Four NYS Primitive tent sites at this location",
        "tourism": "camp_site"
      }
    },
    {
      "type": "node",
      "id": 7674370785,
      "lat": 43.9028321,
      "lon": -74.5480447,
      "timestamp": "2020-07-01T17:26:43Z",
      "version": 1,
      "changeset": 87411940,
      "user": "ADK_RAC",
      "uid": 11312085,
      "tags": {
        "amenity": "shelter"
      }
    },
    {
      "type": "node",
      "id": 7678653585,
      "lat": 43.7508082,
      "lon": -74.7254236,
      "timestamp": "2020-07-03T01:24:16Z",
      "version": 1,
      "changeset": 87474707,
      "user": "ADK_RAC",
      "uid": 11312085,
      "tags": {
        "amenity": "shelter"
      }
    },
    {
      "type": "node",
      "id": 7678653586,
      "lat": 43.7540285,
      "lon": -74.7248234,
      "timestamp": "2020-07-03T01:24:17Z",
      "version": 1,
      "changeset": 87474707,
      "user": "ADK_RAC",
      "uid": 11312085,
      "tags": {
        "name": "NYS Designated Tent Site",
        "tourism": "camp_site"
      }
    },
    {
      "type": "node",
      "id": 7678658285,
      "lat": 43.7898022,
      "lon": -74.698595,
      "timestamp": "2022-01-13T21:50:42Z",
      "version": 2,
      "changeset": 116125929,
      "user": "JessAk71",
      "uid": 381909,
      "tags": {
        "amenity": "shelter",
        "name": "NYS 8th Lake Lean-to"
      }
    },
    {
      "type": "node",
      "id": 7678668385,
      "lat": 43.8186027,
      "lon": -74.6347033,
      "timestamp": "2020-07-03T01:49:25Z",
      "version": 1,
      "changeset": 87475015,
      "user": "ADK_RAC",
      "uid": 11312085,
      "tags": {
        "amenity": "shelter"
      }
    },
    {
      "type": "node",
      "id": 7678668386,
      "lat": 43.8710341,
      "lon": -74.629104,
      "timestamp": "2020-07-03T01:49:29Z",
      "version": 1,
      "changeset": 87475015,
      "user": "ADK_RAC",
      "uid": 11312085,
      "tags": {
        "amenity": "shelter"
      }
    },
    {
      "type": "node",
      "id": 7678668387,
      "lat": 43.8712825,
      "lon": -74.6283863,
      "timestamp": "2020-07-03T01:49:29Z",
      "version": 1,
      "changeset": 87475015,
      "user": "ADK_RAC",
      "uid": 11312085,
      "tags": {
        "amenity": "shelter"
      }
    },
    {
      "type": "node",
      "id": 7678668388,
      "lat": 43.8934735,
      "lon": -74.6201725,
      "timestamp": "2020-07-28T12:19:44Z",
      "version": 2,
      "changeset": 88619970,
      "user": "AlaskaDave",
      "uid": 473104,
      "tags": {
        "name": "Forked Lake West-end Campsite",
        "tourism": "camp_site"
      }
    },
    {
      "type": "node",
      "id": 7678668389,
      "lat": 43.8934604,
      "lon": -74.6173379,
      "timestamp": "2020-07-28T12:19:44Z",
      "version": 2,
      "changeset": 88619970,
      "user": "AlaskaDave",
      "uid": 473104,
      "tags": {
        "name": "Forked Lake West-end Campsite",
        "tourism": "camp_site"
      }
    },
    {
      "type": "node",
      "id": 7678668390,
      "lat": 43.8933785,
      "lon": -74.6155431,
      "timestamp": "2020-07-28T12:19:44Z",
      "version": 2,
      "changeset": 88619970,
      "user": "AlaskaDave",
      "uid": 473104,
      "tags": {
        "name": "Forked Lake West-end Campsite",
        "tourism": "camp_site"
      }
    },
    {
      "type": "node",
      "id": 7678668485,
      "lat": 43.8312739,
      "lon": -74.6605507,
      "timestamp": "2020-07-03T01:49:26Z",
      "version": 1,
      "changeset": 87475015,
      "user": "ADK_RAC",
      "uid": 11312085,
      "tags": {
        "amenity": "shelter"
      }
    },
    {
      "type": "node",
      "id": 7678668486,
      "lat": 43.8380312,
      "lon": -74.6812867,
      "timestamp": "2020-07-03T01:49:28Z",
      "version": 1,
      "changeset": 87475015,
      "user": "ADK_RAC",
      "uid": 11312085,
      "tags": {
        "name": "NYS designated tent site",
        "tourism": "camp_site"
      }
    },
    {
      "type": "node",
      "id": 7678668585,
      "lat": 43.8321046,
      "lon": -74.6616113,
      "timestamp": "2020-07-03T01:49:27Z",
      "version": 1,
      "changeset": 87475015,
      "user": "ADK_RAC",
      "uid": 11312085,
      "tags": {
        "amenity": "shelter"
      }
    },
    {
      "type": "node",
      "id": 7678668785,
      "lat": 43.8728794,
      "lon": -74.6251743,
      "timestamp": "2020-07-03T01:49:30Z",
      "version": 1,
      "changeset": 87475015,
      "user": "ADK_RAC",
      "uid": 11312085,
      "tags": {
        "amenity": "shelter"
      }
    },
    {
      "type": "node",
      "id": 7678668786,
      "lat": 43.8797494,
      "lon": -74.60628,
      "timestamp": "2020-07-28T12:19:44Z",
      "version": 2,
      "changeset": 88619970,
      "user": "AlaskaDave",
      "uid": 473104,
      "tags": {
        "amenity": "shelter",
        "name": "Outlet Bay Lean-to",
        "shelter_type": "lean_to"
      }
    },
    {
      "type": "node",
      "id": 7678668885,
      "lat": 43.8935904,
      "lon": -74.6148815,
      "timestamp": "2020-07-28T12:19:44Z",
      "version": 2,
      "changeset": 88619970,
      "user": "AlaskaDave",
      "uid": 473104,
      "tags": {
        "name": "Tent site",
        "tourism": "camp_site"
      }
    },
    {
      "type": "node",
      "id": 7723019775,
      "lat": 43.6075558,
      "lon": -75.1586187,
      "timestamp": "2020-07-17T05:21:12Z",
      "version": 1,
      "changeset": 88118920,
      "user": "ppjj",
      "uid": 6771650,
      "tags": {
        "name": "Moose River",
        "place": "hamlet"
      }
    },
    {
      "type": "node",
      "id": 8638754144,
      "lat": 43.7082104,
      "lon": -75.145579,
      "timestamp": "2021-04-23T07:37:25Z",
      "version": 2,
      "changeset": 103461217,
      "user": "mueschel",
      "uid": 616774,
      "tags": {
        "amenity": "shelter",
        "shelter_type": "lean_to",
        "toilets:disposal": "flush;composting"
      }
    },
    {
      "type": "node",
      "id": 8917810986,
      "lat": 43.6831296,
      "lon": -74.7316385,
      "timestamp": "2021-07-14T00:18:03Z",
      "version": 1,
      "changeset": 107937791,
      "user": "Bn5meMa0EJ",
      "uid": 6704354,
      "tags": {
        "name": "Site 71",
        "tourism": "camp_site"
      }
    },
    {
      "type": "node",
      "id": 8917829391,
      "lat": 43.683361,
      "lon": -74.7356492,
      "timestamp": "2021-07-14T00:18:03Z",
      "version": 1,
      "changeset": 107937791,
      "user": "Bn5meMa0EJ",
      "uid": 6704354,
      "tags": {
        "name": "Site 72",
        "tourism": "camp_site"
      }
    },
    {
      "type": "node",
      "id": 9561566421,
      "lat": 43.7184659,
      "lon": -74.9569837,
      "timestamp": "2022-03-08T01:11:57Z",
      "version": 1,
      "changeset": 118217562,
      "user": "JessAk71",
      "uid": 381909,
      "tags": {
        "name": "Old Forge Camping Resort Campground",
        "tourism": "camp_site"
      }
    },
    {
      "type": "node",
      "id": 9829542845,
      "lat": 44.0815081,
      "lon": -74.9674413,
      "timestamp": "2022-06-19T00:26:46Z",
      "version": 1,
      "changeset": 122564248,
      "user": "KissIstvan",
      "uid": 16313304,
      "tags": {
        "backcountry": "yes",
        "name": "Oswegatchie River Campsite 37",
        "tourism": "camp_site"
      }
    },
    {
      "type": "node",
      "id": 9829542846,
      "lat": 44.0807279,
      "lon": -74.9618412,
      "timestamp": "2022-06-19T00:26:46Z",
      "version": 1,
      "changeset": 122564248,
      "user": "KissIstvan",
      "uid": 16313304,
      "tags": {
        "backcountry": "yes",
        "name": "Oswegatchie River Campsite 36",
        "tourism": "camp_site"
      }
    },
    {
      "type": "node",
      "id": 9829542847,
      "lat": 44.0763498,
      "lon": -74.9620384,
      "timestamp": "2022-06-19T00:26:46Z",
      "version": 1,
      "changeset": 122564248,
      "user": "KissIstvan",
      "uid": 16313304,
      "tags": {
        "backcountry": "yes",
        "name": "Oswegatchie River Campsite 35",
        "tourism": "camp_site"
      }
    },
    {
      "type": "node",
      "id": 9829542849,
      "lat": 44.0742882,
      "lon": -74.9614809,
      "timestamp": "2022-06-19T00:26:46Z",
      "version": 1,
      "changeset": 122564248,
      "user": "KissIstvan",
      "uid": 16313304,
      "tags": {
        "amenity": "shelter",
        "name": "Cage Lake Springhole Lean-to",
        "shelter_type": "lean_to"
      }
    },
    {
      "type": "node",
      "id": 9829542854,
      "lat": 44.0734895,
      "lon": -74.9564749,
      "timestamp": "2022-06-19T00:26:46Z",
      "version": 1,
      "changeset": 122564248,
      "user": "KissIstvan",
      "uid": 16313304,
      "tags": {
        "backcountry": "yes",
        "name": "Oswegatchie River Campsite 33",
        "tourism": "camp_site"
      }
    },
    {
      "type": "node",
      "id": 9829542855,
      "lat": 44.0746503,
      "lon": -74.9543833,
      "timestamp": "2022-06-19T00:26:46Z",
      "version": 1,
      "changeset": 122564248,
      "user": "KissIstvan",
      "uid": 16313304,
      "tags": {
        "backcountry": "yes",
        "name": "Oswegatchie River Campsite 32",
        "tourism": "camp_site"
      }
    },
    {
      "type": "node",
      "id": 9829542860,
      "lat": 44.0697513,
      "lon": -74.9480303,
      "timestamp": "2022-06-19T00:26:46Z",
      "version": 1,
      "changeset": 122564248,
      "user": "KissIstvan",
      "uid": 16313304,
      "tags": {
        "backcountry": "yes",
        "name": "Oswegatchie River Campsite 31",
        "tourism": "camp_site"
      }
    },
    {
      "type": "node",
      "id": 9829542861,
      "lat": 44.0689529,
      "lon": -74.9462677,
      "timestamp": "2022-06-19T00:26:46Z",
      "version": 1,
      "changeset": 122564248,
      "user": "KissIstvan",
      "uid": 16313304,
      "tags": {
        "backcountry": "yes",
        "name": "Oswegatchie River Campsite 30",
        "tourism": "camp_site"
      }
    },
    {
      "type": "node",
      "id": 9829542862,
      "lat": 44.069881,
      "lon": -74.9430435,
      "timestamp": "2022-06-19T00:26:46Z",
      "version": 1,
      "changeset": 122564248,
      "user": "KissIstvan",
      "uid": 16313304,
      "tags": {
        "backcountry": "yes",
        "name": "Oswegatchie River Campgroud 29",
        "tourism": "camp_site"
      }
    },
    {
      "type": "node",
      "id": 9829542863,
      "lat": 44.0715588,
      "lon": -74.9386802,
      "timestamp": "2022-06-19T00:26:46Z",
      "version": 1,
      "changeset": 122564248,
      "user": "KissIstvan",
      "uid": 16313304,
      "tags": {
        "backcountry": "yes",
        "name": "Oswegatchie River Campground 28",
        "tourism": "camp_site"
      }
    },
    {
      "type": "node",
      "id": 9829542865,
      "lat": 44.0715636,
      "lon": -74.9337252,
      "timestamp": "2022-06-19T00:26:46Z",
      "version": 1,
      "changeset": 122564248,
      "user": "KissIstvan",
      "uid": 16313304,
      "tags": {
        "backcountry": "yes",
        "name": "Oswegatchie River Campground 27",
        "tourism": "camp_site"
      }
    },
    {
      "type": "node",
      "id": 9829542866,
      "lat": 44.0700074,
      "lon": -74.9319343,
      "timestamp": "2022-06-19T00:26:46Z",
      "version": 1,
      "changeset": 122564248,
      "user": "KissIstvan",
      "uid": 16313304,
      "tags": {
        "backcountry": "yes",
        "name": "Oswegatchie River Campground 26",
        "tourism": "camp_site"
      }
    },
    {
      "type": "node",
      "id": 9829542869,
      "lat": 44.0725415,
      "lon": -74.9295768,
      "timestamp": "2022-06-19T00:26:46Z",
      "version": 1,
      "changeset": 122564248,
      "user": "KissIstvan",
      "uid": 16313304,
      "tags": {
        "backcountry": "yes",
        "name": "Oswegatchie River Campsite 25",
        "tourism": "camp_site"
      }
    },
    {
      "type": "node",
      "id": 9829542870,
      "lat": 44.0732663,
      "lon": -74.9297402,
      "timestamp": "2022-06-19T00:26:46Z",
      "version": 1,
      "changeset": 122564248,
      "user": "KissIstvan",
      "uid": 16313304,
      "tags": {
        "backcountry": "yes",
        "name": "Oswegatchie River Campsite 24",
        "tourism": "camp_site"
      }
    },
    {
      "type": "node",
      "id": 9829542871,
      "lat": 44.0727227,
      "lon": -74.9290584,
      "timestamp": "2022-06-19T00:26:46Z",
      "version": 1,
      "changeset": 122564248,
      "user": "KissIstvan",
      "uid": 16313304,
      "tags": {
        "backcountry": "yes",
        "name": "Oswegatchie River Campsite 23",
        "tourism": "camp_site"
      }
    },
    {
      "type": "node",
      "id": 9829542872,
      "lat": 44.0722496,
      "lon": -74.9286194,
      "timestamp": "2022-06-19T00:26:46Z",
      "version": 1,
      "changeset": 122564248,
      "user": "KissIstvan",
      "uid": 16313304,
      "tags": {
        "backcountry": "yes",
        "name": "Oswegatchie River Camptsite 22",
        "tourism": "camp_site"
      }
    },
    {
      "type": "node",
      "id": 9829542875,
      "lat": 44.0774802,
      "lon": -74.9201761,
      "timestamp": "2022-06-19T00:26:46Z",
      "version": 1,
      "changeset": 122564248,
      "user": "KissIstvan",
      "uid": 16313304,
      "tags": {
        "backcountry": "yes",
        "name": "Oswegatchie River Campsite 21",
        "tourism": "camp_site"
      }
    },
    {
      "type": "node",
      "id": 9829542879,
      "lat": 44.074823,
      "lon": -74.9165989,
      "timestamp": "2022-06-19T00:26:46Z",
      "version": 1,
      "changeset": 122564248,
      "user": "KissIstvan",
      "uid": 16313304,
      "tags": {
        "backcountry": "yes",
        "name": "Oswegatchie River Campsite 20",
        "tourism": "camp_site"
      }
    },
    {
      "type": "node",
      "id": 9829542880,
      "lat": 44.0732595,
      "lon": -74.9141284,
      "timestamp": "2022-06-19T00:26:46Z",
      "version": 1,
      "changeset": 122564248,
      "user": "KissIstvan",
      "uid": 16313304,
      "tags": {
        "backcountry": "yes",
        "name": "Oswegatchie River Campsite 19",
        "tourism": "camp_site"
      }
    },
    {
      "type": "node",
      "id": 9829542882,
      "lat": 44.0702028,
      "lon": -74.9118211,
      "timestamp": "2022-06-19T00:26:46Z",
      "version": 1,
      "changeset": 122564248,
      "user": "KissIstvan",
      "uid": 16313304,
      "tags": {
        "backcountry": "yes",
        "name": "Oswegatchie River Campsite 17",
        "tourism": "camp_site"
      }
    },
    {
      "type": "node",
      "id": 9829542886,
      "lat": 44.0689642,
      "lon": -74.9112877,
      "timestamp": "2022-06-19T00:26:46Z",
      "version": 1,
      "changeset": 122564248,
      "user": "KissIstvan",
      "uid": 16313304,
      "tags": {
        "amenity": "shelter",
        "name": "High Falls No. 2 Lean-To",
        "shelter_type": "lean_to"
      }
    },
    {
      "type": "node",
      "id": 9829542887,
      "lat": 44.0691376,
      "lon": -74.9097052,
      "timestamp": "2022-06-19T00:26:46Z",
      "version": 1,
      "changeset": 122564248,
      "user": "KissIstvan",
      "uid": 16313304,
      "tags": {
        "backcountry": "yes",
        "name": "Oswegatchie River Campsite 16",
        "tourism": "camp_site"
      }
    },
    {
      "type": "node",
      "id": 9829542888,
      "lat": 44.0689218,
      "lon": -74.9093618,
      "timestamp": "2022-06-19T00:26:46Z",
      "version": 1,
      "changeset": 122564248,
      "user": "KissIstvan",
      "uid": 16313304,
      "tags": {
        "amenity": "shelter",
        "name": "High Falls No. 1 Lean-To",
        "shelter_type": "lean_to"
      }
    },
    {
      "type": "node",
      "id": 9829542889,
      "lat": 44.0683745,
      "lon": -74.909099,
      "timestamp": "2022-06-19T00:26:46Z",
      "version": 1,
      "changeset": 122564248,
      "user": "KissIstvan",
      "uid": 16313304,
      "tags": {
        "backcountry": "yes",
        "name": "Oswegatchie River Campsite 14",
        "tourism": "camp_site"
      }
    },
    {
      "type": "way",
      "id": 167922159,
      "timestamp": "2019-03-09T22:41:04Z",
      "version": 13,
      "changeset": 67973738,
      "user": "maggot27",
      "uid": 118021,
      "center": {
        "lat": 43.7536308,
        "lon": -74.8389943
      },
      "nodes": [],
      "tags": {
        "addr:city": "Old Forge",
        "addr:country": "US",
        "addr:housenumber": "2387",
        "addr:postcode": "13420",
        "addr:state": "NY",
        "addr:street": "South Shore Road",
        "cabins": "17",
        "contact:email": "brynilsensvikingvillage@gmail.com",
        "contact:phone": "+1 315 357 3150",
        "name": "Brynilsen's Viking Village",
        "old_name": "Camp Monroe",
        "short_name": "Viking Village",
        "tents": "no",
        "tourism": "camp_site"
      }
    },
    {
      "type": "way",
      "id": 226556952,
      "timestamp": "2020-06-13T04:47:33Z",
      "version": 5,
      "changeset": 86590260,
      "user": "NYbuildings",
      "uid": 5026594,
      "center": {
        "lat": 43.7510252,
        "lon": -74.794005
      },
      "nodes": [],
      "tags": {
        "addr:city": "Inlet",
        "addr:country": "US",
        "addr:housenumber": "169",
        "addr:postcode": "13360",
        "addr:state": "NY",
        "addr:street": "State Route 28",
        "building": "yes",
        "name": "Kalil's Market",
        "shop": "supermarket",
        "smoking": "no",
        "source": "NY State OpenData and ESRI Sat Imagery"
      }
    },
    {
      "type": "way",
      "id": 254471309,
      "timestamp": "2013-12-31T10:10:24Z",
      "version": 1,
      "changeset": 19729329,
      "user": "AlaskaDave",
      "uid": 473104,
      "center": {
        "lat": 43.5939441,
        "lon": -74.625367
      },
      "nodes": [],
      "tags": {
        "tourism": "camp_site"
      }
    },
    {
      "type": "way",
      "id": 429415437,
      "timestamp": "2020-10-24T02:22:18Z",
      "version": 4,
      "changeset": 92976853,
      "user": "ZeLonewolf",
      "uid": 219297,
      "center": {
        "lat": 43.7651288,
        "lon": -74.7099928
      },
      "nodes": [],
      "tags": {
        "facility": "Eighth Lake Campground",
        "governance": "government_managed",
        "name": "Eighth Lake Campground",
        "protection_object": "recreation",
        "protection_title": "Intensive Use",
        "related_law": "New York State Constitution, Article XIV",
        "site_ownership": "state",
        "source": "http://gis.ny.gov/gisdata/inventories/details.cfm?DSID=1114",
        "tourism": "camp_site",
        "website": "http://www.dec.ny.gov/outdoor/24465.html"
      }
    },
    {
      "type": "way",
      "id": 429545463,
      "timestamp": "2020-09-06T21:49:02Z",
      "version": 2,
      "changeset": 90494239,
      "user": "JessAk71",
      "uid": 381909,
      "center": {
        "lat": 43.8130987,
        "lon": -74.6016604
      },
      "nodes": [],
      "tags": {
        "boundary": "protected_area",
        "facility": "Golden Beach Campground",
        "governance": "government_managed",
        "name": "Golden Beach Campground",
        "protect_class": "21",
        "protection_object": "recreation",
        "protection_title": "Intensive Use",
        "related_law": "New York State Constitution, Article XIV",
        "site_ownership": "state",
        "source": "http://gis.ny.gov/gisdata/inventories/details.cfm?DSID=1114",
        "tourism": "camp_site",
        "website": "http://www.dec.ny.gov/outdoor/24468.html"
      }
    },
    {
      "type": "way",
      "id": 429790533,
      "timestamp": "2016-07-08T03:49:16Z",
      "version": 1,
      "changeset": 40559836,
      "user": "ke9tv-nysdec-lands",
      "uid": 4175714,
      "center": {
        "lat": 43.7445759,
        "lon": -74.8745397
      },
      "nodes": [],
      "tags": {
        "boundary": "protected_area",
        "facility": "Alger Island Campground",
        "governance": "government_managed",
        "name": "Alger Island Campground",
        "protect_class": "21",
        "protection_object": "recreation",
        "protection_title": "Intensive Use",
        "related_law": "New York State Constitution, Article XIV",
        "site_ownership": "state",
        "source": "http://gis.ny.gov/gisdata/inventories/details.cfm?DSID=1114",
        "tourism": "camp_site",
        "website": "http://www.dec.ny.gov/outdoor/24451.html"
      }
    },
    {
      "type": "way",
      "id": 429975438,
      "timestamp": "2016-07-09T01:16:15Z",
      "version": 1,
      "changeset": 40603826,
      "user": "ke9tv-nysdec-lands",
      "uid": 4175714,
      "center": {
        "lat": 43.8428594,
        "lon": -74.6311244
      },
      "nodes": [],
      "tags": {
        "boundary": "protected_area",
        "facility": "Tioga Point Campground",
        "governance": "government_managed",
        "name": "Tioga Point Campground",
        "protect_class": "21",
        "protection_object": "recreation",
        "protection_title": "Intensive Use",
        "related_law": "New York State Constitution, Article XIV",
        "site_ownership": "state",
        "source": "http://gis.ny.gov/gisdata/inventories/details.cfm?DSID=1114",
        "tourism": "camp_site",
        "website": "http://www.dec.ny.gov/outdoor/24499.html"
      }
    },
    {
      "type": "way",
      "id": 635431754,
      "timestamp": "2018-11-18T04:25:35Z",
      "version": 2,
      "changeset": 64611497,
      "user": "xforever1313",
      "uid": 2310158,
      "center": {
        "lat": 43.7163736,
        "lon": -74.9673289
      },
      "nodes": [],
      "tags": {
        "amenity": "shelter",
        "building": "yes",
        "name": "Sunshine Grove",
        "shelter_type": "pavilion",
        "source": "https://www.watersafari.com/plan-your-visit/park-map/"
      }
    },
    {
      "type": "way",
      "id": 635431757,
      "timestamp": "2018-11-18T04:33:10Z",
      "version": 2,
      "changeset": 64611554,
      "user": "xforever1313",
      "uid": 2310158,
      "center": {
        "lat": 43.7162782,
        "lon": -74.9666175
      },
      "nodes": [],
      "tags": {
        "amenity": "shelter",
        "building": "yes",
        "name": "Yukon Pavilion",
        "shelter_type": "pavilion",
        "source": "https://www.watersafari.com/plan-your-visit/park-map/"
      }
    },
    {
      "type": "way",
      "id": 635431758,
      "timestamp": "2018-11-18T04:25:35Z",
      "version": 2,
      "changeset": 64611497,
      "user": "xforever1313",
      "uid": 2310158,
      "center": {
        "lat": 43.716694,
        "lon": -74.9663221
      },
      "nodes": [],
      "tags": {
        "amenity": "shelter",
        "building": "yes",
        "name": "Evergreen Escape",
        "shelter_type": "pavilion",
        "source": "https://www.watersafari.com/plan-your-visit/park-map/"
      }
    },
    {
      "type": "way",
      "id": 635431769,
      "timestamp": "2018-11-18T04:25:34Z",
      "version": 2,
      "changeset": 64611497,
      "user": "xforever1313",
      "uid": 2310158,
      "center": {
        "lat": 43.7165148,
        "lon": -74.9657172
      },
      "nodes": [],
      "tags": {
        "amenity": "shelter",
        "building": "yes",
        "name": "Tidal Wave Pavilion",
        "shelter_type": "pavilion",
        "source": "https://www.watersafari.com/plan-your-visit/park-map/"
      }
    },
    {
      "type": "way",
      "id": 635431772,
      "timestamp": "2018-11-18T04:25:35Z",
      "version": 2,
      "changeset": 64611497,
      "user": "xforever1313",
      "uid": 2310158,
      "center": {
        "lat": 43.7169395,
        "lon": -74.9654397
      },
      "nodes": [],
      "tags": {
        "amenity": "shelter",
        "building": "yes",
        "name": "Expedition Pavilion",
        "shelter_type": "pavilion",
        "source": "https://www.watersafari.com/plan-your-visit/park-map/"
      }
    },
    {
      "type": "way",
      "id": 635431773,
      "timestamp": "2018-11-18T04:25:35Z",
      "version": 2,
      "changeset": 64611497,
      "user": "xforever1313",
      "uid": 2310158,
      "center": {
        "lat": 43.7167689,
        "lon": -74.9653699
      },
      "nodes": [],
      "tags": {
        "amenity": "shelter",
        "building": "yes",
        "name": "Island Retreat",
        "shelter_type": "pavilion",
        "source": "https://www.watersafari.com/plan-your-visit/park-map/"
      }
    },
    {
      "type": "way",
      "id": 635431774,
      "timestamp": "2018-11-18T04:25:34Z",
      "version": 2,
      "changeset": 64611497,
      "user": "xforever1313",
      "uid": 2310158,
      "center": {
        "lat": 43.7166999,
        "lon": -74.9651749
      },
      "nodes": [],
      "tags": {
        "amenity": "shelter",
        "building": "yes",
        "name": "Deer Haven",
        "shelter_type": "pavilion",
        "source": "https://www.watersafari.com/plan-your-visit/park-map/"
      }
    },
    {
      "type": "way",
      "id": 635431776,
      "timestamp": "2018-11-18T04:25:34Z",
      "version": 2,
      "changeset": 64611497,
      "user": "xforever1313",
      "uid": 2310158,
      "center": {
        "lat": 43.7165481,
        "lon": -74.9650943
      },
      "nodes": [],
      "tags": {
        "amenity": "shelter",
        "building": "yes",
        "name": "Paradise Cove",
        "shelter_type": "pavilion",
        "source": "https://www.watersafari.com/plan-your-visit/park-map/"
      }
    }
  ]
}