{
  "osm3s": {
    "timestamp_osm_date": "2021-11-08T23:59:59Z",
    "timestamp_osm_base": "2021-11-09T05:30:14Z",
    "copyright": "The data included in this document is from www.openstreetmap.org. The data is made available under ODbL."
  },
  "elements": [
    {
      "type": "node",
      "id": 1696761394,
      "lat": 69.1627359,
      "lon": 20.7450558,
      "timestamp": "2018-01-09T11:23:43Z",
      "version": 3,
      "changeset": 55290176,
      "user": "NorNorth",
      "uid": 420980,
      "tags": {
        "backcountry": "yes",
        "impromptu": "yes",
        "name": "Perskogens camping",
        "snowmobile": "yes",
        "tourism": "camp_site"
      }
    },
    {
      "type": "node",
      "id": 2493097059,
      "lat": 69.2077227,
      "lon": 20.6985315,
      "timestamp": "2018-09-10T15:46:49Z",
      "version": 2,
      "changeset": 62458675,
      "user": "Wulfmorn",
      "uid": 5198133,
      "tags": {
        "tourism": "camp_site"
      }
    },
    {
      "type": "node",
      "id": 5717117665,
      "lat": 69.2166718,
      "lon": 21.0934781,
      "timestamp": "2018-06-25T08:55:42Z",
      "version": 1,
      "changeset": 60141715,
      "user": "JyriK",
      "uid": 22190,
      "tags": {
        "natural": "spring"
      }
    },
    {
      "type": "node",
      "id": 5717117666,
      "lat": 69.2154472,
      "lon": 21.0870271,
      "timestamp": "2018-06-25T08:55:42Z",
      "version": 1,
      "changeset": 60141715,
      "user": "JyriK",
      "uid": 22190,
      "tags": {
        "natural": "spring"
      }
    },
    {
      "type": "node",
      "id": 5760232220,
      "lat": 69.4032677,
      "lon": 20.985002,
      "timestamp": "2021-07-03T15:22:50Z",
      "version": 2,
      "changeset": 107358381,
      "user": "Hjart",
      "uid": 207581,
      "tags": {
        "amenity": "shelter",
        "shelter_type": "lean_to"
      }
    },
    {
      "type": "node",
      "id": 8997838938,
      "lat": 69.2066003,
      "lon": 21.017048,
      "timestamp": "2021-08-11T07:05:14Z",
      "version": 1,
      "changeset": 109498518,
      "user": "|Yucca|",
      "uid": 3391786,
      "tags": {
        "natural": "spring"
      }
    },
    {
      "type": "node",
      "id": 8997839405,
      "lat": 69.2088412,
      "lon": 21.0283624,
      "timestamp": "2021-08-11T07:05:14Z",
      "version": 1,
      "changeset": 109498518,
      "user": "|Yucca|",
      "uid": 3391786,
      "tags": {
        "natural": "spring"
      }
    },
    {
      "type": "way",
      "id": 355321729,
      "timestamp": "2019-03-26T23:03:06Z",
      "version": 5,
      "changeset": 68566801,
      "user": "b-jazz-bot",
      "uid": 9451067,
      "center": {
        "lat": 69.2008549,
        "lon": 21.0145229
      },
      "nodes": [],
      "tags": {
        "addr:city": "Enontekiö",
        "building": "cabin",
        "building:levels": "1",
        "capacity": "6",
        "ele": "805",
        "fireplace": "stove",
        "mattress": "no",
        "name": "Lossujärvi autiotupa",
        "operator": "Metsähallitus",
        "pets": "allowed",
        "phone": "0205 64 7950",
        "reservation": "no",
        "shower": "no",
        "tourism": "wilderness_hut",
        "website": "https://www.luontoon.fi/lossujarviautiotupa"
      }
    },
    {
      "type": "way",
      "id": 467847175,
      "timestamp": "2018-06-29T11:53:52Z",
      "version": 3,
      "changeset": 60276794,
      "user": "JyriK",
      "uid": 22190,
      "center": {
        "lat": 69.1908876,
        "lon": 20.9831347
      },
      "nodes": [],
      "tags": {
        "building": "cabin",
        "name": "Loassuhytta",
        "tourism": "wilderness_hut"
      }
    }
  ]
}