{
  "osm3s": {
    "timestamp_osm_date": "2022-08-27T23:59:59Z",
    "timestamp_osm_base": "2022-08-28T04:39:02Z",
    "copyright": "The data included in this document is from www.openstreetmap.org. The data is made available under ODbL."
  },
  "elements": [
    {
      "type": "node",
      "id": 51971014,
      "lat": 52.8752336,
      "lon": -118.0824291,
      "timestamp": "2019-09-18T22:39:09Z",
      "version": 12,
      "changeset": 74647295,
      "user": "Matthew Darwin",
      "uid": 5633991,
      "tags": {
        "comment": "Experimental import of Canadian places and POIs from GNS Dataset",
        "gns:adm1": "01",
        "gns:cc1": "CA",
        "gns:dms_lat": "525300",
        "gns:dms_long": "-1180500",
        "gns:dsg": "PPL",
        "gns:fc": "P",
        "gns:jog": "NN11-10",
        "gns:lat": "52.883333",
        "gns:long": "-118.083333",
        "gns:mgrs": "11UMU2710259842",
        "gns:n:xx:full_name": "Jasper",
        "gns:n:xx:full_name_nd": "Jasper",
        "gns:n:xx:modify_date": "1993-12-14",
        "gns:n:xx:nt": "N",
        "gns:n:xx:sort_name": "JASPER",
        "gns:rc": "1",
        "gns:ufi": "-566786",
        "gns:uni": "-800747",
        "name": "Jasper",
        "name:ru": "Джаспер",
        "name:zh": "贾斯珀",
        "place": "town",
        "population": "4590",
        "source": "gns_ca",
        "website": "http://www.jasper-alberta.com",
        "wikidata": "Q999429",
        "wikipedia": "en:Jasper, Alberta"
      }
    },
    {
      "type": "node",
      "id": 674960328,
      "lat": 52.7469593,
      "lon": -117.7775282,
      "timestamp": "2015-07-26T22:06:55Z",
      "version": 3,
      "changeset": 32898602,
      "user": "cwilgo",
      "uid": 2224999,
      "tags": {
        "capacity": "7",
        "fee": "yes",
        "name": "Snowbowl Camp",
        "operator": "Parks Canada",
        "tourism": "camp_site"
      }
    },
    {
      "type": "node",
      "id": 674962151,
      "lat": 52.8107475,
      "lon": -117.8179652,
      "timestamp": "2017-09-05T19:22:07Z",
      "version": 3,
      "changeset": 51759649,
      "user": "wheelmap_visitor",
      "uid": 290680,
      "tags": {
        "capacity": "4",
        "fee": "yes",
        "name": "Watchtower Camp",
        "operator": "Parks Canada",
        "tourism": "camp_site",
        "wheelchair": "no"
      }
    },
    {
      "type": "node",
      "id": 915190670,
      "lat": 52.8744368,
      "lon": -118.0827936,
      "timestamp": "2013-06-24T23:24:23Z",
      "version": 2,
      "changeset": 16692247,
      "user": "mattropolis",
      "uid": 492807,
      "tags": {
        "name": "nutter's",
        "organic": "only",
        "shop": "supermarket"
      }
    },
    {
      "type": "node",
      "id": 1677731167,
      "lat": 52.8393341,
      "lon": -118.071521,
      "timestamp": "2018-07-10T15:20:00Z",
      "version": 3,
      "changeset": 60581588,
      "user": "pbryan",
      "uid": 12859,
      "tags": {
        "name": "Whistlers Campground",
        "source": "NRCan-CanVec-8.0",
        "tourism": "camp_site"
      }
    },
    {
      "type": "node",
      "id": 1938225427,
      "lat": 52.7346837,
      "lon": -117.7295432,
      "timestamp": "2015-08-05T15:11:25Z",
      "version": 4,
      "changeset": 33131273,
      "user": "cwilgo",
      "uid": 2224999,
      "tags": {
        "capacity": "7",
        "fee": "yes",
        "name": "Little Shovel Camp",
        "note": "Backcountry Camp Permit Required",
        "operator": "Parks Canada",
        "tourism": "camp_site"
      }
    },
    {
      "type": "node",
      "id": 1938225460,
      "lat": 52.8471926,
      "lon": -117.9207821,
      "timestamp": "2015-08-05T14:23:17Z",
      "version": 5,
      "changeset": 33129661,
      "user": "cwilgo",
      "uid": 2224999,
      "tags": {
        "capacity": "7",
        "fee": "yes",
        "name": "Tekarra Camp",
        "operator": "Parks Canada",
        "tourism": "camp_site"
      }
    },
    {
      "type": "node",
      "id": 3033817389,
      "lat": 52.8749066,
      "lon": -118.0817448,
      "timestamp": "2018-09-19T14:55:57Z",
      "version": 4,
      "changeset": 62733550,
      "user": "KentJacobs",
      "uid": 1919010,
      "tags": {
        "addr:city": "Jasper",
        "addr:street": "Patricia Drive",
        "name": "MAC's",
        "shop": "convenience",
        "wheelchair": "yes"
      }
    },
    {
      "type": "node",
      "id": 3066167417,
      "lat": 52.5406845,
      "lon": -117.9212636,
      "timestamp": "2016-11-01T12:10:25Z",
      "version": 3,
      "changeset": 43324527,
      "user": "fx99",
      "uid": 130472,
      "tags": {
        "name": "Mt Fryatt West Face Biv Site",
        "tourism": "camp_site"
      }
    },
    {
      "type": "node",
      "id": 3667825677,
      "lat": 52.7352063,
      "lon": -117.7040369,
      "timestamp": "2015-07-26T22:06:54Z",
      "version": 1,
      "changeset": 32898602,
      "user": "cwilgo",
      "uid": 2224999,
      "tags": {
        "capacity": "4",
        "fee": "yes",
        "name": "Evelyn Creek Camp",
        "operator": "Parks Canada",
        "tourism": "camp_site"
      }
    },
    {
      "type": "node",
      "id": 3667825678,
      "lat": 52.7863719,
      "lon": -117.8578703,
      "timestamp": "2018-07-16T14:00:48Z",
      "version": 4,
      "changeset": 60765968,
      "user": "Stefano Bernabei",
      "uid": 6425852,
      "tags": {
        "amenity": "drinking_water",
        "building": "cabin",
        "name": "Shovel Pass Lodge"
      }
    },
    {
      "type": "node",
      "id": 3667825679,
      "lat": 52.7864938,
      "lon": -117.8576767,
      "timestamp": "2015-08-04T19:02:47Z",
      "version": 2,
      "changeset": 33108439,
      "user": "cwilgo",
      "uid": 2224999,
      "tags": {
        "capacity": "7",
        "fee": "yes",
        "name": "Curator Camp",
        "operator": "Parks Canada",
        "tourism": "camp_site"
      }
    },
    {
      "type": "node",
      "id": 3667825691,
      "lat": 52.8724903,
      "lon": -117.9801462,
      "timestamp": "2015-07-26T22:06:55Z",
      "version": 1,
      "changeset": 32898602,
      "user": "cwilgo",
      "uid": 2224999,
      "tags": {
        "capacity": "4",
        "fee": "yes",
        "name": "Signal Camp",
        "operator": "Parks Canada",
        "tourism": "camp_site"
      }
    },
    {
      "type": "node",
      "id": 3681125025,
      "lat": 52.7973934,
      "lon": -117.8793547,
      "timestamp": "2015-08-04T19:02:38Z",
      "version": 1,
      "changeset": 33108439,
      "user": "cwilgo",
      "uid": 2224999,
      "tags": {
        "ele": "2480",
        "name": "The Notch",
        "natural": "saddle"
      }
    },
    {
      "type": "node",
      "id": 3682589710,
      "lat": 52.7343419,
      "lon": -117.7298667,
      "timestamp": "2015-08-05T15:13:19Z",
      "version": 1,
      "changeset": 33131322,
      "user": "cwilgo",
      "uid": 2224999,
      "tags": {
        "natural": "spring"
      }
    },
    {
      "type": "node",
      "id": 3701271988,
      "lat": 52.778808,
      "lon": -117.8310157,
      "timestamp": "2019-12-12T20:08:34Z",
      "version": 2,
      "changeset": 78336407,
      "user": "Viajero Perdido",
      "uid": 2365330,
      "tags": {
        "name": "Shovel Pass",
        "natural": "saddle",
        "source": "NRCan-CanVec-10.0"
      }
    },
    {
      "type": "node",
      "id": 3701812925,
      "lat": 52.7254127,
      "lon": -117.9245025,
      "timestamp": "2017-03-30T15:38:38Z",
      "version": 2,
      "changeset": 47296071,
      "user": "leFlips",
      "uid": 2882872,
      "tags": {
        "name": "Whirlpool Campground",
        "operator": "Parks Canada",
        "source": "NRCan-CanVec-10.0",
        "tourism": "camp_site"
      }
    },
    {
      "type": "node",
      "id": 3704825843,
      "lat": 52.4982626,
      "lon": -117.4562358,
      "timestamp": "2019-12-12T20:08:34Z",
      "version": 2,
      "changeset": 78336407,
      "user": "Viajero Perdido",
      "uid": 2365330,
      "tags": {
        "name": "Maligne Pass",
        "natural": "saddle",
        "source": "NRCan-CanVec-10.0"
      }
    },
    {
      "type": "node",
      "id": 3705066743,
      "lat": 52.6454706,
      "lon": -118.0850955,
      "timestamp": "2019-12-12T20:59:50Z",
      "version": 2,
      "changeset": 78337949,
      "user": "Viajero Perdido",
      "uid": 2365330,
      "tags": {
        "name": "Verdant Pass",
        "natural": "saddle",
        "source": "NRCan-CanVec-10.0"
      }
    },
    {
      "type": "node",
      "id": 4194126317,
      "lat": 52.5571009,
      "lon": -117.6799958,
      "timestamp": "2016-05-18T20:33:59Z",
      "version": 1,
      "changeset": 39410327,
      "user": "surfa86",
      "uid": 3269896,
      "tags": {
        "amenity": "drinking_water"
      }
    },
    {
      "type": "node",
      "id": 4194126318,
      "lat": 52.5555052,
      "lon": -117.679906,
      "timestamp": "2016-05-18T20:33:59Z",
      "version": 1,
      "changeset": 39410327,
      "user": "surfa86",
      "uid": 3269896,
      "tags": {
        "amenity": "drinking_water"
      }
    },
    {
      "type": "node",
      "id": 4305142027,
      "lat": 52.6526391,
      "lon": -117.5030782,
      "timestamp": "2016-07-15T21:13:33Z",
      "version": 2,
      "changeset": 40769238,
      "user": "3nity",
      "uid": 1793507,
      "tags": {
        "capacity": "8",
        "description": "Jasper Maligne Lake backcountry campsite",
        "name": "Fishermans Bay",
        "tourism": "camp_site"
      }
    },
    {
      "type": "node",
      "id": 4436446092,
      "lat": 52.849445,
      "lon": -118.0862603,
      "timestamp": "2016-10-07T17:01:02Z",
      "version": 1,
      "changeset": 42716509,
      "user": "Chanman",
      "uid": 3921736,
      "tags": {
        "tourism": "camp_site"
      }
    },
    {
      "type": "node",
      "id": 4902963043,
      "lat": 52.8607413,
      "lon": -118.0717154,
      "timestamp": "2017-06-08T00:09:08Z",
      "version": 1,
      "changeset": 49351402,
      "user": "mgb70",
      "uid": 139809,
      "tags": {
        "amenity": "drinking_water",
        "name": "Water drinking"
      }
    },
    {
      "type": "node",
      "id": 5860044386,
      "lat": 52.5753118,
      "lon": -117.818951,
      "timestamp": "2018-08-27T20:50:14Z",
      "version": 2,
      "changeset": 62051590,
      "user": "FS99A",
      "uid": 2444125,
      "tags": {
        "name": "Lower Fryatt Campground",
        "operator": "Parks Canada",
        "tourism": "camp_site"
      }
    },
    {
      "type": "node",
      "id": 5860050242,
      "lat": 52.5052867,
      "lon": -117.8819495,
      "timestamp": "2018-08-27T04:03:33Z",
      "version": 1,
      "changeset": 62021269,
      "user": "FS99A",
      "uid": 2444125,
      "tags": {
        "ele": "2074",
        "name": "Sydney Vallance (Fryatt) Hut",
        "operator": "The Alpine Club of Canada",
        "tourism": "alpine_hut"
      }
    },
    {
      "type": "node",
      "id": 5864241820,
      "lat": 52.5324933,
      "lon": -117.8569177,
      "timestamp": "2018-08-28T19:55:54Z",
      "version": 1,
      "changeset": 62083436,
      "user": "FS99A",
      "uid": 2444125,
      "tags": {
        "name": "Brussels",
        "operator": "Parks Canada",
        "tourism": "camp_site"
      }
    },
    {
      "type": "node",
      "id": 5864247181,
      "lat": 52.5080202,
      "lon": -117.8805108,
      "timestamp": "2018-09-04T06:06:15Z",
      "version": 2,
      "changeset": 62266563,
      "user": "FS99A",
      "uid": 2444125,
      "tags": {
        "name": "Headwall Campground",
        "operator": "Parks Canada",
        "tourism": "camp_site"
      }
    },
    {
      "type": "node",
      "id": 5960488462,
      "lat": 52.5325623,
      "lon": -117.8568358,
      "timestamp": "2018-10-06T02:48:29Z",
      "version": 1,
      "changeset": 63247136,
      "user": "Hannes Edinger",
      "uid": 674927,
      "tags": {
        "name": "Brussels Camp Site",
        "tourism": "camp_site"
      }
    },
    {
      "type": "node",
      "id": 5960489484,
      "lat": 52.5052202,
      "lon": -117.881951,
      "timestamp": "2018-10-06T02:48:27Z",
      "version": 1,
      "changeset": 63247136,
      "user": "Hannes Edinger",
      "uid": 674927,
      "tags": {
        "name": "ACC Fryett Hut (Sydney Vallance Hut) Elev. ~1990m",
        "tourism": "alpine_hut"
      }
    },
    {
      "type": "node",
      "id": 5960489661,
      "lat": 52.575593,
      "lon": -117.8186981,
      "timestamp": "2018-10-06T02:48:27Z",
      "version": 1,
      "changeset": 63247136,
      "user": "Hannes Edinger",
      "uid": 674927,
      "tags": {
        "name": "Lower Fryatt Camp Site",
        "tourism": "camp_site"
      }
    },
    {
      "type": "node",
      "id": 5960489662,
      "lat": 52.5093749,
      "lon": -117.8770228,
      "timestamp": "2018-10-06T02:48:28Z",
      "version": 1,
      "changeset": 63247136,
      "user": "Hannes Edinger",
      "uid": 674927,
      "tags": {
        "name": "Fryatt Head Wall Camp Site",
        "tourism": "camp_site"
      }
    },
    {
      "type": "node",
      "id": 7274755756,
      "lat": 52.7365791,
      "lon": -117.764149,
      "timestamp": "2020-03-07T18:49:41Z",
      "version": 1,
      "changeset": 81906792,
      "user": "Viajero Perdido",
      "uid": 2365330,
      "tags": {
        "name": "Little Shovel Pass",
        "natural": "saddle"
      }
    },
    {
      "type": "node",
      "id": 7689723385,
      "lat": 52.6018241,
      "lon": -118.0358385,
      "timestamp": "2020-07-07T00:47:42Z",
      "version": 1,
      "changeset": 87623268,
      "user": "DmitryMarin",
      "uid": 11453214,
      "tags": {
        "name": "Tie Camp",
        "tourism": "camp_site"
      }
    },
    {
      "type": "node",
      "id": 7689723386,
      "lat": 52.6269761,
      "lon": -117.9937024,
      "timestamp": "2020-07-07T00:47:43Z",
      "version": 1,
      "changeset": 87623268,
      "user": "DmitryMarin",
      "uid": 11453214,
      "tags": {
        "name": "Whirpul",
        "tourism": "camp_site"
      }
    },
    {
      "type": "node",
      "id": 8581611063,
      "lat": 52.5961949,
      "lon": -117.4232697,
      "timestamp": "2021-04-01T05:38:17Z",
      "version": 1,
      "changeset": 102094148,
      "user": "konradstan",
      "uid": 12937295,
      "tags": {
        "access": "yes",
        "backcountry": "yes",
        "name": "Coronet Creek",
        "tourism": "camp_site"
      }
    },
    {
      "type": "node",
      "id": 8581768567,
      "lat": 52.7034231,
      "lon": -117.613131,
      "timestamp": "2021-04-01T06:40:56Z",
      "version": 1,
      "changeset": 102098695,
      "user": "konradstan",
      "uid": 12937295,
      "tags": {
        "backcountry": "yes",
        "name": "Paddle Campground at Hidden Cove",
        "tourism": "camp_site"
      }
    },
    {
      "type": "node",
      "id": 8868997446,
      "lat": 52.5879602,
      "lon": -117.9432538,
      "timestamp": "2021-06-27T00:51:14Z",
      "version": 1,
      "changeset": 107020074,
      "user": "FS99A",
      "uid": 2444125,
      "tags": {
        "name": "South Geraldine Lake",
        "operator": "Parks Canada - Jasper National Park",
        "tourism": "camp_site"
      }
    },
    {
      "type": "way",
      "id": 75464706,
      "timestamp": "2022-04-04T19:12:47Z",
      "version": 11,
      "changeset": 119314862,
      "user": "yasobara",
      "uid": 1564381,
      "center": {
        "lat": 52.8469859,
        "lon": -118.0812792
      },
      "nodes": [],
      "tags": {
        "capacity": "781",
        "drinking_water": "yes",
        "fee": "yes",
        "internet_access": "no",
        "name": "Whistler Campground",
        "not:operator:wikidata": "Q349487",
        "operator": "Parks Canada",
        "phone": "+1-877-737-3783",
        "power_supply": "yes",
        "sanitary_dump_station": "yes",
        "toilets": "yes",
        "tourism": "camp_site",
        "website": "https://www.pc.gc.ca/eng/pn-np/ab/jasper/visit/visit2a.aspx"
      }
    },
    {
      "type": "way",
      "id": 172690839,
      "timestamp": "2021-01-30T01:01:16Z",
      "version": 8,
      "changeset": 98396192,
      "user": "marc__marc",
      "uid": 7272314,
      "center": {
        "lat": 52.8382442,
        "lon": -118.0640681
      },
      "nodes": [],
      "tags": {
        "capacity": "364",
        "caravans": "yes",
        "drinking_water": "yes",
        "fee": "yes",
        "internet_access": "no",
        "name": "Wapiti Campground",
        "operator": "Parks Canada",
        "power_supply": "yes",
        "reservation": "recommended",
        "static_caravans": "no",
        "tents": "yes",
        "toilets": "yes",
        "tourism": "camp_site",
        "website": "http://www.albertawow.com/campgrounds/Wapiti/Wapiti.htm"
      }
    },
    {
      "type": "way",
      "id": 272514729,
      "timestamp": "2018-09-02T19:31:35Z",
      "version": 6,
      "changeset": 62227487,
      "user": "ianb",
      "uid": 185998,
      "center": {
        "lat": 52.8761076,
        "lon": -118.0811698
      },
      "nodes": [],
      "tags": {
        "building": "yes",
        "name": "TGP Your Jasper Grocer",
        "opening_hours": "Mo-Su 07:00-22:00",
        "shop": "supermarket",
        "wheelchair": "yes"
      }
    },
    {
      "type": "way",
      "id": 272518098,
      "timestamp": "2017-11-25T16:28:25Z",
      "version": 3,
      "changeset": 54076448,
      "user": "Rps333",
      "uid": 596047,
      "center": {
        "lat": 52.8731955,
        "lon": -118.0831931
      },
      "nodes": [],
      "tags": {
        "addr:city": "Jasper",
        "addr:housenumber": "702",
        "addr:postcode": "T0E 1E0",
        "addr:street": "Connaught Drive",
        "building": "yes",
        "name": "Esso Snack Shop",
        "phone": "+1-780-852-4721",
        "shop": "convenience"
      }
    },
    {
      "type": "way",
      "id": 301398688,
      "timestamp": "2021-10-27T10:23:22Z",
      "version": 9,
      "changeset": 113030512,
      "user": "Rps333",
      "uid": 596047,
      "center": {
        "lat": 52.8808597,
        "lon": -118.0791353
      },
      "nodes": [],
      "tags": {
        "addr:housenumber": "340",
        "addr:street": "Connaught Drive",
        "building": "yes",
        "name": "Nesters Market",
        "opening_hours": "Mo-Su 08:00-21:00",
        "phone": "+1-780-852-3195",
        "shop": "supermarket",
        "website": "http://robinsonfoods.com",
        "wheelchair": "yes"
      }
    },
    {
      "type": "way",
      "id": 363153045,
      "timestamp": "2015-07-30T13:19:56Z",
      "version": 1,
      "changeset": 32980013,
      "user": "jmfrenzel",
      "uid": 442575,
      "center": {
        "lat": 52.8495647,
        "lon": -118.0782246
      },
      "nodes": [],
      "tags": {
        "amenity": "shelter",
        "name": "cooking shelter",
        "shelter_type": "cooking_shelter"
      }
    },
    {
      "type": "way",
      "id": 365369749,
      "timestamp": "2019-08-25T03:10:51Z",
      "version": 5,
      "changeset": 73708533,
      "user": "badenk",
      "uid": 3072104,
      "center": {
        "lat": 52.7665305,
        "lon": -117.991479
      },
      "nodes": [],
      "tags": {
        "capacity": "235",
        "name": "Wabasso Campground",
        "operator": "Parks Canada",
        "tourism": "camp_site"
      }
    },
    {
      "type": "way",
      "id": 366195843,
      "timestamp": "2020-02-05T00:35:15Z",
      "version": 3,
      "changeset": 80558379,
      "user": "zzptichka",
      "uid": 215433,
      "center": {
        "lat": 52.6323019,
        "lon": -117.8659076
      },
      "nodes": [],
      "tags": {
        "capacity": "41",
        "name": "Mount Kerkeslin",
        "source": "NRCan-CanVec-10.0",
        "tourism": "camp_site"
      }
    },
    {
      "type": "way",
      "id": 419322797,
      "timestamp": "2020-02-05T00:37:02Z",
      "version": 2,
      "changeset": 80558395,
      "user": "zzptichka",
      "uid": 215433,
      "center": {
        "lat": 52.5562063,
        "lon": -117.6807718
      },
      "nodes": [],
      "tags": {
        "capacity": "35",
        "fee": "yes",
        "name": "Honeymoon Lake Campground",
        "tourism": "camp_site",
        "website": "http://www.pc.gc.ca/eng/pn-np/ab/jasper/activ/ete-summer/camping/info-camping.aspx#honeymoon"
      }
    },
    {
      "type": "way",
      "id": 521635181,
      "timestamp": "2017-09-05T19:41:24Z",
      "version": 1,
      "changeset": 51761250,
      "user": "Pascal Petzoldt",
      "uid": 1375126,
      "center": {
        "lat": 52.8515968,
        "lon": -118.0805015
      },
      "nodes": [],
      "tags": {
        "amenity": "shelter",
        "building": "yes"
      }
    },
    {
      "type": "way",
      "id": 622106789,
      "timestamp": "2018-09-03T06:25:34Z",
      "version": 2,
      "changeset": 62236358,
      "user": "ianb",
      "uid": 185998,
      "center": {
        "lat": 52.8385403,
        "lon": -118.0637095
      },
      "nodes": [],
      "tags": {
        "amenity": "shelter",
        "bin": "no",
        "building": "yes",
        "shelter_type": "picnic_shelter"
      }
    },
    {
      "type": "way",
      "id": 622106794,
      "timestamp": "2018-09-12T04:04:30Z",
      "version": 3,
      "changeset": 62507215,
      "user": "Wookey",
      "uid": 629,
      "center": {
        "lat": 52.8370253,
        "lon": -118.063897
      },
      "nodes": [],
      "tags": {
        "amenity": "shelter",
        "bin": "no",
        "building": "yes",
        "shelter_type": "picnic_shelter"
      }
    },
    {
      "type": "way",
      "id": 622106796,
      "timestamp": "2018-09-03T06:25:33Z",
      "version": 2,
      "changeset": 62236358,
      "user": "ianb",
      "uid": 185998,
      "center": {
        "lat": 52.8350321,
        "lon": -118.0603235
      },
      "nodes": [],
      "tags": {
        "amenity": "shelter",
        "building": "yes",
        "shelter_type": "picnic_shelter"
      }
    },
    {
      "type": "way",
      "id": 622106799,
      "timestamp": "2018-09-03T06:25:34Z",
      "version": 2,
      "changeset": 62236358,
      "user": "ianb",
      "uid": 185998,
      "center": {
        "lat": 52.8409394,
        "lon": -118.0649456
      },
      "nodes": [],
      "tags": {
        "amenity": "shelter",
        "building": "yes",
        "shelter_type": "picnic_shelter"
      }
    }
  ]
}