{
  "osm3s": {
    "timestamp_osm_date": "2022-08-20T23:59:59Z",
    "timestamp_osm_base": "2022-08-21T04:32:43Z",
    "copyright": "The data included in this document is from www.openstreetmap.org. The data is made available under ODbL."
  },
  "elements": [
    {
      "type": "node",
      "id": 150941046,
      "lat": 44.3772054,
      "lon": -111.4053412,
      "timestamp": "2020-01-20T23:24:40Z",
      "version": 4,
      "changeset": 79820692,
      "user": "Allison P",
      "uid": 9097970,
      "tags": {
        "ele": "1884",
        "gnis:County": "Fremont",
        "gnis:County_num": "043",
        "gnis:ST_alpha": "ID",
        "gnis:ST_num": "16",
        "gnis:id": "396172",
        "name": "Box Canyon",
        "place": "hamlet"
      }
    },
    {
      "type": "node",
      "id": 150943185,
      "lat": 44.3647576,
      "lon": -111.4005438,
      "timestamp": "2020-01-20T23:24:40Z",
      "version": 5,
      "changeset": 79820692,
      "user": "Allison P",
      "uid": 9097970,
      "tags": {
        "ele": "1875",
        "gnis:County": "Fremont",
        "gnis:County_num": "043",
        "gnis:ST_alpha": "ID",
        "gnis:ST_num": "16",
        "gnis:id": "396770",
        "name": "Last Chance",
        "place": "hamlet",
        "wikidata": "Q6494175"
      }
    },
    {
      "type": "node",
      "id": 150946730,
      "lat": 44.423807,
      "lon": -111.371422,
      "timestamp": "2020-03-18T00:03:10Z",
      "version": 5,
      "changeset": 82321483,
      "user": "mapman44",
      "uid": 2888253,
      "tags": {
        "census:population": "275;2006",
        "ele": "1918",
        "gnis:County": "Fremont",
        "gnis:County_num": "043",
        "gnis:ST_alpha": "ID",
        "gnis:ST_num": "16",
        "gnis:id": "396695",
        "import_uuid": "bb7269ee-502a-5391-8056-e3ce0e66489c",
        "name": "Island Park",
        "place": "village",
        "population": "275",
        "wikidata": "Q1513458"
      }
    },
    {
      "type": "node",
      "id": 150949501,
      "lat": 44.1149152,
      "lon": -111.3207842,
      "timestamp": "2020-01-20T23:24:40Z",
      "version": 3,
      "changeset": 79820692,
      "user": "Allison P",
      "uid": 9097970,
      "tags": {
        "census:population": "10;2006",
        "ele": "1614",
        "gnis:County": "Fremont",
        "gnis:County_num": "043",
        "gnis:ST_alpha": "ID",
        "gnis:ST_num": "16",
        "gnis:id": "398317",
        "name": "Warm River",
        "place": "hamlet",
        "population": "10"
      }
    },
    {
      "type": "node",
      "id": 150965404,
      "lat": 44.498277,
      "lon": -111.2557514,
      "timestamp": "2020-01-20T23:24:40Z",
      "version": 4,
      "changeset": 79820692,
      "user": "Allison P",
      "uid": 9097970,
      "tags": {
        "ele": "1950",
        "gnis:County": "Fremont",
        "gnis:County_num": "043",
        "gnis:ST_alpha": "ID",
        "gnis:ST_num": "16",
        "gnis:id": "396120",
        "name": "Big Springs",
        "place": "hamlet"
      }
    },
    {
      "type": "node",
      "id": 150976041,
      "lat": 44.4971937,
      "lon": -111.3297404,
      "timestamp": "2020-03-18T00:03:10Z",
      "version": 6,
      "changeset": 82321483,
      "user": "mapman44",
      "uid": 2888253,
      "tags": {
        "ele": "1943",
        "gnis:County": "Fremont",
        "gnis:County_num": "043",
        "gnis:ST_alpha": "ID",
        "gnis:ST_num": "16",
        "gnis:id": "399485",
        "import_uuid": "bb7269ee-502a-5391-8056-e3ce0e66489c",
        "name": "Mack's Inn",
        "place": "village"
      }
    },
    {
      "type": "node",
      "id": 357937394,
      "lat": 44.5801972,
      "lon": -111.5430162,
      "timestamp": "2020-11-11T19:59:47Z",
      "version": 2,
      "changeset": 93949438,
      "user": "Edward",
      "uid": 364,
      "tags": {
        "ele": "2845",
        "gnis:county_id": "001",
        "gnis:created": "04/04/1980",
        "gnis:feature_id": "787949",
        "gnis:state_id": "30",
        "name": "Nemesis Mountain",
        "natural": "peak",
        "wikidata": "Q49056737"
      }
    },
    {
      "type": "node",
      "id": 357939030,
      "lat": 44.5763059,
      "lon": -111.7341307,
      "timestamp": "2020-11-11T19:59:55Z",
      "version": 2,
      "changeset": 93949438,
      "user": "Edward",
      "uid": 364,
      "tags": {
        "ele": "2926",
        "gnis:county_id": "001",
        "gnis:created": "04/04/1980",
        "gnis:feature_id": "790353",
        "gnis:state_id": "30",
        "name": "Sheep Mountain",
        "natural": "peak",
        "wikidata": "Q49072917"
      }
    },
    {
      "type": "node",
      "id": 357941400,
      "lat": 44.5782512,
      "lon": -111.6599628,
      "timestamp": "2020-11-11T19:58:06Z",
      "version": 2,
      "changeset": 93949438,
      "user": "Edward",
      "uid": 364,
      "tags": {
        "ele": "2114",
        "gnis:county_id": "001",
        "gnis:created": "09/01/1992",
        "gnis:feature_id": "794869",
        "gnis:state_id": "30",
        "name": "Arrowhead Mountain",
        "natural": "peak",
        "wikidata": "Q49009092"
      }
    },
    {
      "type": "node",
      "id": 2494398643,
      "lat": 44.5005723,
      "lon": -111.2549588,
      "timestamp": "2019-06-12T21:57:31Z",
      "version": 5,
      "changeset": 71196305,
      "user": "aweech",
      "uid": 8482773,
      "tags": {
        "name": "Big Springs",
        "natural": "spring",
        "wikidata": "Q4906448"
      }
    },
    {
      "type": "node",
      "id": 3206549836,
      "lat": 44.4975328,
      "lon": -111.2544781,
      "timestamp": "2019-06-12T21:57:31Z",
      "version": 2,
      "changeset": 71196305,
      "user": "aweech",
      "uid": 8482773,
      "tags": {
        "name": "Big Springs",
        "tourism": "camp_site"
      }
    },
    {
      "type": "node",
      "id": 3229796914,
      "lat": 44.2661052,
      "lon": -111.4571622,
      "timestamp": "2014-12-11T14:44:50Z",
      "version": 1,
      "changeset": 27399791,
      "user": "Richard",
      "uid": 165,
      "tags": {
        "tourism": "camp_site"
      }
    },
    {
      "type": "node",
      "id": 3522647897,
      "lat": 44.4995845,
      "lon": -111.3368779,
      "timestamp": "2015-05-16T22:08:51Z",
      "version": 1,
      "changeset": 31213686,
      "user": "Brad Meteor",
      "uid": 1529630,
      "tags": {
        "name": "Stage Stop",
        "shop": "convenience"
      }
    },
    {
      "type": "node",
      "id": 3522747707,
      "lat": 44.4101946,
      "lon": -111.396046,
      "timestamp": "2015-05-17T00:15:17Z",
      "version": 1,
      "changeset": 31214776,
      "user": "Brad Meteor",
      "uid": 1529630,
      "tags": {
        "name": "Box Canyon Campground",
        "tourism": "camp_site"
      }
    },
    {
      "type": "node",
      "id": 3523845359,
      "lat": 44.3638916,
      "lon": -111.401514,
      "timestamp": "2015-05-17T16:26:59Z",
      "version": 1,
      "changeset": 31232199,
      "user": "Brad Meteor",
      "uid": 1529630,
      "tags": {
        "name": "Last Chance General Store",
        "shop": "convenience"
      }
    },
    {
      "type": "node",
      "id": 3523885633,
      "lat": 44.3343117,
      "lon": -111.4653906,
      "timestamp": "2015-05-17T16:47:33Z",
      "version": 1,
      "changeset": 31232199,
      "user": "Brad Meteor",
      "uid": 1529630,
      "tags": {
        "tourism": "camp_site"
      }
    },
    {
      "type": "node",
      "id": 3524294422,
      "lat": 44.4622378,
      "lon": -111.4005408,
      "timestamp": "2015-05-17T20:54:32Z",
      "version": 1,
      "changeset": 31239654,
      "user": "Brad Meteor",
      "uid": 1529630,
      "tags": {
        "name": "McCrea Bridge Campground",
        "tourism": "camp_site"
      }
    },
    {
      "type": "node",
      "id": 3660838751,
      "lat": 44.4984233,
      "lon": -111.2551946,
      "timestamp": "2019-06-12T22:14:43Z",
      "version": 2,
      "changeset": 71196563,
      "user": "aweech",
      "uid": 8482773,
      "tags": {
        "natural": "spring"
      }
    },
    {
      "type": "node",
      "id": 3876650689,
      "lat": 44.1199925,
      "lon": -111.3117903,
      "timestamp": "2015-12-04T17:43:49Z",
      "version": 1,
      "changeset": 35752774,
      "user": "MountainAddict",
      "uid": 2679756,
      "tags": {
        "access": "public",
        "amenity": "drinking_water",
        "fee": "no",
        "indoor": "no"
      }
    },
    {
      "type": "node",
      "id": 4253164940,
      "lat": 44.1748736,
      "lon": -111.3135464,
      "timestamp": "2016-06-19T17:48:20Z",
      "version": 1,
      "changeset": 40140778,
      "user": "Cort Wee",
      "uid": 622060,
      "tags": {
        "name": "Grand View Campground",
        "tourism": "camp_site"
      }
    },
    {
      "type": "node",
      "id": 4352138491,
      "lat": 44.4712188,
      "lon": -111.4495704,
      "timestamp": "2016-08-16T04:07:08Z",
      "version": 1,
      "changeset": 41481429,
      "user": "Levin Lee",
      "uid": 4291810,
      "tags": {
        "name": "Bear Creek Inn",
        "tourism": "alpine_hut"
      }
    },
    {
      "type": "node",
      "id": 5829621099,
      "lat": 44.3302183,
      "lon": -111.1520195,
      "timestamp": "2018-08-13T13:22:56Z",
      "version": 1,
      "changeset": 61626988,
      "user": "datamongers",
      "uid": 1462409,
      "tags": {
        "natural": "spring"
      }
    },
    {
      "type": "node",
      "id": 5955467822,
      "lat": 44.4526702,
      "lon": -111.3605495,
      "timestamp": "2018-10-04T20:22:50Z",
      "version": 1,
      "changeset": 63209104,
      "user": "Brad Meteor",
      "uid": 1529630,
      "tags": {
        "name": "Elk Creek Store",
        "shop": "convenience"
      }
    },
    {
      "type": "node",
      "id": 6543435021,
      "lat": 44.4325916,
      "lon": -111.273917,
      "timestamp": "2019-06-12T21:08:17Z",
      "version": 1,
      "changeset": 71195148,
      "user": "aweech",
      "uid": 8482773,
      "tags": {
        "natural": "spring"
      }
    },
    {
      "type": "node",
      "id": 6926020021,
      "lat": 44.2858162,
      "lon": -111.3077179,
      "timestamp": "2019-10-29T04:04:29Z",
      "version": 1,
      "changeset": 76322823,
      "user": "Natfoot",
      "uid": 567792,
      "tags": {
        "natural": "spring"
      }
    },
    {
      "type": "node",
      "id": 7742427438,
      "lat": 44.4369265,
      "lon": -111.3732893,
      "timestamp": "2020-07-24T04:00:42Z",
      "version": 1,
      "changeset": 88432882,
      "user": "Sequencer",
      "uid": 9232223,
      "tags": {
        "name": "Island Park Camp",
        "tourism": "camp_site"
      }
    },
    {
      "type": "node",
      "id": 8298457674,
      "lat": 44.3092284,
      "lon": -111.4084521,
      "timestamp": "2021-01-07T00:12:09Z",
      "version": 1,
      "changeset": 97075650,
      "user": "EButlerEcologist",
      "uid": 10464777,
      "tags": {
        "natural": "spring"
      }
    },
    {
      "type": "node",
      "id": 8298457806,
      "lat": 44.306402,
      "lon": -111.4147913,
      "timestamp": "2021-01-07T00:12:09Z",
      "version": 1,
      "changeset": 97075650,
      "user": "EButlerEcologist",
      "uid": 10464777,
      "tags": {
        "natural": "spring"
      }
    },
    {
      "type": "node",
      "id": 8298457836,
      "lat": 44.3120767,
      "lon": -111.4157132,
      "timestamp": "2021-01-07T00:12:09Z",
      "version": 1,
      "changeset": 97075650,
      "user": "EButlerEcologist",
      "uid": 10464777,
      "tags": {
        "natural": "spring"
      }
    },
    {
      "type": "node",
      "id": 9784373342,
      "lat": 44.3506929,
      "lon": -111.4776272,
      "timestamp": "2022-05-31T03:55:37Z",
      "version": 1,
      "changeset": 121744551,
      "user": "tcarlisle",
      "uid": 13765300,
      "tags": {
        "tourism": "wilderness_hut"
      }
    },
    {
      "type": "node",
      "id": 9784373344,
      "lat": 44.3501769,
      "lon": -111.4781269,
      "timestamp": "2022-05-31T03:55:37Z",
      "version": 1,
      "changeset": 121744551,
      "user": "tcarlisle",
      "uid": 13765300,
      "tags": {
        "tourism": "wilderness_hut"
      }
    },
    {
      "type": "node",
      "id": 9908699118,
      "lat": 44.5516036,
      "lon": -111.2595779,
      "timestamp": "2022-07-25T04:41:08Z",
      "version": 1,
      "changeset": 124031161,
      "user": "Klaytonias",
      "uid": 16636201,
      "tags": {
        "name": "Meadow Creek Lodge",
        "tourism": "alpine_hut"
      }
    },
    {
      "type": "way",
      "id": 384364646,
      "timestamp": "2016-07-27T03:57:32Z",
      "version": 2,
      "changeset": 41052509,
      "user": "colindt",
      "uid": 2406578,
      "center": {
        "lat": 44.5210272,
        "lon": -111.3258475
      },
      "nodes": [],
      "tags": {
        "building": "yes",
        "name": "Robins Roost",
        "shop": "supermarket"
      }
    },
    {
      "type": "way",
      "id": 384369301,
      "timestamp": "2019-03-06T05:13:54Z",
      "version": 2,
      "changeset": 67830449,
      "user": "Brian Reavis",
      "uid": 2323512,
      "center": {
        "lat": 44.1207219,
        "lon": -111.3108929
      },
      "nodes": [],
      "tags": {
        "name": "Warm River Campground",
        "tourism": "camp_site"
      }
    },
    {
      "type": "way",
      "id": 433770613,
      "timestamp": "2016-07-27T04:17:12Z",
      "version": 1,
      "changeset": 41052685,
      "user": "colindt",
      "uid": 2406578,
      "center": {
        "lat": 44.426603,
        "lon": -111.3633309
      },
      "nodes": [],
      "tags": {
        "internet_access": "no",
        "name": "Buffalo Campground",
        "operator": "National Forest Service",
        "tourism": "camp_site"
      }
    },
    {
      "type": "way",
      "id": 696758636,
      "timestamp": "2019-06-12T20:57:11Z",
      "version": 1,
      "changeset": 71194846,
      "user": "aweech",
      "uid": 8482773,
      "center": {
        "lat": 44.430402,
        "lon": -111.4251472
      },
      "nodes": [],
      "tags": {
        "name": "Buttermilk",
        "operator": "USFS",
        "tourism": "camp_site"
      }
    },
    {
      "type": "way",
      "id": 696770817,
      "timestamp": "2019-06-12T21:33:42Z",
      "version": 1,
      "changeset": 71195830,
      "user": "aweech",
      "uid": 8482773,
      "center": {
        "lat": 44.4906841,
        "lon": -111.3657295
      },
      "nodes": [],
      "tags": {
        "name": "Upper Coffeepot",
        "operator": "USFS",
        "tourism": "camp_site"
      }
    }
  ]
}