{
  "osm3s": {
    "timestamp_osm_date": "2021-09-10T23:59:59Z",
    "timestamp_osm_base": "2021-09-11T06:06:27Z",
    "copyright": "The data included in this document is from www.openstreetmap.org. The data is made available under ODbL."
  },
  "elements": [
    {
      "type": "node",
      "id": 354120405,
      "lat": -45.41449,
      "lon": 167.717489,
      "timestamp": "2020-10-06T08:52:48Z",
      "version": 12,
      "changeset": 92033798,
      "user": "lcmortensen",
      "uid": 341519,
      "tags": {
        "name": "Te Anau",
        "name:mi": "Te Ana-au",
        "name:mk": "Те Анау",
        "name_1": "The Walking Capital of the World",
        "name_2": "Gateway to Fiordland",
        "place": "town",
        "population": "2760",
        "source:population": "Statistics NZ 2019",
        "wikidata": "Q1154973"
      }
    },
    {
      "type": "node",
      "id": 495986593,
      "lat": -45.3897655,
      "lon": 167.6153417,
      "timestamp": "2009-09-14T09:09:28Z",
      "version": 1,
      "changeset": 2478824,
      "user": "HaaseD",
      "uid": 24882,
      "tags": {
        "name": "Luxmore Caves",
        "natural": "cave_entrance"
      }
    },
    {
      "type": "node",
      "id": 495993256,
      "lat": -45.4934757,
      "lon": 167.6129058,
      "timestamp": "2018-06-23T19:50:11Z",
      "version": 5,
      "changeset": 60107869,
      "user": "gaddman",
      "uid": 365177,
      "tags": {
        "capacity": "6",
        "name": "Shallow Bay Hut",
        "ref:doc": "100054155",
        "tourism": "wilderness_hut"
      }
    },
    {
      "type": "node",
      "id": 495993283,
      "lat": -45.4817353,
      "lon": 167.6106098,
      "timestamp": "2018-06-23T19:50:11Z",
      "version": 10,
      "changeset": 60107869,
      "user": "gaddman",
      "uid": 365177,
      "tags": {
        "capacity": "40",
        "ele": "200",
        "name": "Moturau Hut",
        "operator": "Department of Conservation",
        "ref:doc": "100055524",
        "tourism": "wilderness_hut"
      }
    },
    {
      "type": "node",
      "id": 495996579,
      "lat": -45.2945045,
      "lon": 167.7264435,
      "timestamp": "2019-01-21T14:24:40Z",
      "version": 4,
      "changeset": 66506751,
      "user": "weltanschauer",
      "uid": 9088499,
      "tags": {
        "alt_name": "Te Ana-au Glowworm Caves",
        "name": "Te Anau Glowworm Caves",
        "natural": "cave_entrance",
        "tourism": "attraction",
        "wikidata": "Q1436725"
      }
    },
    {
      "type": "node",
      "id": 984098773,
      "lat": -45.5651472,
      "lon": 167.6133964,
      "timestamp": "2021-05-28T05:09:20Z",
      "version": 6,
      "changeset": 105461803,
      "user": "kylenz",
      "uid": 10140394,
      "tags": {
        "name": "Manapouri",
        "name:mi": "Manapōuri",
        "name:mk": "Манапоури",
        "note": "size 500-1K",
        "place": "village",
        "population": "228",
        "source": "LINZ & NZ Open GIS",
        "wikidata": "Q1888660"
      }
    },
    {
      "type": "node",
      "id": 1061030765,
      "lat": -45.275,
      "lon": 167.53669,
      "timestamp": "2020-12-06T14:22:57Z",
      "version": 2,
      "changeset": 95367684,
      "user": "pizzaiolo",
      "uid": 1772368,
      "tags": {
        "name": "Mount Lyall",
        "natural": "peak",
        "source": "LINZ & NZ Open GIS",
        "wikidata": "Q31646371"
      }
    },
    {
      "type": "node",
      "id": 1061033417,
      "lat": -45.17784,
      "lon": 167.35954,
      "timestamp": "2020-12-06T14:22:56Z",
      "version": 2,
      "changeset": 95367684,
      "user": "pizzaiolo",
      "uid": 1772368,
      "tags": {
        "name": "Mount Irene",
        "natural": "peak",
        "source": "LINZ & NZ Open GIS",
        "wikidata": "Q31646337"
      }
    },
    {
      "type": "node",
      "id": 1061033911,
      "lat": -45.21767,
      "lon": 167.51541,
      "timestamp": "2020-12-06T14:22:57Z",
      "version": 2,
      "changeset": 95367684,
      "user": "pizzaiolo",
      "uid": 1772368,
      "tags": {
        "name": "Mount Max",
        "natural": "peak",
        "source": "LINZ & NZ Open GIS",
        "wikidata": "Q31646349"
      }
    },
    {
      "type": "node",
      "id": 1061035480,
      "lat": -45.3861125,
      "lon": 167.590542,
      "timestamp": "2020-04-19T21:33:36Z",
      "version": 9,
      "changeset": 83786229,
      "user": "gullwstravels",
      "uid": 3062936,
      "tags": {
        "ele": "1472",
        "name": "Mount Luxmore",
        "name:mi": "Ō-te-horua-a-Te-Puhituia",
        "natural": "peak",
        "source": "LINZ & NZ Open GIS;http://www.kahurumanu.co.nz/atlas",
        "wikidata": "Q16895465",
        "wikipedia": "en:Mount Luxmore"
      }
    },
    {
      "type": "node",
      "id": 1061036902,
      "lat": -45.56991,
      "lon": 167.96618,
      "timestamp": "2020-12-06T14:23:03Z",
      "version": 3,
      "changeset": 95367684,
      "user": "pizzaiolo",
      "uid": 1772368,
      "tags": {
        "ele": "630",
        "name": "Spear Peak",
        "natural": "peak",
        "source": "LINZ & NZ Open GIS",
        "wikidata": "Q31647840"
      }
    },
    {
      "type": "node",
      "id": 1061037233,
      "lat": -45.12188,
      "lon": 168.04138,
      "timestamp": "2020-12-06T14:23:02Z",
      "version": 2,
      "changeset": 95367684,
      "user": "pizzaiolo",
      "uid": 1772368,
      "tags": {
        "name": "Winton Peak",
        "natural": "peak",
        "source": "LINZ & NZ Open GIS",
        "wikidata": "Q31647718"
      }
    },
    {
      "type": "node",
      "id": 1061037383,
      "lat": -45.3967359,
      "lon": 167.4534846,
      "timestamp": "2020-12-06T14:22:58Z",
      "version": 3,
      "changeset": 95367684,
      "user": "pizzaiolo",
      "uid": 1772368,
      "tags": {
        "name": "Spire Peak",
        "natural": "peak",
        "source": "LINZ & NZ Open GIS",
        "wikidata": "Q31646725"
      }
    },
    {
      "type": "node",
      "id": 1225226113,
      "lat": -45.2299596,
      "lon": 167.4763115,
      "timestamp": "2020-07-15T03:47:33Z",
      "version": 3,
      "changeset": 88004499,
      "user": "petenz",
      "uid": 38928,
      "tags": {
        "LINZ:layer": "descrip_text",
        "LINZ:point_size": "6.0",
        "LINZ:size": "4.1",
        "LINZ:source_version": "V16",
        "LINZ:text_placement_justification": "1.0",
        "LINZ:x_offset": "-2.70391",
        "LINZ:y_offset": "0.17079",
        "attribution": "http://wiki.osm.org/wiki/Attribution#LINZ",
        "name": "DoC Hut (No Public Access)",
        "source_ref": "http://www.linz.govt.nz/topography/topo-maps/",
        "tourism": "wilderness_hut"
      }
    },
    {
      "type": "node",
      "id": 1225242607,
      "lat": -45.2559067,
      "lon": 167.4744683,
      "timestamp": "2016-12-11T09:08:14Z",
      "version": 2,
      "changeset": 44318009,
      "user": "gullwstravels",
      "uid": 3062936,
      "tags": {
        "LINZ:layer": "descrip_text",
        "LINZ:point_size": "6.0",
        "LINZ:size": "4.1",
        "LINZ:source_version": "V16",
        "LINZ:text_placement_justification": "1.0",
        "LINZ:x_offset": "-2.65442",
        "LINZ:y_offset": "-1.49561",
        "attribution": "http://wiki.osm.org/wiki/Attribution#LINZ",
        "name": "DoC Hut (No Public Access)",
        "source_ref": "http://www.linz.govt.nz/topography/topo-maps/",
        "tourism": "alpine_hut"
      }
    },
    {
      "type": "node",
      "id": 1225310943,
      "lat": -45.2863658,
      "lon": 167.4229269,
      "timestamp": "2016-04-20T10:56:56Z",
      "version": 2,
      "changeset": 38724786,
      "user": "gullwstravels",
      "uid": 3062936,
      "tags": {
        "LINZ:layer": "descrip_text",
        "LINZ:point_size": "6.0",
        "LINZ:size": "4.1",
        "LINZ:source_version": "V16",
        "LINZ:text_placement_justification": "1.0",
        "attribution": "http://wiki.osm.org/wiki/Attribution#LINZ",
        "name": "DoC Hut (No public access)",
        "source_ref": "http://www.linz.govt.nz/topography/topo-maps/",
        "tourism": "alpine_hut"
      }
    },
    {
      "type": "node",
      "id": 1313818650,
      "lat": -45.4167582,
      "lon": 167.7133591,
      "timestamp": "2017-11-24T05:43:04Z",
      "version": 3,
      "changeset": 54040951,
      "user": "Creando",
      "uid": 132740,
      "tags": {
        "name": "Four Square",
        "opening_hours": "Mo-Su 08:00-21:30",
        "shop": "supermarket"
      }
    },
    {
      "type": "node",
      "id": 1577931237,
      "lat": -45.2322601,
      "lon": 167.8117698,
      "timestamp": "2018-06-02T04:04:28Z",
      "version": 3,
      "changeset": 59476595,
      "user": "gaddman",
      "uid": 365177,
      "tags": {
        "capacity:tents": "10",
        "fee": "yes",
        "fire": "no",
        "name": "Henry Creek Campsite",
        "operator": "Department of Conservation",
        "picnic_table": "yes",
        "toilets": "yes",
        "tourism": "camp_site",
        "water": "yes",
        "website": "www.doc.govt.nz/parks-and-recreation/places-to-stay/conservation-campsites-by-region/fiordland/eastern-fiordland/henry-creek/"
      }
    },
    {
      "type": "node",
      "id": 1577931332,
      "lat": -45.1008755,
      "lon": 167.9678116,
      "timestamp": "2018-06-02T04:04:29Z",
      "version": 2,
      "changeset": 59476595,
      "user": "gaddman",
      "uid": 365177,
      "tags": {
        "capacity:tents": "4",
        "fee": "yes",
        "fire": "no",
        "name": "Walker Creek Campsite",
        "operator": "Department of Conservation",
        "picnic_table": "yes",
        "toilets": "yes",
        "tourism": "camp_site",
        "water": "yes",
        "website": "http://www.doc.govt.nz/parks-and-recreation/places-to-stay/conservation-campsites-by-region/fiordland/walker-creek/"
      }
    },
    {
      "type": "node",
      "id": 1751520523,
      "lat": -45.4916252,
      "lon": 167.6635248,
      "timestamp": "2012-05-13T18:33:41Z",
      "version": 1,
      "changeset": 11589057,
      "user": "Skagen",
      "uid": 142423,
      "tags": {
        "amenity": "drinking_water"
      }
    },
    {
      "type": "node",
      "id": 1751642264,
      "lat": -45.404088,
      "lon": 167.674192,
      "timestamp": "2018-06-02T04:04:31Z",
      "version": 6,
      "changeset": 59476595,
      "user": "gaddman",
      "uid": 365177,
      "tags": {
        "name": "Brod Bay Campsite",
        "operator": "Department of Conservation",
        "tourism": "camp_site"
      }
    },
    {
      "type": "node",
      "id": 2805324822,
      "lat": -45.5662498,
      "lon": 167.6092263,
      "timestamp": "2018-03-11T05:09:06Z",
      "version": 5,
      "changeset": 57073057,
      "user": "realthargor",
      "uid": 3506556,
      "tags": {
        "addr:street": "Waiau 29",
        "name": "Manapouri Dairy",
        "opening_hours": "Mo-Su 07:30-20:00",
        "shop": "convenience"
      }
    },
    {
      "type": "node",
      "id": 2966421679,
      "lat": -45.3989732,
      "lon": 167.5096952,
      "timestamp": "2018-06-02T04:04:44Z",
      "version": 5,
      "changeset": 59476595,
      "user": "gaddman",
      "uid": 365177,
      "tags": {
        "addr:street": "Kepler Track",
        "name": "Iris Burn Hut",
        "name:en": "Iris Burn Hut",
        "name:zh": "艾莉丝伯恩小屋",
        "operator": "Department of Conservation",
        "tourism": "camp_site"
      }
    },
    {
      "type": "node",
      "id": 2966421680,
      "lat": -45.3989417,
      "lon": 167.509556,
      "timestamp": "2016-04-20T03:31:56Z",
      "version": 2,
      "changeset": 38716389,
      "user": "gullwstravels",
      "uid": 3062936,
      "tags": {
        "amenity": "drinking_water"
      }
    },
    {
      "type": "node",
      "id": 3406762893,
      "lat": -45.4484878,
      "lon": 167.567326,
      "timestamp": "2015-03-19T09:38:56Z",
      "version": 1,
      "changeset": 29588029,
      "user": "ssuerbier",
      "uid": 1399985,
      "tags": {
        "amenity": "shelter",
        "name": "Rocky Point Shelter",
        "shelter_type": "picnic_shelter"
      }
    },
    {
      "type": "node",
      "id": 4127297398,
      "lat": -45.4423027,
      "lon": 167.688953,
      "timestamp": "2016-04-17T20:59:21Z",
      "version": 2,
      "changeset": 38651998,
      "user": "gullwstravels",
      "uid": 3062936,
      "tags": {
        "amenity": "shelter",
        "name": "Kepler Track Shelter",
        "shelter_type": "weather_shelter",
        "shelter_type_1": "information panels"
      }
    },
    {
      "type": "node",
      "id": 4131975601,
      "lat": -45.4595237,
      "lon": 167.6570184,
      "timestamp": "2020-12-06T14:23:03Z",
      "version": 2,
      "changeset": 95367684,
      "user": "pizzaiolo",
      "uid": 1772368,
      "tags": {
        "ele": "645",
        "name": "Harts Hill",
        "natural": "peak",
        "wikidata": "Q31647806"
      }
    },
    {
      "type": "node",
      "id": 4132048394,
      "lat": -45.3833577,
      "lon": 167.5112319,
      "timestamp": "2021-04-10T10:56:43Z",
      "version": 4,
      "changeset": 102692561,
      "user": "lcmortensen",
      "uid": 341519,
      "tags": {
        "ele": "1537",
        "name": "Mount Tinsley",
        "natural": "peak",
        "wikidata": "Q106119992"
      }
    },
    {
      "type": "node",
      "id": 4132451671,
      "lat": -45.3368091,
      "lon": 167.468904,
      "timestamp": "2016-04-19T07:57:40Z",
      "version": 1,
      "changeset": 38687490,
      "user": "gullwstravels",
      "uid": 3062936,
      "tags": {
        "name": "1089m",
        "natural": "saddle"
      }
    },
    {
      "type": "node",
      "id": 4132509275,
      "lat": -45.3577259,
      "lon": 167.4085007,
      "timestamp": "2017-12-18T20:08:30Z",
      "version": 2,
      "changeset": 54741157,
      "user": "gullwstravels",
      "uid": 3062936,
      "tags": {
        "name": "1417m",
        "natural": "saddle"
      }
    },
    {
      "type": "node",
      "id": 4132509279,
      "lat": -45.3679327,
      "lon": 167.4228559,
      "timestamp": "2016-04-19T08:34:38Z",
      "version": 1,
      "changeset": 38688366,
      "user": "gullwstravels",
      "uid": 3062936,
      "tags": {
        "name": "1290m",
        "natural": "saddle"
      }
    },
    {
      "type": "node",
      "id": 4132579582,
      "lat": -45.4190482,
      "lon": 167.4870465,
      "timestamp": "2017-12-13T09:03:58Z",
      "version": 2,
      "changeset": 54589684,
      "user": "gullwstravels",
      "uid": 3062936,
      "tags": {
        "name": "1231m",
        "natural": "saddle"
      }
    },
    {
      "type": "node",
      "id": 4137350634,
      "lat": -45.3457251,
      "lon": 167.377373,
      "timestamp": "2017-12-22T23:21:49Z",
      "version": 2,
      "changeset": 54853001,
      "user": "gullwstravels",
      "uid": 3062936,
      "tags": {
        "name": "1250m",
        "natural": "saddle"
      }
    },
    {
      "type": "node",
      "id": 4137387418,
      "lat": -45.3298879,
      "lon": 167.3676903,
      "timestamp": "2017-12-22T23:21:50Z",
      "version": 2,
      "changeset": 54853001,
      "user": "gullwstravels",
      "uid": 3062936,
      "tags": {
        "name": "1527m",
        "natural": "saddle"
      }
    },
    {
      "type": "node",
      "id": 4137391903,
      "lat": -45.3648787,
      "lon": 167.4029721,
      "timestamp": "2017-12-18T20:08:30Z",
      "version": 2,
      "changeset": 54741157,
      "user": "gullwstravels",
      "uid": 3062936,
      "tags": {
        "name": "1261m",
        "natural": "saddle"
      }
    },
    {
      "type": "node",
      "id": 4137489015,
      "lat": -45.3290544,
      "lon": 167.4686714,
      "timestamp": "2016-04-21T01:40:12Z",
      "version": 1,
      "changeset": 38743573,
      "user": "gullwstravels",
      "uid": 3062936,
      "tags": {
        "name": "1144m",
        "natural": "saddle"
      }
    },
    {
      "type": "node",
      "id": 4137546994,
      "lat": -45.3077775,
      "lon": 167.3443631,
      "timestamp": "2017-12-18T19:53:34Z",
      "version": 2,
      "changeset": 54740760,
      "user": "gullwstravels",
      "uid": 3062936,
      "tags": {
        "ele": "1085",
        "name": "Fowler Pass",
        "natural": "saddle"
      }
    },
    {
      "type": "node",
      "id": 4141636045,
      "lat": -45.4466166,
      "lon": 167.411588,
      "timestamp": "2017-12-17T10:25:10Z",
      "version": 2,
      "changeset": 54699589,
      "user": "gullwstravels",
      "uid": 3062936,
      "tags": {
        "name": "1313m",
        "natural": "saddle"
      }
    },
    {
      "type": "node",
      "id": 4141696879,
      "lat": -45.4036358,
      "lon": 167.4024444,
      "timestamp": "2017-12-22T23:21:49Z",
      "version": 2,
      "changeset": 54853001,
      "user": "gullwstravels",
      "uid": 3062936,
      "tags": {
        "name": "1212m",
        "natural": "saddle"
      }
    },
    {
      "type": "node",
      "id": 4141696880,
      "lat": -45.3873023,
      "lon": 167.4194282,
      "timestamp": "2017-12-22T23:21:48Z",
      "version": 2,
      "changeset": 54853001,
      "user": "gullwstravels",
      "uid": 3062936,
      "tags": {
        "name": "1419",
        "natural": "saddle"
      }
    },
    {
      "type": "node",
      "id": 4141826840,
      "lat": -45.4077237,
      "lon": 167.3439015,
      "timestamp": "2016-04-22T23:09:10Z",
      "version": 1,
      "changeset": 38802294,
      "user": "gullwstravels",
      "uid": 3062936,
      "tags": {
        "name": "1375m",
        "natural": "saddle"
      }
    },
    {
      "type": "node",
      "id": 4142089649,
      "lat": -45.289688,
      "lon": 167.3900103,
      "timestamp": "2016-04-23T03:54:41Z",
      "version": 1,
      "changeset": 38804535,
      "user": "gullwstravels",
      "uid": 3062936,
      "tags": {
        "name": "766m",
        "natural": "saddle"
      }
    },
    {
      "type": "node",
      "id": 4142089651,
      "lat": -45.2773231,
      "lon": 167.3463654,
      "timestamp": "2016-04-23T03:54:41Z",
      "version": 1,
      "changeset": 38804535,
      "user": "gullwstravels",
      "uid": 3062936,
      "tags": {
        "name": "1304m",
        "natural": "saddle"
      }
    },
    {
      "type": "node",
      "id": 4143799693,
      "lat": -45.217246,
      "lon": 167.355129,
      "timestamp": "2016-04-24T02:04:40Z",
      "version": 1,
      "changeset": 38824389,
      "user": "gullwstravels",
      "uid": 3062936,
      "tags": {
        "name": "1096m",
        "natural": "saddle"
      }
    },
    {
      "type": "node",
      "id": 4143811664,
      "lat": -45.1963264,
      "lon": 167.3649727,
      "timestamp": "2016-04-24T02:24:52Z",
      "version": 1,
      "changeset": 38824548,
      "user": "gullwstravels",
      "uid": 3062936,
      "tags": {
        "ele": "1128",
        "name": "Robin Saddle",
        "natural": "saddle"
      }
    },
    {
      "type": "node",
      "id": 4143812249,
      "lat": -45.190826,
      "lon": 167.402132,
      "timestamp": "2016-04-24T02:24:53Z",
      "version": 1,
      "changeset": 38824548,
      "user": "gullwstravels",
      "uid": 3062936,
      "tags": {
        "ele": "841",
        "name": "Esk Saddle",
        "natural": "saddle"
      }
    },
    {
      "type": "node",
      "id": 4548818056,
      "lat": -45.2426735,
      "lon": 167.4832624,
      "timestamp": "2016-12-11T08:11:52Z",
      "version": 1,
      "changeset": 44317331,
      "user": "gullwstravels",
      "uid": 3062936,
      "tags": {
        "name": "1365m",
        "natural": "saddle"
      }
    },
    {
      "type": "node",
      "id": 4846566532,
      "lat": -45.4165206,
      "lon": 167.711449,
      "timestamp": "2017-05-10T21:42:14Z",
      "version": 2,
      "changeset": 48575282,
      "user": "Eisenspleiszer",
      "uid": 1954432,
      "tags": {
        "access": "yes",
        "amenity": "drinking_water",
        "cold_water": "yes",
        "drinking_water": "yes",
        "fee": "no",
        "hot_water": "no",
        "indoor": "no",
        "opening_hours": "24/7"
      }
    },
    {
      "type": "node",
      "id": 4847209260,
      "lat": -45.4237293,
      "lon": 167.7191292,
      "timestamp": "2017-05-11T09:28:40Z",
      "version": 1,
      "changeset": 48586195,
      "user": "Eisenspleiszer",
      "uid": 1954432,
      "tags": {
        "access": "yes",
        "amenity": "drinking_water",
        "cold_water": "yes",
        "drinking_water": "yes",
        "fee": "no",
        "hot_water": "no",
        "indoor": "no",
        "opening_hours": "24/7"
      }
    },
    {
      "type": "node",
      "id": 4847299181,
      "lat": -45.426013,
      "lon": 167.7189237,
      "timestamp": "2017-05-11T10:37:25Z",
      "version": 1,
      "changeset": 48587944,
      "user": "Eisenspleiszer",
      "uid": 1954432,
      "tags": {
        "addr:city": "Te Anau",
        "addr:country": "NZ",
        "addr:housenumber": "77",
        "addr:postcode": "9460",
        "addr:street": "Manapouri – Te Anau Highway",
        "contact:email": "res@teanau.info",
        "contact:fax": "+64 3 249 7536",
        "contact:phone": "+64 3 249 7457",
        "contact:website": "http://www.TeAnauHolidayPark.co.nz",
        "internet_access": "yes",
        "internet_access:fee": "yes",
        "name": "Te Anau Lakeview Holiday Park",
        "sanitary_dump_station": "yes",
        "tourism": "camp_site",
        "wheelchair": "yes"
      }
    },
    {
      "type": "node",
      "id": 4847363173,
      "lat": -45.4322516,
      "lon": 167.713412,
      "timestamp": "2017-05-11T11:13:39Z",
      "version": 1,
      "changeset": 48588972,
      "user": "Eisenspleiszer",
      "uid": 1954432,
      "tags": {
        "access": "yes",
        "amenity": "drinking_water",
        "cold_water": "yes",
        "drinking_water": "yes",
        "fee": "no",
        "hot_water": "no",
        "indoor": "no",
        "opening_hours": "24/7"
      }
    },
    {
      "type": "node",
      "id": 4847385240,
      "lat": -45.5452711,
      "lon": 167.8959309,
      "timestamp": "2019-01-05T21:21:04Z",
      "version": 3,
      "changeset": 66057591,
      "user": "pyram",
      "uid": 497849,
      "tags": {
        "name": "The Key",
        "place": "hamlet"
      }
    },
    {
      "type": "node",
      "id": 5276523722,
      "lat": -45.3887772,
      "lon": 167.5675921,
      "timestamp": "2020-11-14T01:47:35Z",
      "version": 2,
      "changeset": 94092734,
      "user": "ShakyIsles",
      "uid": 1968467,
      "tags": {
        "ele": "1196",
        "name": "Forest Burn Saddle",
        "natural": "saddle"
      }
    },
    {
      "type": "node",
      "id": 5290531424,
      "lat": -45.4041884,
      "lon": 167.6743889,
      "timestamp": "2017-12-18T06:04:37Z",
      "version": 2,
      "changeset": 54720764,
      "user": "gullwstravels",
      "uid": 3062936,
      "tags": {
        "amenity": "shelter",
        "name": "Brod Bay Shelter"
      }
    },
    {
      "type": "node",
      "id": 6134512774,
      "lat": -45.5204769,
      "lon": 167.7571888,
      "timestamp": "2018-12-13T08:07:47Z",
      "version": 1,
      "changeset": 65433309,
      "user": "Sama Magham",
      "uid": 3782180,
      "tags": {
        "name": "Freedom Camping for Self Contained Vehicles",
        "tourism": "camp_site"
      }
    },
    {
      "type": "node",
      "id": 6134512960,
      "lat": -45.5267333,
      "lon": 167.7550661,
      "timestamp": "2018-12-13T08:07:43Z",
      "version": 1,
      "changeset": 65433309,
      "user": "Sama Magham",
      "uid": 3782180,
      "tags": {
        "name": "Freedom Camping for Self Contained Vehicles",
        "tourism": "camp_site"
      }
    },
    {
      "type": "node",
      "id": 6225155517,
      "lat": -45.4106928,
      "lon": 167.7068525,
      "timestamp": "2019-01-21T14:31:39Z",
      "version": 2,
      "changeset": 66506957,
      "user": "weltanschauer",
      "uid": 9088499,
      "tags": {
        "amenity": "drinking_water",
        "man_made": "water_tap"
      }
    },
    {
      "type": "node",
      "id": 6241210947,
      "lat": -45.4404759,
      "lon": 167.3811462,
      "timestamp": "2019-01-28T08:34:13Z",
      "version": 1,
      "changeset": 66697935,
      "user": "gaddman",
      "uid": 365177,
      "tags": {
        "name": "Freeman Burn Hut",
        "operator": "Department of Conservation",
        "ref:doc": "100074675",
        "tourism": "wilderness_hut"
      }
    },
    {
      "type": "node",
      "id": 6257406933,
      "lat": -45.151033,
      "lon": 167.4978934,
      "timestamp": "2019-02-04T08:41:41Z",
      "version": 1,
      "changeset": 66896390,
      "user": "gaddman",
      "uid": 365177,
      "tags": {
        "name": "Junction Burn Hut",
        "operator": "Department of Conservation",
        "ref:doc": "100035146",
        "tourism": "wilderness_hut"
      }
    },
    {
      "type": "node",
      "id": 6260548756,
      "lat": -45.25829,
      "lon": 168.0283,
      "timestamp": "2020-03-01T00:57:52Z",
      "version": 2,
      "changeset": 81633459,
      "user": "aneleutheroi",
      "uid": 10119848,
      "tags": {
        "beds": "4",
        "name": "Army Hut",
        "operator": "Department of Conservation",
        "ref:doc": "100054491",
        "tourism": "wilderness_hut"
      }
    },
    {
      "type": "node",
      "id": 6270715788,
      "lat": -45.4371131,
      "lon": 167.772391,
      "timestamp": "2019-02-11T03:58:52Z",
      "version": 1,
      "changeset": 67087777,
      "user": "seboboch",
      "uid": 8928792,
      "tags": {
        "internet_access": "wlan",
        "name": "Andy’s Place",
        "tourism": "camp_site"
      }
    },
    {
      "type": "node",
      "id": 7143556185,
      "lat": -45.399388,
      "lon": 167.5080797,
      "timestamp": "2020-01-19T22:02:42Z",
      "version": 1,
      "changeset": 79766615,
      "user": "snowdriver88",
      "uid": 10281880,
      "tags": {
        "name": "Iris Burn Campground",
        "tourism": "camp_site"
      }
    },
    {
      "type": "way",
      "id": 144204654,
      "timestamp": "2019-01-11T18:55:52Z",
      "version": 16,
      "changeset": 66235787,
      "user": "gaddman",
      "uid": 365177,
      "center": {
        "lat": -45.4145741,
        "lon": 167.7189599
      },
      "nodes": [],
      "tags": {
        "addr:city": "Te Anau",
        "addr:street": "Luxmore Drive",
        "cabins": "yes",
        "capacity:powered": "50",
        "caravans": "yes",
        "dryer": "yes",
        "email": "info@greatlakes.co.nz",
        "fax": "+64 3 249 8539",
        "fee": "yes",
        "internet_access": "yes",
        "internet_access:fee": "yes",
        "kitchen": "yes",
        "name": "Te Anau Great Lakes Holiday Park",
        "operator": "Kiwi Holiday Parks",
        "phone": "+64 3 249 8538",
        "phone:NZ": "0800 249 555",
        "power_supply": "yes",
        "sanitary_dump_station": "yes",
        "tents": "yes",
        "tourism": "camp_site",
        "washing_machine": "yes",
        "website": "teanaugreatlakes.co.nz",
        "womo": "camping",
        "womo:capacity": "80",
        "womo:fee": "18",
        "womo:name": "Te Anau Great Lakes HP",
        "womo:nz:nr": "120"
      }
    },
    {
      "type": "way",
      "id": 153503511,
      "timestamp": "2020-04-22T04:04:32Z",
      "version": 9,
      "changeset": 83910272,
      "user": "gullwstravels",
      "uid": 3062936,
      "center": {
        "lat": -45.4147211,
        "lon": 167.7147172
      },
      "nodes": [],
      "tags": {
        "addr:city": "Te Anau",
        "addr:housenumber": "5",
        "addr:street": "Milford Crescent",
        "building": "yes",
        "name": "Fresh Choice",
        "opening_hours": "07:00-21:00",
        "shop": "supermarket",
        "wheelchair": "yes"
      }
    },
    {
      "type": "way",
      "id": 153503566,
      "timestamp": "2019-08-25T10:45:12Z",
      "version": 15,
      "changeset": 73714547,
      "user": "gullwstravels",
      "uid": 3062936,
      "center": {
        "lat": -45.4260488,
        "lon": 167.7195122
      },
      "nodes": [],
      "tags": {
        "addr:city": "Te Anau",
        "addr:country": "NZ",
        "addr:housenumber": "77",
        "addr:street": "Manapouri-Te Anau Highway",
        "capacity:powered": "125",
        "designation": "handy for car and luggage storage",
        "name": "Te Anau Lakeview Kiwi Holiday Park & Motels",
        "opening_hours": "07:30-21:00",
        "phone": "+64 3 249 7457",
        "sanitary_dump_station": "yes",
        "tourism": "camp_site",
        "website": "http://www.teanauholidaypark.co.nz/",
        "womo": "camping",
        "womo:capacity": "125",
        "womo:fee": "18",
        "womo:name": "Te Anau Lakeview HP",
        "womo:nz:nr": "119"
      }
    },
    {
      "type": "way",
      "id": 215815220,
      "timestamp": "2017-06-20T09:52:48Z",
      "version": 9,
      "changeset": 49688614,
      "user": "Robert Ancell",
      "uid": 1430787,
      "center": {
        "lat": -45.5592651,
        "lon": 167.620905
      },
      "nodes": [],
      "tags": {
        "addr:city": "Manapouri",
        "addr:country": "NZ",
        "addr:housenumber": "86",
        "addr:street": "Cathedral Drive",
        "cabins": "yes",
        "capacity:powered": "34",
        "caravans": "yes",
        "dryer": "yes",
        "internet_access": "no",
        "kitchen": "yes",
        "name": "Manapouri Motel and Holiday Park",
        "payment:cash": "yes",
        "payment:mastercard": "yes",
        "payment:visa": "yes",
        "phone": "+64 3 249 6624",
        "power_supply": "yes",
        "sanitary_dump_station": "yes",
        "tents": "yes",
        "tourism": "camp_site",
        "washing_machine": "yes",
        "website": "www.manapourimotels.co.nz",
        "womo": "camping",
        "womo:capacity": "34",
        "womo:fee": "18",
        "womo:name": "Manapouri HP",
        "womo:nz:nr": "118"
      }
    },
    {
      "type": "way",
      "id": 242350220,
      "timestamp": "2020-04-08T07:23:35Z",
      "version": 13,
      "changeset": 83235929,
      "user": "gullwstravels",
      "uid": 3062936,
      "center": {
        "lat": -45.414371,
        "lon": 167.7094556
      },
      "nodes": [],
      "tags": {
        "addr:city": "Te Anau",
        "addr:country": "NZ",
        "addr:housenumber": "128",
        "addr:street": "Te Anau Terrace",
        "email": "stay@teanautop10.co.nz",
        "name": "Te Anau Top 10 Holiday Park",
        "phone": "+6432498538",
        "sanitary_dump_station": "yes",
        "tourism": "camp_site",
        "website": "https://top10.co.nz/park/te-anau-top-10-holiday-park"
      }
    },
    {
      "type": "way",
      "id": 244431387,
      "timestamp": "2014-07-16T17:48:03Z",
      "version": 2,
      "changeset": 24186369,
      "user": "Th0msn",
      "uid": 1707027,
      "center": {
        "lat": -45.3988827,
        "lon": 167.5097904
      },
      "nodes": [],
      "tags": {
        "amenity": "shelter"
      }
    },
    {
      "type": "way",
      "id": 244431388,
      "timestamp": "2018-06-23T19:51:04Z",
      "version": 11,
      "changeset": 60107869,
      "user": "gaddman",
      "uid": 365177,
      "center": {
        "lat": -45.3990211,
        "lon": 167.5094878
      },
      "nodes": [],
      "tags": {
        "addr:street": "Kepler Track",
        "building": "yes",
        "capacity": "50",
        "ele": "450",
        "name": "Iris Burn Hut",
        "name:de": "Iris Burn Hütte",
        "name:en": "Iris Burn Hut",
        "operator": "Department of Conservation",
        "ref:doc": "100055189",
        "tourism": "wilderness_hut"
      }
    },
    {
      "type": "way",
      "id": 244431389,
      "timestamp": "2021-07-02T01:56:09Z",
      "version": 9,
      "changeset": 107284284,
      "user": "petenz",
      "uid": 38928,
      "center": {
        "lat": -45.3852613,
        "lon": 167.6191928
      },
      "nodes": [],
      "tags": {
        "building": "yes",
        "capacity": "54",
        "ele": "1085",
        "name": "Luxmore Hut",
        "operator": "Department of Conservation",
        "ref:doc": "100033374",
        "tourism": "wilderness_hut"
      }
    },
    {
      "type": "way",
      "id": 361640793,
      "timestamp": "2021-03-22T09:28:01Z",
      "version": 6,
      "changeset": 101489514,
      "user": "kylenz_linz",
      "uid": 8389777,
      "center": {
        "lat": -45.408233,
        "lon": 167.7434927
      },
      "nodes": [],
      "tags": {
        "addr:city": "Te Anau",
        "addr:housenumber": "129",
        "addr:street": "Te Anau Milford Highway",
        "addr:suburb": "Te Anau",
        "cabins": "yes",
        "caravans": "yes",
        "contact:website": "http://www.fiordlandgreatviewsholidaypark.co.nz/",
        "dryer": "yes",
        "email": "stayfiordland@xtra.co.nz",
        "fee": "yes",
        "kitchen": "yes",
        "name": "Fiordland Great Views Holiday Park",
        "payment:cash": "yes",
        "payment:mastercard": "yes",
        "payment:visa": "yes",
        "phone": "+64 3 249 7059",
        "power_supply": "yes",
        "ref:linz:address_id": "78299",
        "sanitary_dump_station": "yes",
        "tents": "yes",
        "tourism": "camp_site",
        "washing_machine": "yes"
      }
    },
    {
      "type": "way",
      "id": 362144223,
      "timestamp": "2021-07-02T01:59:20Z",
      "version": 2,
      "changeset": 107284318,
      "user": "petenz",
      "uid": 38928,
      "center": {
        "lat": -45.3895224,
        "lon": 167.5718574
      },
      "nodes": [],
      "tags": {
        "amenity": "shelter",
        "name": "Forest Burn Shelter",
        "shelter_type": "basic_hut"
      }
    },
    {
      "type": "way",
      "id": 371850254,
      "timestamp": "2017-05-01T09:32:28Z",
      "version": 2,
      "changeset": 48301686,
      "user": "gullwstravels",
      "uid": 3062936,
      "center": {
        "lat": -45.5667715,
        "lon": 167.6043636
      },
      "nodes": [],
      "tags": {
        "tourism": "camp_site"
      }
    },
    {
      "type": "way",
      "id": 381602086,
      "timestamp": "2015-11-20T22:24:24Z",
      "version": 1,
      "changeset": 35473418,
      "user": "gullwstravels",
      "uid": 3062936,
      "center": {
        "lat": -45.4109581,
        "lon": 167.7063189
      },
      "nodes": [],
      "tags": {
        "amenity": "shelter",
        "name": "BBQ Shelter"
      }
    },
    {
      "type": "way",
      "id": 411155887,
      "timestamp": "2016-04-17T20:59:20Z",
      "version": 1,
      "changeset": 38651998,
      "user": "gullwstravels",
      "uid": 3062936,
      "center": {
        "lat": -45.4422872,
        "lon": 167.6889159
      },
      "nodes": [],
      "tags": {
        "amenity": "shelter"
      }
    },
    {
      "type": "way",
      "id": 411547718,
      "timestamp": "2021-07-02T02:02:18Z",
      "version": 2,
      "changeset": 107284354,
      "user": "petenz",
      "uid": 38928,
      "center": {
        "lat": -45.3828822,
        "lon": 167.5362156
      },
      "nodes": [],
      "tags": {
        "amenity": "shelter",
        "name": "Hanging Valley Emergency Shelter",
        "operator": "Department of Conservation",
        "shelter_type": "basic_hut"
      }
    },
    {
      "type": "way",
      "id": 411908598,
      "timestamp": "2021-07-02T02:05:03Z",
      "version": 5,
      "changeset": 107284383,
      "user": "petenz",
      "uid": 38928,
      "center": {
        "lat": -45.3852613,
        "lon": 167.6191928
      },
      "nodes": [],
      "tags": {
        "building": "yes",
        "capacity": "54",
        "contact:email": "fiordlandvc@doc.govt.nz",
        "contact:fax": "+64 4 471 1117",
        "contact:phone": "+64 3 249 7924",
        "description": "Contact-Data of the Visitor Centre (Te Anau) and not the hut itself!",
        "ele": "1085",
        "name": "Luxmore Hut",
        "operator": "Department of Conservation",
        "ref:doc": "100033374",
        "tourism": "wilderness_hut",
        "website": "https://www.doc.govt.nz/parks-and-recreation/places-to-go/fiordland/places/fiordland-national-park/things-to-do/huts/luxmore-hut/"
      }
    },
    {
      "type": "way",
      "id": 411977898,
      "timestamp": "2021-09-08T12:23:42Z",
      "version": 2,
      "changeset": 110917141,
      "user": "petenz",
      "uid": 38928,
      "center": {
        "lat": -45.2422433,
        "lon": 167.3738734
      },
      "nodes": [],
      "tags": {
        "building": "yes",
        "capacity": "4",
        "fireplace": "yes",
        "name": "Te Au Hut",
        "operator": "Department of Conservation",
        "reservation": "required",
        "tourism": "wilderness_hut"
      }
    },
    {
      "type": "way",
      "id": 413039374,
      "timestamp": "2021-08-21T12:45:56Z",
      "version": 3,
      "changeset": 110027350,
      "user": "petenz",
      "uid": 38928,
      "center": {
        "lat": -45.1953609,
        "lon": 167.3519074
      },
      "nodes": [],
      "tags": {
        "building": "yes",
        "capacity": "4",
        "name": "Robin Saddle Hut (DoC Biodiversity Hut)",
        "operator": "Department of Conservation",
        "tourism": "wilderness_hut"
      }
    }
  ]
}