{
  "osm3s": {
    "timestamp_osm_date": "2021-12-22T23:59:59Z",
    "timestamp_osm_base": "2021-12-23T04:41:11Z",
    "copyright": "The data included in this document is from www.openstreetmap.org. The data is made available under ODbL."
  },
  "elements": [
    {
      "type": "node",
      "id": 26691456,
      "lat": 43.7641047,
      "lon": 7.4565697,
      "timestamp": "2020-04-28T15:31:49Z",
      "version": 23,
      "changeset": 84276812,
      "user": "oc-OpenStreetMap",
      "uid": 4224320,
      "tags": {
        "name": "Roquebrune-Cap-Martin",
        "name:it": "Roccabruna",
        "name:ja": "ロクブリュヌ＝カップ＝マルタン",
        "name:lij": "Rocabruna",
        "name:mk": "Рокебрин-Кап Мартен",
        "name:oc": "Ròcabruna de Cap Martin",
        "name:ru": "Рокбрюн-Кап-Мартен",
        "place": "town",
        "postal_code": "06190",
        "ref:FR:SIREN": "210601043",
        "source:name:oc": "ieo-bdtopoc",
        "wikidata": "Q220668",
        "wikipedia": "fr:Roquebrune-Cap-Martin"
      }
    },
    {
      "type": "node",
      "id": 26691845,
      "lat": 43.6690101,
      "lon": 7.1906969,
      "timestamp": "2020-04-28T15:31:50Z",
      "version": 21,
      "changeset": 84276812,
      "user": "oc-OpenStreetMap",
      "uid": 4224320,
      "tags": {
        "name": "Saint-Laurent-du-Var",
        "name:ja": "サン＝ローラン＝デュ＝ヴァール",
        "name:oc": "Sant Laurenç de Var",
        "name:ru": "Сен-Лоран-дю-Вар",
        "place": "town",
        "postal_code": "06700",
        "ref:FR:SIREN": "210601233",
        "source:name:oc": "ieo-bdtopoc",
        "wikidata": "Q217755"
      }
    },
    {
      "type": "node",
      "id": 26692120,
      "lat": 43.748281,
      "lon": 7.4219677,
      "timestamp": "2020-04-27T18:37:34Z",
      "version": 24,
      "changeset": 84215547,
      "user": "oc-OpenStreetMap",
      "uid": 4224320,
      "tags": {
        "name": "Beausoleil",
        "name:fr": "Beausoleil",
        "name:it": "Belsole",
        "name:ja": "ボーソレイユ",
        "name:mk": "Босолеј",
        "name:oc": "Bèusoleu",
        "name:ru": "Босолей",
        "place": "town",
        "postal_code": "06240",
        "ref:FR:SIREN": "210600128",
        "source:name:oc": "ieo-bdtopoc",
        "website": "https://villedebeausoleil.fr/",
        "wikidata": "Q273964",
        "wikipedia": "fr:Beausoleil (Alpes-Maritimes)"
      }
    },
    {
      "type": "node",
      "id": 26692232,
      "lat": 43.6579947,
      "lon": 7.1217592,
      "timestamp": "2020-04-28T15:31:50Z",
      "version": 24,
      "changeset": 84276812,
      "user": "oc-OpenStreetMap",
      "uid": 4224320,
      "tags": {
        "name": "Villeneuve-Loubet",
        "name:fr": "Villeneuve-Loubet",
        "name:it": "Villanova Lobetto",
        "name:ja": "ヴィルヌーヴ＝ルーベ",
        "name:oc": "Vilanuòva e Lo Lobet",
        "name:ru": "Вильнёв-Лубе",
        "place": "town",
        "postal_code": "06270",
        "ref:FR:SIREN": "210601613",
        "source:name:oc": "ieo-bdtopoc",
        "website": "http://www.villeneuveloubet.fr/",
        "wikidata": "Q320197",
        "wikipedia": "fr:Villeneuve-Loubet"
      }
    },
    {
      "type": "node",
      "id": 26692299,
      "lat": 43.5836,
      "lon": 7.10905,
      "timestamp": "2020-04-27T18:37:34Z",
      "version": 24,
      "changeset": 84215547,
      "user": "oc-OpenStreetMap",
      "uid": 4224320,
      "tags": {
        "name": "Antibes",
        "name:fr": "Antibes",
        "name:ja": "アンティーブ",
        "name:la": "Antipolis",
        "name:oc": "Antíbol",
        "name:ru": "Антиб",
        "old_name:el": "Αντιπολις",
        "old_name:it": "Antibo",
        "place": "town",
        "postal_code": "06600;06160",
        "ref:FR:SIREN": "210600045",
        "source:name:oc": "ieo-bdtopoc",
        "website": "http://www.antibes-juanlespins.com/",
        "wikidata": "Q126898",
        "wikipedia": "fr:Antibes"
      }
    },
    {
      "type": "node",
      "id": 26692371,
      "lat": 43.7431396,
      "lon": 7.3134223,
      "timestamp": "2020-04-28T11:21:33Z",
      "version": 24,
      "changeset": 84262430,
      "user": "oc-OpenStreetMap",
      "uid": 4224320,
      "tags": {
        "alt_name:it": "Trinità",
        "name": "La Trinité",
        "name:fr": "La Trinité",
        "name:it": "Trinità Vittorio",
        "name:ja": "ラ・トリニテ",
        "name:mk": "Ла Трините",
        "name:oc": "La Ternitat",
        "name:ru": "Ла-Трините",
        "place": "town",
        "postal_code": "06340",
        "ref:FR:SIREN": "210601498",
        "source:name:oc": "ieo-bdtopoc",
        "website": "http://www.ville-de-la-trinite.fr/",
        "wikidata": "Q383475",
        "wikipedia": "fr:La Trinité (Alpes-Maritimes)"
      }
    },
    {
      "type": "node",
      "id": 26692501,
      "lat": 43.6612012,
      "lon": 7.1513834,
      "timestamp": "2020-04-27T18:37:35Z",
      "version": 26,
      "changeset": 84215547,
      "user": "oc-OpenStreetMap",
      "uid": 4224320,
      "tags": {
        "name": "Cagnes-sur-Mer",
        "name:fr": "Cagnes-sur-Mer",
        "name:ja": "カーニュ＝シュル＝メール",
        "name:oc": "Canha de Mar",
        "name:ru": "Кань-сюр-Мер",
        "old_name:it": "Cagno",
        "place": "town",
        "postal_code": "06800",
        "ref:FR:SIREN": "210600276",
        "source:name:oc": "ieo-bdtopoc",
        "website": "http://www.cagnes-sur-mer.fr/",
        "wikidata": "Q193832",
        "wikipedia": "fr:Cagnes-sur-Mer"
      }
    },
    {
      "type": "node",
      "id": 26692578,
      "lat": 43.7846,
      "lon": 7.18785,
      "timestamp": "2020-04-28T11:21:34Z",
      "version": 18,
      "changeset": 84262430,
      "user": "oc-OpenStreetMap",
      "uid": 4224320,
      "tags": {
        "name": "Carros",
        "name:fr": "Carros",
        "name:ja": "カロス",
        "name:oc": "Carròs",
        "name:ru": "Карро",
        "place": "town",
        "postal_code": "06510",
        "ref:FR:SIREN": "210600334",
        "source:name:oc": "ieo-bdtopoc",
        "website": "http://www.ville-carros.fr/",
        "wikidata": "Q609047",
        "wikipedia": "fr:Carros"
      }
    },
    {
      "type": "node",
      "id": 26692593,
      "lat": 43.7226704,
      "lon": 7.1114175,
      "timestamp": "2021-01-26T21:01:41Z",
      "version": 26,
      "changeset": 98183905,
      "user": "Farot",
      "uid": 10617233,
      "tags": {
        "name": "Vence",
        "name:fr": "Vence",
        "name:it": "Venza",
        "name:ja": "ヴァンス",
        "name:oc": "Vença",
        "name:ru": "Ванс",
        "place": "town",
        "postal_code": "06140",
        "ref:FR:SIREN": "210601571",
        "source:name:oc": "ieo-bdtopoc",
        "website": "https://vence.fr/",
        "wikidata": "Q192368",
        "wikipedia": "fr:Vence"
      }
    },
    {
      "type": "node",
      "id": 26694373,
      "lat": 43.7452982,
      "lon": 7.4011252,
      "timestamp": "2021-05-31T13:45:04Z",
      "version": 24,
      "changeset": 105627818,
      "user": "Farot",
      "uid": 10617233,
      "tags": {
        "name": "La Turbie",
        "name:it": "Turbia",
        "name:ja": "ラ・テュルビー",
        "name:mk": "Ла Тирби",
        "name:oc": "A Turbia",
        "name:ru": "Ла-Тюрби",
        "place": "village",
        "postal_code": "06320",
        "ref:FR:SIREN": "210601506",
        "source:name:oc": "ieo-bdtopoc",
        "wikidata": "Q244709",
        "wikipedia": "fr:La Turbie"
      }
    },
    {
      "type": "node",
      "id": 26694375,
      "lat": 43.8477377,
      "lon": 7.2401105,
      "timestamp": "2020-04-28T11:21:35Z",
      "version": 16,
      "changeset": 84262430,
      "user": "oc-OpenStreetMap",
      "uid": 4224320,
      "tags": {
        "addr:postcode": "06670",
        "name": "Levens",
        "name:it": "Levenzo",
        "name:oc": "Levenç",
        "place": "village",
        "population": "4683",
        "ref:FR:SIREN": "210600755",
        "source:name:oc": "ieo-bdtopoc",
        "source:population": "INSEE 2013"
      }
    },
    {
      "type": "node",
      "id": 26694809,
      "lat": 43.6899651,
      "lon": 7.3327399,
      "timestamp": "2020-04-28T15:31:52Z",
      "version": 20,
      "changeset": 84276812,
      "user": "oc-OpenStreetMap",
      "uid": 4224320,
      "tags": {
        "name": "Saint-Jean-Cap-Ferrat",
        "name:it": "San Giovanni Capo Ferrato",
        "name:ja": "サン＝ジャン＝カップ＝フェラ",
        "name:oc": "Sant Joan de Cap Ferrat",
        "name:ru": "Сен-Жан-Кап-Ферра",
        "place": "village",
        "postal_code": "06230",
        "ref:FR:SIREN": "210601217",
        "source:name:oc": "ieo-bdtopoc"
      }
    },
    {
      "type": "node",
      "id": 26694876,
      "lat": 43.7476474,
      "lon": 7.1427738,
      "timestamp": "2020-04-28T15:31:52Z",
      "version": 18,
      "changeset": 84276812,
      "user": "oc-OpenStreetMap",
      "uid": 4224320,
      "tags": {
        "name": "Saint-Jeannet",
        "name:ja": "サン＝ジャネ",
        "name:oc": "Sant Joanet",
        "name:ru": "Сен-Жанне",
        "place": "village",
        "postal_code": "06640",
        "ref:FR:SIREN": "210601225",
        "source:name:oc": "ieo-bdtopoc"
      }
    },
    {
      "type": "node",
      "id": 26695356,
      "lat": 43.8119541,
      "lon": 7.3146204,
      "timestamp": "2020-04-28T11:21:35Z",
      "version": 20,
      "changeset": 84262430,
      "user": "oc-OpenStreetMap",
      "uid": 4224320,
      "tags": {
        "name": "Contes",
        "name:it": "Conti",
        "name:oc": "Còntes",
        "place": "village",
        "postal_code": "06390",
        "ref:FR:SIREN": "210600482",
        "source:name:oc": "ieo-bdtopoc"
      }
    },
    {
      "type": "node",
      "id": 26695387,
      "lat": 43.7606843,
      "lon": 7.1781152,
      "timestamp": "2020-04-28T11:21:36Z",
      "version": 22,
      "changeset": 84262430,
      "user": "oc-OpenStreetMap",
      "uid": 4224320,
      "tags": {
        "name": "Gattières",
        "name:fr": "Gattières",
        "name:ja": "ガティエール",
        "name:oc": "Gatièras",
        "name:ru": "Гатьер",
        "place": "village",
        "postal_code": "06510",
        "ref:FR:SIREN": "210600649",
        "source:name:oc": "ieo-bdtopoc",
        "website": "https://gattieres.fr/",
        "wikidata": "Q652150",
        "wikipedia": "fr:Gattières"
      }
    },
    {
      "type": "node",
      "id": 26695512,
      "lat": 43.6661456,
      "lon": 7.0492115,
      "timestamp": "2020-11-27T17:36:54Z",
      "version": 17,
      "changeset": 94908368,
      "user": "anothercypres",
      "uid": 10619667,
      "tags": {
        "addr:postcode": "06330",
        "name": "Roquefort-les-Pins",
        "name:oc": "Ròcafort dei Pins",
        "name:ru": "Рокфор-ле-Пен",
        "place": "village",
        "population": "6355",
        "ref:FR:SIREN": "210601050",
        "source:name:oc": "ieo-bdtopoc",
        "source:population": "INSEE 2013",
        "wikidata": "Q381338"
      }
    },
    {
      "type": "node",
      "id": 26695547,
      "lat": 43.7228225,
      "lon": 7.1503312,
      "timestamp": "2021-02-08T17:32:34Z",
      "version": 21,
      "changeset": 98923289,
      "user": "Farot",
      "uid": 10617233,
      "tags": {
        "name": "La Gaude",
        "name:it": "La Gauda",
        "name:ja": "ラ・ゴード",
        "name:oc": "La Gauda",
        "name:ru": "Ла-Год",
        "place": "village",
        "postal_code": "06610",
        "ref:FR:SIREN": "210600656",
        "source:name:oc": "ieo-bdtopoc",
        "wikidata": "Q429102",
        "wikipedia": "fr:La Gaude"
      }
    },
    {
      "type": "node",
      "id": 26695624,
      "lat": 43.9375321,
      "lon": 7.5139664,
      "timestamp": "2020-04-27T18:37:35Z",
      "version": 21,
      "changeset": 84215547,
      "user": "oc-OpenStreetMap",
      "uid": 4224320,
      "tags": {
        "alt_name:it": "Breglio sul Roia",
        "name": "Breil-sur-Roya",
        "name:it": "Breglio",
        "name:oc": "Brelh de Ròia",
        "place": "village",
        "postal_code": "06540",
        "source:name:oc": "ieo-bdtopoc",
        "wikidata": "Q321111",
        "wikipedia": "fr:Breil-sur-Roya"
      }
    },
    {
      "type": "node",
      "id": 26695716,
      "lat": 43.8785647,
      "lon": 7.4498235,
      "timestamp": "2020-04-28T15:31:53Z",
      "version": 18,
      "changeset": 84276812,
      "user": "oc-OpenStreetMap",
      "uid": 4224320,
      "tags": {
        "name": "Sospel",
        "name:it": "Sospello",
        "name:oc": "Sospel",
        "place": "village",
        "postal_code": "06380",
        "ref:FR:SIREN": "210601365",
        "source:name:oc": "ieo-bdtopoc"
      }
    },
    {
      "type": "node",
      "id": 26696336,
      "lat": 43.7372922,
      "lon": 7.2873233,
      "timestamp": "2020-04-28T15:31:54Z",
      "version": 21,
      "changeset": 84276812,
      "user": "oc-OpenStreetMap",
      "uid": 4224320,
      "tags": {
        "name": "Saint-André-de-la-Roche",
        "name:fr": "Saint-André-de-la-Roche",
        "name:it": "Sant'Andrea",
        "name:ja": "サンタンドレ＝ド＝ラ＝ロシュ",
        "name:oc": "Sant Andrieu de la Ròca",
        "name:ru": "Сент-Андре-де-ла-Рош",
        "place": "village",
        "postal_code": "06730",
        "ref:FR:SIREN": "210601142",
        "source:name:oc": "ieo-bdtopoc",
        "wikidata": "Q746896",
        "wikipedia": "fr:Saint-André-de-la-Roche"
      }
    },
    {
      "type": "node",
      "id": 26696411,
      "lat": 43.7615774,
      "lon": 7.2183304,
      "timestamp": "2020-04-28T11:21:37Z",
      "version": 21,
      "changeset": 84262430,
      "user": "oc-OpenStreetMap",
      "uid": 4224320,
      "tags": {
        "alt_name:it": "Colomars",
        "name": "Colomars",
        "name:fr": "Colomars",
        "name:it": "Colomarte",
        "name:ja": "コロマール",
        "name:oc": "Colomars",
        "place": "village",
        "postal_code": "06670",
        "ref:FR:SIREN": "210600466",
        "source:name:oc": "ieo-bdtopoc",
        "website": "https://colomars.fr/",
        "wikidata": "Q845148",
        "wikipedia": "fr:Colomars"
      }
    },
    {
      "type": "node",
      "id": 26696590,
      "lat": 43.7556098,
      "lon": 7.3201523,
      "timestamp": "2020-04-28T11:21:37Z",
      "version": 19,
      "changeset": 84262430,
      "user": "oc-OpenStreetMap",
      "uid": 4224320,
      "tags": {
        "name": "Drap",
        "name:it": "Drappo",
        "name:ja": "ドラップ",
        "name:oc": "Drap",
        "place": "village",
        "postal_code": "06340",
        "ref:FR:SIREN": "210600540",
        "source:name:oc": "ieo-bdtopoc",
        "wikidata": "Q1089758",
        "wikipedia": "fr:Drap (Alpes-Maritimes)"
      }
    },
    {
      "type": "node",
      "id": 26697599,
      "lat": 43.6857041,
      "lon": 7.0976053,
      "timestamp": "2020-04-28T11:21:38Z",
      "version": 19,
      "changeset": 84262430,
      "user": "oc-OpenStreetMap",
      "uid": 4224320,
      "tags": {
        "addr:postcode": "06480",
        "name": "La Colle-sur-Loup",
        "name:ja": "ラ・コル＝シュル＝ルー",
        "name:oc": "Sa Còla de Lop",
        "name:ru": "Ла-Коль-сюр-Лу",
        "place": "village",
        "population": "7676",
        "ref:FR:SIREN": "210600441",
        "source:name:oc": "ieo-bdtopoc",
        "source:population": "INSEE 2013",
        "wikidata": "Q865745",
        "wikipedia": "fr:La Colle-sur-Loup"
      }
    },
    {
      "type": "node",
      "id": 26698092,
      "lat": 43.697972,
      "lon": 7.1216304,
      "timestamp": "2020-04-28T15:31:54Z",
      "version": 23,
      "changeset": 84276812,
      "user": "oc-OpenStreetMap",
      "uid": 4224320,
      "tags": {
        "name": "Saint-Paul-de-Vence",
        "name:ja": "サン＝ポール＝ド＝ヴァンス",
        "name:oc": "Sant Pau de Vença",
        "name:ru": "Сен-Поль-де-Ванс",
        "old_name": "Saint-Paul",
        "place": "village",
        "postal_code": "06570",
        "ref:FR:SIREN": "210601282",
        "source:name": "Décret n° 2011-311 du 22 mars 2011 portant changement du nom de communes",
        "source:name:oc": "ieo-bdtopoc",
        "wikidata": "Q208260",
        "wikipedia": "fr:Saint-Paul-de-Vence"
      }
    },
    {
      "type": "node",
      "id": 26698232,
      "lat": 43.7230453,
      "lon": 7.3969373,
      "timestamp": "2021-05-31T13:51:41Z",
      "version": 27,
      "changeset": 105628124,
      "user": "Farot",
      "uid": 10617233,
      "tags": {
        "alt_name:it": "Capo d'Aglio",
        "name": "Cap-d'Ail",
        "name:it": "Capodaglio",
        "name:ja": "カップ＝ダイユ",
        "name:mk": "Кап д'Ај",
        "name:oc": "Caboalh",
        "name:ru": "Кап-д’Ай",
        "old_name:it": "Turbia sul Mare",
        "place": "village",
        "postal_code": "06320",
        "ref:FR:SIREN": "210600326",
        "source:name:oc": "ieo-bdtopoc",
        "wikidata": "Q274193",
        "wikipedia": "fr:Cap-d'Ail"
      }
    },
    {
      "type": "node",
      "id": 26698360,
      "lat": 43.7878,
      "lon": 7.27228,
      "timestamp": "2020-04-28T15:31:55Z",
      "version": 16,
      "changeset": 84276812,
      "user": "oc-OpenStreetMap",
      "uid": 4224320,
      "tags": {
        "name": "Tourrette-Levens",
        "name:it": "Torretta Levenzo",
        "name:oc": "Torreta de Levens",
        "place": "village",
        "postal_code": "06690",
        "ref:FR:SIREN": "210601472",
        "source:name:oc": "ieo-bdtopoc"
      }
    },
    {
      "type": "node",
      "id": 26698537,
      "lat": 43.7088,
      "lon": 7.33375,
      "timestamp": "2020-04-27T18:37:36Z",
      "version": 20,
      "changeset": 84215547,
      "user": "oc-OpenStreetMap",
      "uid": 4224320,
      "tags": {
        "name": "Beaulieu-sur-Mer",
        "name:it": "Belluogo",
        "name:ja": "ボーリュー＝シュル＝メール",
        "name:oc": "Bèuluec de Mar",
        "name:ru": "Больё-сюр-Мер",
        "place": "village",
        "postal_code": "06310",
        "ref:FR:SIREN": "210600110",
        "source:name:oc": "ieo-bdtopoc",
        "wikidata": "Q211622",
        "wikipedia": "fr:Beaulieu-sur-Mer"
      }
    },
    {
      "type": "node",
      "id": 26698590,
      "lat": 43.7158031,
      "lon": 7.058912,
      "timestamp": "2019-11-25T16:59:25Z",
      "version": 12,
      "changeset": 77535526,
      "user": "StephaneP",
      "uid": 439947,
      "tags": {
        "addr:postcode": "06140",
        "name": "Tourrettes-sur-Loup",
        "name:ru": "Турет-сюр-Лу",
        "place": "village",
        "population": "4007",
        "ref:FR:SIREN": "210601480",
        "source:population": "INSEE 2013"
      }
    },
    {
      "type": "node",
      "id": 26858366,
      "lat": 43.705,
      "lon": 7.050556,
      "timestamp": "2021-07-27T15:37:01Z",
      "version": 3,
      "changeset": 108697962,
      "user": "citroniais",
      "uid": 13826849,
      "tags": {
        "access": "customers",
        "addr:city": "Tourrettes sur Loup",
        "addr:housenumber": "523",
        "addr:postcode": "06140",
        "addr:street": "Route de Pie Lombard",
        "fee": "yes",
        "name": "Camping la Camassade",
        "payment:bank_transfer": "yes",
        "payment:cash": "yes",
        "payment:cheque": "yes",
        "payment:cheques_vacances": "yes",
        "payment:credit_card": "yes",
        "stars": "3",
        "tourism": "camp_site",
        "website": "https://camassade.com/"
      }
    },
    {
      "type": "node",
      "id": 26858753,
      "lat": 43.690278,
      "lon": 7.156389,
      "timestamp": "2007-03-28T17:12:43Z",
      "version": 1,
      "changeset": 247310,
      "user": "Sven S_",
      "uid": 2566,
      "tags": {
        "created_by": "JOSM",
        "name": "Le Todos",
        "tourism": "camp_site"
      }
    },
    {
      "type": "node",
      "id": 26858981,
      "lat": 43.6820171,
      "lon": 7.0835292,
      "timestamp": "2019-03-23T16:38:29Z",
      "version": 8,
      "changeset": 68449203,
      "user": "b-jazz-bot",
      "uid": 9451067,
      "tags": {
        "addr:street": "Route du Pont de Pierre",
        "internet_access": "wlan",
        "name": "Les Pinèdes",
        "tourism": "camp_site",
        "website": "https://www.lespinedes.com/"
      }
    },
    {
      "type": "node",
      "id": 35976069,
      "lat": 43.7507158,
      "lon": 7.137705,
      "timestamp": "2019-03-10T14:52:31Z",
      "version": 6,
      "changeset": 67990903,
      "user": "Bert Bos",
      "uid": 155462,
      "tags": {
        "ele": "801",
        "name": "Baou de Saint-Jeannet",
        "name:fr": "Baou de Saint-Jeannet",
        "name:oc": "Bauç de Sant Joanet",
        "natural": "peak",
        "source:name:oc": "ieo-bdtopoc",
        "wikidata": "Q2883619"
      }
    },
    {
      "type": "node",
      "id": 36263042,
      "lat": 43.8563396,
      "lon": 7.1970023,
      "timestamp": "2009-09-10T07:35:34Z",
      "version": 4,
      "changeset": 2432020,
      "user": "paddiloo",
      "uid": 57478,
      "tags": {
        "created_by": "Potlatch 0.5d",
        "name": "Plan-du-Var",
        "place": "hamlet",
        "population": "200"
      }
    },
    {
      "type": "node",
      "id": 66586656,
      "lat": 43.871038,
      "lon": 7.5541812,
      "timestamp": "2016-09-26T20:59:13Z",
      "version": 3,
      "changeset": 42456120,
      "user": "fayor",
      "uid": 743479,
      "tags": {
        "gfoss_id": "1122",
        "name": "Airole",
        "place": "village",
        "population": "456",
        "source": "geodati.gfoss.it"
      }
    },
    {
      "type": "node",
      "id": 66586658,
      "lat": 43.8803889,
      "lon": 7.6602096,
      "timestamp": "2019-01-02T12:08:14Z",
      "version": 6,
      "changeset": 65956317,
      "user": "Klenje",
      "uid": 129060,
      "tags": {
        "gfoss_id": "1123",
        "loc_name:lij": "Bligal",
        "name": "Apricale",
        "name:lij": "Avrigâ",
        "place": "village",
        "population": "578",
        "source": "geodati.gfoss.it"
      }
    },
    {
      "type": "node",
      "id": 66586688,
      "lat": 43.8151011,
      "lon": 7.6284178,
      "timestamp": "2021-04-27T16:11:16Z",
      "version": 10,
      "changeset": 103718650,
      "user": "poi-vediamo",
      "uid": 614439,
      "tags": {
        "gfoss_id": "1132",
        "name": "Camporosso",
        "name:ru": "Кампороссо",
        "place": "village",
        "population": "5427",
        "source": "www.camporosso.it",
        "wikipedia": "it:Camporosso"
      }
    },
    {
      "type": "node",
      "id": 66586689,
      "lat": 43.8789876,
      "lon": 7.6398465,
      "timestamp": "2016-09-26T20:59:17Z",
      "version": 3,
      "changeset": 42456120,
      "user": "fayor",
      "uid": 743479,
      "tags": {
        "gfoss_id": "1153",
        "name": "Isolabona",
        "place": "village",
        "population": "643",
        "source": "geodati.gfoss.it"
      }
    },
    {
      "type": "node",
      "id": 66586692,
      "lat": 43.851718,
      "lon": 7.622643,
      "timestamp": "2019-11-08T12:23:30Z",
      "version": 3,
      "changeset": 76808450,
      "user": "poi-vediamo",
      "uid": 614439,
      "tags": {
        "gfoss_id": "1150",
        "name": "Dolceacqua",
        "place": "village",
        "population": "1901",
        "source": "geodati.gfoss.it",
        "wikipedia": "it:Dolceacqua"
      }
    },
    {
      "type": "node",
      "id": 66586718,
      "lat": 43.890619,
      "lon": 7.599642,
      "timestamp": "2016-09-26T20:59:19Z",
      "version": 2,
      "changeset": 42456120,
      "user": "fayor",
      "uid": 743479,
      "tags": {
        "gfoss_id": "1172",
        "name": "Rocchetta Nervina",
        "place": "village",
        "population": "259",
        "source": "geodati.gfoss.it"
      }
    },
    {
      "type": "node",
      "id": 66586731,
      "lat": 43.8795375,
      "lon": 7.5148239,
      "timestamp": "2018-01-14T00:37:04Z",
      "version": 6,
      "changeset": 55419858,
      "user": "GFS",
      "uid": 362065,
      "tags": {
        "gfoss_id": "1159",
        "name": "Olivetta",
        "place": "village",
        "population": "238",
        "source": "geodati.gfoss.it"
      }
    },
    {
      "type": "node",
      "id": 66586741,
      "lat": 43.9322678,
      "lon": 7.6626438,
      "timestamp": "2016-09-26T20:59:18Z",
      "version": 5,
      "changeset": 42456120,
      "user": "fayor",
      "uid": 743479,
      "tags": {
        "gfoss_id": "1164",
        "name": "Pigna",
        "place": "village",
        "population": "935",
        "source": "geodati.gfoss.it"
      }
    },
    {
      "type": "node",
      "id": 66586750,
      "lat": 43.829118,
      "lon": 7.654844,
      "timestamp": "2016-09-26T20:59:20Z",
      "version": 2,
      "changeset": 42456120,
      "user": "fayor",
      "uid": 743479,
      "tags": {
        "gfoss_id": "1179",
        "name": "Soldano",
        "place": "village",
        "population": "837",
        "source": "geodati.gfoss.it"
      }
    },
    {
      "type": "node",
      "id": 66586765,
      "lat": 43.9031968,
      "lon": 7.7169209,
      "timestamp": "2016-09-26T20:59:14Z",
      "version": 5,
      "changeset": 42456120,
      "user": "fayor",
      "uid": 743479,
      "tags": {
        "alt_name": "Baiardo",
        "gfoss_id": "1128",
        "name": "Bajardo",
        "place": "village",
        "population": "278",
        "source": "geodati.gfoss.it"
      }
    },
    {
      "type": "node",
      "id": 66586790,
      "lat": 43.7850512,
      "lon": 7.6591094,
      "timestamp": "2016-11-02T21:58:31Z",
      "version": 5,
      "changeset": 43364078,
      "user": "Fedurli",
      "uid": 4795149,
      "tags": {
        "gfoss_id": "1129",
        "name": "Bordighera",
        "name:ru": "Бордигера",
        "place": "town",
        "population": "10456",
        "source": "http://demo.istat.it/bilmens2016gen/index.html"
      }
    },
    {
      "type": "node",
      "id": 66586805,
      "lat": 43.812718,
      "lon": 7.666544,
      "timestamp": "2021-04-27T12:15:05Z",
      "version": 3,
      "changeset": 103705902,
      "user": "poi-vediamo",
      "uid": 614439,
      "tags": {
        "gfoss_id": "1183",
        "name": "Vallebona",
        "place": "village",
        "population": "1087",
        "source": "geodati.gfoss.it",
        "wikipedia": "it:Vallebona"
      }
    },
    {
      "type": "node",
      "id": 66586825,
      "lat": 43.9285566,
      "lon": 7.674434,
      "timestamp": "2021-02-02T19:22:30Z",
      "version": 3,
      "changeset": 98597258,
      "user": "nick-28",
      "uid": 3144016,
      "tags": {
        "gfoss_id": "1136",
        "name": "Castel Vittorio",
        "place": "village",
        "population": "397",
        "source": "geodati.gfoss.it"
      }
    },
    {
      "type": "node",
      "id": 66586847,
      "lat": 43.8020802,
      "lon": 7.7181662,
      "timestamp": "2016-09-26T20:59:18Z",
      "version": 4,
      "changeset": 42456120,
      "user": "fayor",
      "uid": 743479,
      "tags": {
        "gfoss_id": "1160",
        "name": "Ospedaletti",
        "place": "village",
        "population": "3351",
        "source": "geodati.gfoss.it"
      }
    },
    {
      "type": "node",
      "id": 66586898,
      "lat": 43.8182416,
      "lon": 7.6488198,
      "timestamp": "2021-04-27T12:15:05Z",
      "version": 4,
      "changeset": 103705902,
      "user": "poi-vediamo",
      "uid": 614439,
      "tags": {
        "gfoss_id": "1174",
        "name": "San Biagio della Cima",
        "place": "village",
        "population": "1273",
        "source": "geodati.gfoss.it",
        "wikipedia": "it:San Biagio della Cima"
      }
    },
    {
      "type": "node",
      "id": 66586909,
      "lat": 43.826419,
      "lon": 7.694545,
      "timestamp": "2021-04-27T12:15:05Z",
      "version": 3,
      "changeset": 103705902,
      "user": "poi-vediamo",
      "uid": 614439,
      "tags": {
        "gfoss_id": "1178",
        "name": "Seborga",
        "place": "village",
        "population": "279",
        "source": "geodati.gfoss.it",
        "wikipedia": "it:Seborga"
      }
    },
    {
      "type": "node",
      "id": 66586929,
      "lat": 43.7917623,
      "lon": 7.6033131,
      "timestamp": "2017-02-25T16:29:03Z",
      "version": 15,
      "changeset": 46397292,
      "user": "sabas88",
      "uid": 454589,
      "tags": {
        "gfoss_id": "1186",
        "name": "Ventimiglia",
        "name:fr": "Vintimille",
        "name:it": "Ventimiglia",
        "name:ja": "ヴェンティミーリア",
        "name:la": "Albintimilium",
        "name:ru": "Вентимилья",
        "place": "town",
        "population": "24189",
        "source": "http://demo.istat.it/bilmens2016gen/index.html",
        "wikidata": "Q191759",
        "wikipedia": "it:Ventimiglia"
      }
    },
    {
      "type": "node",
      "id": 79392884,
      "lat": 43.8450509,
      "lon": 7.0928506,
      "timestamp": "2021-08-20T09:53:31Z",
      "version": 7,
      "changeset": 109977419,
      "user": "sergio7826",
      "uid": 411998,
      "tags": {
        "ele": "596",
        "mountain_pass": "yes",
        "name": "Col des Ferres",
        "natural": "saddle"
      }
    },
    {
      "type": "node",
      "id": 255830620,
      "lat": 43.8003843,
      "lon": 7.2927777,
      "timestamp": "2017-09-25T01:39:45Z",
      "version": 8,
      "changeset": 52342326,
      "user": "nyuriks",
      "uid": 339581,
      "tags": {
        "ele": "627",
        "mountain_pass": "yes",
        "name": "Col de Châteauneuf",
        "natural": "saddle",
        "wikidata": "Q2982030",
        "wikipedia": "fr:Col de Châteauneuf de Contes"
      }
    },
    {
      "type": "node",
      "id": 260479479,
      "lat": 43.8138356,
      "lon": 7.4465939,
      "timestamp": "2015-01-15T21:44:14Z",
      "version": 6,
      "changeset": 28174281,
      "user": "geow",
      "uid": 223093,
      "tags": {
        "ele": "736",
        "mountain_pass": "yes",
        "name": "Col des Banquettes",
        "natural": "saddle"
      }
    },
    {
      "type": "node",
      "id": 261712334,
      "lat": 43.806344,
      "lon": 7.363602,
      "timestamp": "2020-04-27T18:37:37Z",
      "version": 18,
      "changeset": 84215547,
      "user": "oc-OpenStreetMap",
      "uid": 4224320,
      "tags": {
        "alt_name:it": "Bleusasco",
        "name": "Blausasc",
        "name:it": "Blausasco",
        "name:oc": "Blausasc",
        "place": "village",
        "postal_code": "06440",
        "ref:FR:SIREN": "210600193",
        "source:name:oc": "ieo-bdtopoc"
      }
    },
    {
      "type": "node",
      "id": 261713611,
      "lat": 43.8342052,
      "lon": 7.3556964,
      "timestamp": "2021-05-31T13:40:40Z",
      "version": 17,
      "changeset": 105627602,
      "user": "Farot",
      "uid": 10617233,
      "tags": {
        "alt_name:it": "L'Escarena",
        "name": "L'Escarène",
        "name:it": "Scarena",
        "name:oc": "L'Escarea",
        "place": "village",
        "postal_code": "06440",
        "ref:FR:SIREN": "210600573",
        "source:name:oc": "ieo-bdtopoc"
      }
    },
    {
      "type": "node",
      "id": 261714880,
      "lat": 43.7783963,
      "lon": 7.3821208,
      "timestamp": "2020-04-28T15:31:56Z",
      "version": 17,
      "changeset": 84276812,
      "user": "oc-OpenStreetMap",
      "uid": 4224320,
      "tags": {
        "name": "Peillon",
        "name:it": "Peglione",
        "name:oc": "Pelhon",
        "place": "village",
        "postal_code": "06440",
        "ref:FR:SIREN": "210600920",
        "source:name:oc": "ieo-bdtopoc"
      }
    },
    {
      "type": "node",
      "id": 261720333,
      "lat": 43.8305571,
      "lon": 7.3289808,
      "timestamp": "2020-01-20T07:30:53Z",
      "version": 20,
      "changeset": 79782031,
      "user": "jcr83",
      "uid": 234940,
      "tags": {
        "name": "Berre-les-Alpes",
        "name:it": "Berra",
        "place": "village",
        "postal_code": "06390",
        "ref:FR:SIREN": "210600151",
        "wikidata": "Q843023",
        "wikipedia": "fr:Berre-les-Alpes"
      }
    },
    {
      "type": "node",
      "id": 267885935,
      "lat": 43.7415271,
      "lon": 7.4257261,
      "timestamp": "2020-12-23T11:39:02Z",
      "version": 9,
      "changeset": 96321754,
      "user": "topius",
      "uid": 2903947,
      "tags": {
        "addr:city": "Monaco",
        "addr:housenumber": "30",
        "addr:postcode": "98000",
        "addr:street": "Boulevard Princesse Charlotte",
        "brand": "Marché U",
        "brand:wikidata": "Q2529029",
        "brand:wikipedia": "en:Système U",
        "name": "Marché U",
        "opening_hours": "Mo-Sa 08:30-19:30; Su off",
        "operator": "Marché U",
        "phone": "+377 93 50 68 60",
        "shop": "supermarket",
        "url": "https://www.magasins-u.com/marcheu-montecarlo"
      }
    },
    {
      "type": "node",
      "id": 267981991,
      "lat": 43.8851308,
      "lon": 7.3273824,
      "timestamp": "2015-01-15T21:44:22Z",
      "version": 4,
      "changeset": 28174281,
      "user": "geow",
      "uid": 223093,
      "tags": {
        "ele": "980",
        "mountain_pass": "yes",
        "name": "Col du Savel",
        "natural": "saddle"
      }
    },
    {
      "type": "node",
      "id": 268113123,
      "lat": 43.741163,
      "lon": 7.4283959,
      "timestamp": "2020-08-18T20:53:13Z",
      "version": 8,
      "changeset": 89595885,
      "user": "rene78",
      "uid": 257555,
      "tags": {
        "brand": "Spar",
        "brand:wikidata": "Q610492",
        "brand:wikipedia": "en:Spar (retailer)",
        "name": "Spar",
        "opening_hours": "Mo-Sa 07:30-20:00; Su 09:00-19:00",
        "shop": "supermarket",
        "wheelchair": "yes"
      }
    },
    {
      "type": "node",
      "id": 268169284,
      "lat": 43.7639485,
      "lon": 7.4814904,
      "timestamp": "2020-03-23T03:17:41Z",
      "version": 3,
      "changeset": 82500335,
      "user": "Olyon",
      "uid": 1443767,
      "tags": {
        "brand": "Marché U",
        "brand:wikidata": "Q2529029",
        "name": "Marché U",
        "operator": "Système U",
        "shop": "supermarket"
      }
    },
    {
      "type": "node",
      "id": 268543749,
      "lat": 43.7815684,
      "lon": 7.4800288,
      "timestamp": "2020-03-22T19:36:51Z",
      "version": 3,
      "changeset": 82492748,
      "user": "PanierAvide",
      "uid": 214436,
      "tags": {
        "brand": "Intermarché",
        "brand:wikidata": "Q3153200",
        "brand:wikipedia": "fr:Intermarché",
        "name": "Intermarché",
        "operator": "Groupement des Mousquetaires",
        "shop": "supermarket"
      }
    },
    {
      "type": "node",
      "id": 268840593,
      "lat": 43.8638745,
      "lon": 7.2953284,
      "timestamp": "2020-04-28T11:21:42Z",
      "version": 19,
      "changeset": 84262430,
      "user": "oc-OpenStreetMap",
      "uid": 4224320,
      "tags": {
        "addr:postcode": "06390",
        "name": "Coaraze",
        "name:oc": "Coarasa",
        "place": "village",
        "population": "736",
        "ref:FR:SIREN": "210600433",
        "source:name:oc": "ieo-bdtopoc",
        "source:population": "INSEE 2013"
      }
    },
    {
      "type": "node",
      "id": 270629156,
      "lat": 43.7632504,
      "lon": 7.4798402,
      "timestamp": "2020-04-02T21:12:14Z",
      "version": 2,
      "changeset": 83000166,
      "user": "Kalepom",
      "uid": 392288,
      "tags": {
        "brand": "Schlecker",
        "brand:wikidata": "Q680145",
        "brand:wikipedia": "fr:Schlecker",
        "name": "Schlecker",
        "shop": "supermarket"
      }
    },
    {
      "type": "node",
      "id": 272488581,
      "lat": 43.9818555,
      "lon": 7.1277676,
      "timestamp": "2020-04-27T18:37:37Z",
      "version": 14,
      "changeset": 84215547,
      "user": "oc-OpenStreetMap",
      "uid": 4224320,
      "tags": {
        "addr:postcode": "06420",
        "name": "Bairols",
        "name:oc": "Bairòls",
        "place": "village",
        "population": "107",
        "ref:FR:SIREN": "210600094",
        "source:name:oc": "ieo-bdtopoc",
        "source:population": "INSEE 2013"
      }
    },
    {
      "type": "node",
      "id": 273248083,
      "lat": 43.7429181,
      "lon": 7.4261715,
      "timestamp": "2019-07-25T07:13:14Z",
      "version": 5,
      "changeset": 72629671,
      "user": "CaroCRF",
      "uid": 9642343,
      "tags": {
        "brand": "Carrefour City",
        "brand:wikidata": "Q2940187",
        "brand:wikipedia": "fr:Carrefour City",
        "name": "Carrefour City",
        "operator": "Carrefour Marché Plus",
        "shop": "supermarket"
      }
    },
    {
      "type": "node",
      "id": 274497719,
      "lat": 43.7307976,
      "lon": 7.4169685,
      "timestamp": "2020-08-02T23:03:53Z",
      "version": 10,
      "changeset": 88852511,
      "user": "rene78",
      "uid": 257555,
      "tags": {
        "brand": "Carrefour",
        "brand:wikidata": "Q217599",
        "brand:wikipedia": "fr:Carrefour (enseigne)",
        "delivery:covid19": "yes",
        "indoor": "yes",
        "level": "0",
        "name": "Carrefour",
        "opening_hours": "Mo-Sa 08:15-21:30; Su 09:00-19:00",
        "opening_hours:covid19": "Mo-Sa 08:30-19:00; Su 08:30-13:00",
        "shop": "supermarket",
        "takeaway:covid19": "yes",
        "url": "http://www.carrefour.fr/magasin/monaco"
      }
    },
    {
      "type": "node",
      "id": 275682756,
      "lat": 44.0618551,
      "lon": 7.6158933,
      "timestamp": "2020-04-28T11:21:42Z",
      "version": 13,
      "changeset": 84262430,
      "user": "oc-OpenStreetMap",
      "uid": 4224320,
      "tags": {
        "addr:postcode": "06430",
        "name": "La Brigue",
        "name:it": "Briga Marittima",
        "name:oc": "La Briga",
        "place": "village",
        "population": "700",
        "source:name:oc": "ieo-bdtopoc",
        "source:population": "INSEE 2013"
      }
    },
    {
      "type": "node",
      "id": 275682758,
      "lat": 44.0568331,
      "lon": 7.5872449,
      "timestamp": "2016-07-26T05:41:15Z",
      "version": 10,
      "changeset": 41028648,
      "user": "solitone",
      "uid": 584192,
      "tags": {
        "name": "Saint-Dalmas-de-Tende",
        "name:it": "San Dalmazzo di Tenda",
        "place": "village"
      }
    },
    {
      "type": "node",
      "id": 276165034,
      "lat": 44.0700773,
      "lon": 7.2565002,
      "timestamp": "2020-04-28T15:31:58Z",
      "version": 26,
      "changeset": 84276812,
      "user": "oc-OpenStreetMap",
      "uid": 4224320,
      "tags": {
        "name": "Saint-Martin-Vésubie",
        "name:it": "San Martino Lantosca",
        "name:oc": "Sant Martin de Lantosca",
        "place": "village",
        "postal_code": "06450",
        "ref:FR:SIREN": "210601274",
        "source:name:oc": "ieo-bdtopoc",
        "wikidata": "Q375283",
        "wikipedia": "fr:Saint-Martin-Vésubie"
      }
    },
    {
      "type": "node",
      "id": 276506827,
      "lat": 43.9734679,
      "lon": 7.3125927,
      "timestamp": "2020-04-28T11:21:44Z",
      "version": 16,
      "changeset": 84262430,
      "user": "oc-OpenStreetMap",
      "uid": 4224320,
      "tags": {
        "name": "Lantosque",
        "name:it": "Lantosca",
        "name:oc": "Lantosca",
        "place": "village",
        "postal_code": "06450",
        "source:name:oc": "ieo-bdtopoc"
      }
    },
    {
      "type": "node",
      "id": 277053000,
      "lat": 43.6990359,
      "lon": 7.2385927,
      "timestamp": "2021-10-21T22:10:50Z",
      "version": 6,
      "changeset": 112812552,
      "user": "divulmappeur",
      "uid": 8490885,
      "tags": {
        "atm": "yes",
        "brand": "Super U",
        "brand:wikidata": "Q2529029",
        "brand:wikipedia": "fr:Système U",
        "name": "Super U",
        "operator": "Super U",
        "shop": "supermarket"
      }
    },
    {
      "type": "node",
      "id": 277378174,
      "lat": 44.0528751,
      "lon": 7.2539245,
      "timestamp": "2020-04-28T15:31:59Z",
      "version": 11,
      "changeset": 84276812,
      "user": "oc-OpenStreetMap",
      "uid": 4224320,
      "tags": {
        "addr:postcode": "06450",
        "name": "Venanson",
        "name:it": "Venanzone",
        "name:oc": "Venaçon",
        "place": "village",
        "population": "149",
        "source:name:oc": "ieo-bdtopoc",
        "source:population": "INSEE 2013"
      }
    },
    {
      "type": "node",
      "id": 277448516,
      "lat": 43.6919412,
      "lon": 7.2442532,
      "timestamp": "2021-10-18T22:23:18Z",
      "version": 7,
      "changeset": 112672399,
      "user": "divulmappeur",
      "uid": 8490885,
      "tags": {
        "addr:postcode": "06200",
        "addr:street": "Avenue de Bellet",
        "atm": "yes",
        "branch": "supermarché",
        "brand": "Casino",
        "brand:wikidata": "Q89029184",
        "name": "Casino",
        "opening_hours": "Mo-Sa 08:00-23:00; Su 09:00-19:00",
        "phone": "+33 4 92 15 52 00",
        "shop": "supermarket",
        "website": "https://magasins.supercasino.fr/supermarche/nice-magnan/CS924",
        "wheelchair": "yes"
      }
    },
    {
      "type": "node",
      "id": 278480456,
      "lat": 43.6858879,
      "lon": 7.236443,
      "timestamp": "2020-03-27T05:20:32Z",
      "version": 8,
      "changeset": 82693630,
      "user": "Olyon",
      "uid": 1443767,
      "tags": {
        "amenity": "fuel",
        "brand": "Total Access",
        "brand:wikidata": "Q154037",
        "brand:wikipedia": "fr:Total (entreprise)",
        "compressed_air": "yes",
        "fuel:diesel": "yes",
        "fuel:e10": "yes",
        "fuel:octane_98": "yes",
        "name": "Total Access",
        "opening_hours": "24/7",
        "ref:FR:prix-carburants": "6200026",
        "shop": "convenience",
        "source": "Ministère de l'Economie, de l'Industrie et du Numérique - 08/04/2018",
        "vending": "fuel",
        "vending_machine": "fuel"
      }
    },
    {
      "type": "node",
      "id": 279012177,
      "lat": 44.048696,
      "lon": 7.6075392,
      "timestamp": "2015-01-15T21:43:43Z",
      "version": 4,
      "changeset": 28174281,
      "user": "geow",
      "uid": 223093,
      "tags": {
        "ele": "1288",
        "mountain_pass": "yes",
        "name": "Baisse d'Arpèse",
        "natural": "saddle"
      }
    },
    {
      "type": "node",
      "id": 279014986,
      "lat": 44.0435444,
      "lon": 7.6053704,
      "timestamp": "2015-01-15T21:43:44Z",
      "version": 5,
      "changeset": 28174281,
      "user": "geow",
      "uid": 223093,
      "tags": {
        "ele": "1279",
        "mountain_pass": "yes",
        "name": "Baisse de Peluna",
        "natural": "saddle"
      }
    },
    {
      "type": "node",
      "id": 293198828,
      "lat": 43.8976901,
      "lon": 7.444293,
      "timestamp": "2017-08-29T10:42:36Z",
      "version": 6,
      "changeset": 51536038,
      "user": "Keyser Söze 2",
      "uid": 4324085,
      "tags": {
        "ele": "750",
        "mountain_pass": "yes",
        "name": "Baisse de Fighièra",
        "natural": "saddle"
      }
    },
    {
      "type": "node",
      "id": 293198979,
      "lat": 43.8499703,
      "lon": 7.4867396,
      "timestamp": "2017-10-16T22:21:50Z",
      "version": 24,
      "changeset": 52997075,
      "user": "Keyser Söze 2",
      "uid": 4324085,
      "tags": {
        "ele": "1033",
        "mountain_pass": "yes",
        "name": "Col du Razet",
        "natural": "saddle"
      }
    },
    {
      "type": "node",
      "id": 293199008,
      "lat": 43.8425392,
      "lon": 7.5013859,
      "timestamp": "2021-12-19T18:11:42Z",
      "version": 23,
      "changeset": 115134957,
      "user": "jcr83",
      "uid": 234940,
      "tags": {
        "ele": "1108",
        "name": "Colla Bassa",
        "natural": "saddle"
      }
    },
    {
      "type": "node",
      "id": 293199021,
      "lat": 43.8329503,
      "lon": 7.5032922,
      "timestamp": "2021-12-18T20:56:19Z",
      "version": 22,
      "changeset": 115108983,
      "user": "jcr83",
      "uid": 234940,
      "tags": {
        "ele": "969",
        "name": "Baisse de Faïche Fonda",
        "natural": "saddle"
      }
    },
    {
      "type": "node",
      "id": 293200291,
      "lat": 44.0167673,
      "lon": 7.4219209,
      "timestamp": "2017-10-30T11:57:38Z",
      "version": 9,
      "changeset": 53365666,
      "user": "jcr83",
      "uid": 234940,
      "tags": {
        "ele": "1836",
        "name": "Baisse de Saint-Véran",
        "natural": "saddle"
      }
    },
    {
      "type": "node",
      "id": 293200391,
      "lat": 43.9236348,
      "lon": 7.4377044,
      "timestamp": "2021-03-17T12:46:18Z",
      "version": 5,
      "changeset": 101190180,
      "user": "Keyser Söze 2",
      "uid": 4324085,
      "tags": {
        "ele": "1345",
        "name": "Baisse de Linière",
        "natural": "saddle"
      }
    },
    {
      "type": "node",
      "id": 293201436,
      "lat": 44.0251324,
      "lon": 7.4141183,
      "timestamp": "2021-05-09T06:16:17Z",
      "version": 4,
      "changeset": 104385253,
      "user": "Hervé TUC",
      "uid": 922338,
      "tags": {
        "ele": "1999",
        "mountain_pass": "yes",
        "name": "Col de Raus",
        "natural": "saddle"
      }
    },
    {
      "type": "node",
      "id": 293201548,
      "lat": 43.8149595,
      "lon": 7.5130953,
      "timestamp": "2021-09-01T16:20:41Z",
      "version": 12,
      "changeset": 110575900,
      "user": "pyrog",
      "uid": 270456,
      "tags": {
        "mountain_pass": "yes",
        "name": "Col du Berceau",
        "natural": "saddle"
      }
    },
    {
      "type": "node",
      "id": 295689190,
      "lat": 43.7083174,
      "lon": 7.2602727,
      "timestamp": "2020-03-22T19:36:51Z",
      "version": 6,
      "changeset": 82492748,
      "user": "PanierAvide",
      "uid": 214436,
      "tags": {
        "brand": "Intermarché",
        "brand:wikidata": "Q3153200",
        "brand:wikipedia": "fr:Intermarché",
        "name": "Intermarché",
        "opening_hours": "Mo-Sa 08:30-20:00, Su 09:00-13:00",
        "operator": "Groupement des Mousquetaires",
        "shop": "supermarket",
        "wheelchair": "yes"
      }
    },
    {
      "type": "node",
      "id": 296158820,
      "lat": 43.70745,
      "lon": 7.2690814,
      "timestamp": "2018-04-21T13:27:08Z",
      "version": 4,
      "changeset": 58290431,
      "user": "PanierAvide",
      "uid": 214436,
      "tags": {
        "brand": "Lidl",
        "brand:website": "http://www.lidl.fr",
        "brand:wikidata": "Q151954",
        "brand:wikipedia": "fr:Lidl",
        "name": "Lidl",
        "operator": "Lidl",
        "shop": "supermarket"
      }
    },
    {
      "type": "node",
      "id": 297042117,
      "lat": 43.7057737,
      "lon": 7.2652116,
      "timestamp": "2020-05-03T04:15:18Z",
      "version": 7,
      "changeset": 84545418,
      "user": "CaResteOuvert_visitor",
      "uid": 10944324,
      "tags": {
        "access:covid19": "yes",
        "addr:city": "Nice",
        "addr:postcode": "06000",
        "brand": "Utile",
        "brand:wikidata": "Q2529029",
        "brand:wikipedia": "fr:Système U",
        "name": "Utile",
        "opening_hours:covid19": "open",
        "shop": "supermarket"
      }
    },
    {
      "type": "node",
      "id": 299490965,
      "lat": 43.9775283,
      "lon": 7.3916118,
      "timestamp": "2017-09-25T01:39:50Z",
      "version": 12,
      "changeset": 52342326,
      "user": "nyuriks",
      "uid": 339581,
      "tags": {
        "ele": "1604",
        "mountain_pass": "yes",
        "name": "Col de Turini",
        "natural": "saddle",
        "wikidata": "Q1107405",
        "wikipedia": "fr:Col de Turini"
      }
    },
    {
      "type": "node",
      "id": 299927314,
      "lat": 43.9582726,
      "lon": 7.1986407,
      "timestamp": "2015-01-15T21:44:06Z",
      "version": 5,
      "changeset": 28174281,
      "user": "geow",
      "uid": 223093,
      "tags": {
        "ele": "922",
        "mountain_pass": "yes",
        "name": "Col de l'Abeille",
        "natural": "saddle"
      }
    },
    {
      "type": "node",
      "id": 299981823,
      "lat": 43.9139686,
      "lon": 7.5605163,
      "timestamp": "2019-08-03T12:51:18Z",
      "version": 5,
      "changeset": 72969344,
      "user": "vancori",
      "uid": 195228,
      "tags": {
        "mountain_pass": "yes",
        "name": "Passo della Colomba",
        "natural": "saddle",
        "place": "locality"
      }
    },
    {
      "type": "node",
      "id": 299981834,
      "lat": 43.9045681,
      "lon": 7.5621805,
      "timestamp": "2017-06-18T21:30:47Z",
      "version": 4,
      "changeset": 49644615,
      "user": "vancori",
      "uid": 195228,
      "tags": {
        "mountain_pass": "yes",
        "name": "Colla Sgora",
        "natural": "saddle"
      }
    },
    {
      "type": "node",
      "id": 300854704,
      "lat": 43.998625,
      "lon": 7.2361145,
      "timestamp": "2017-09-25T01:39:50Z",
      "version": 9,
      "changeset": 52342326,
      "user": "nyuriks",
      "uid": 339581,
      "tags": {
        "ele": "1680",
        "mountain_pass": "yes",
        "name": "Col d'Andrion",
        "natural": "saddle",
        "wikidata": "Q1107520",
        "wikipedia": "en:Col d'Andrion"
      }
    },
    {
      "type": "node",
      "id": 303595830,
      "lat": 43.675186,
      "lon": 7.2269224,
      "timestamp": "2020-04-04T17:47:41Z",
      "version": 4,
      "changeset": 83078866,
      "user": "Zorglub67",
      "uid": 508222,
      "tags": {
        "brand": "Casino",
        "brand:wikidata": "Q89029184",
        "name": "Casino",
        "opening_hours": "Mo-Su 06:00-23:00",
        "operator": "Casino",
        "shop": "supermarket"
      }
    },
    {
      "type": "node",
      "id": 306211455,
      "lat": 44.083939,
      "lon": 7.3729138,
      "timestamp": "2021-09-07T13:30:08Z",
      "version": 9,
      "changeset": 110861454,
      "user": "jcr83",
      "uid": 234940,
      "tags": {
        "ele": "2335",
        "name": "Baisse des 5 Lacs",
        "natural": "saddle"
      }
    },
    {
      "type": "node",
      "id": 308352376,
      "lat": 43.7925803,
      "lon": 7.1871805,
      "timestamp": "2013-04-16T10:19:37Z",
      "version": 10,
      "changeset": 15747770,
      "user": "cquest",
      "uid": 158826,
      "tags": {
        "name": "Carros-Village",
        "place": "hamlet"
      }
    },
    {
      "type": "node",
      "id": 310593188,
      "lat": 43.7076023,
      "lon": 7.2562076,
      "timestamp": "2018-10-20T12:02:09Z",
      "version": 8,
      "changeset": 63702004,
      "user": "Jojo56400",
      "uid": 7601174,
      "tags": {
        "brand": "Naturalia",
        "brand:wikidata": "Q3337081",
        "brand:wikipedia": "fr:Naturalia",
        "bulk_purchase": "yes",
        "name": "Naturalia",
        "opening_hours": "Mo-Sa 09:00-20:00",
        "organic": "only",
        "shop": "supermarket",
        "wheelchair": "yes"
      }
    },
    {
      "type": "node",
      "id": 311258911,
      "lat": 43.699467,
      "lon": 7.2594352,
      "timestamp": "2019-11-04T18:04:17Z",
      "version": 4,
      "changeset": 76607495,
      "user": "Kaiiko",
      "uid": 10436698,
      "tags": {
        "addr:city": "Nice",
        "addr:housenumber": "21",
        "addr:postcode": "06000",
        "addr:street": "Rue Verdi",
        "brand": "Carrefour Express",
        "brand:wikidata": "Q2940190",
        "brand:wikipedia": "fr:Carrefour Express",
        "name": "Carrefour Express",
        "opening_hours": "Mo-Su 07:00-21:00",
        "shop": "convenience"
      }
    },
    {
      "type": "node",
      "id": 311348875,
      "lat": 43.7061368,
      "lon": 7.2588378,
      "timestamp": "2009-07-30T11:47:37Z",
      "version": 3,
      "changeset": 1983777,
      "user": "remyoudompheng",
      "uid": 41851,
      "tags": {
        "name": "Schlecker",
        "shop": "convenience"
      }
    },
    {
      "type": "node",
      "id": 311362318,
      "lat": 43.6972106,
      "lon": 7.2648415,
      "timestamp": "2020-03-27T05:20:32Z",
      "version": 3,
      "changeset": 82693630,
      "user": "Olyon",
      "uid": 1443767,
      "tags": {
        "brand": "Utile",
        "brand:wikidata": "Q2529029",
        "name": "Utile",
        "shop": "convenience"
      }
    },
    {
      "type": "node",
      "id": 313186628,
      "lat": 43.7049579,
      "lon": 7.2826473,
      "timestamp": "2020-03-27T05:20:32Z",
      "version": 4,
      "changeset": 82693630,
      "user": "Olyon",
      "uid": 1443767,
      "tags": {
        "brand": "Utile",
        "brand:wikidata": "Q2529029",
        "name": "Utile",
        "operator": "Système U",
        "shop": "convenience"
      }
    },
    {
      "type": "node",
      "id": 313186655,
      "lat": 43.7056685,
      "lon": 7.2830441,
      "timestamp": "2020-03-23T03:17:41Z",
      "version": 4,
      "changeset": 82500335,
      "user": "Olyon",
      "uid": 1443767,
      "tags": {
        "brand": "Spar",
        "brand:wikidata": "Q610492",
        "name": "Spar Nice République",
        "operator": "Spar",
        "shop": "supermarket"
      }
    },
    {
      "type": "node",
      "id": 319027671,
      "lat": 43.8239937,
      "lon": 7.5115879,
      "timestamp": "2015-01-15T21:44:39Z",
      "version": 3,
      "changeset": 28174281,
      "user": "geow",
      "uid": 223093,
      "tags": {
        "ele": "1046",
        "mountain_pass": "yes",
        "name": "Pas de la Corne",
        "natural": "saddle"
      }
    },
    {
      "type": "node",
      "id": 320192615,
      "lat": 43.8081825,
      "lon": 7.6519757,
      "timestamp": "2008-12-20T15:03:21Z",
      "version": 1,
      "changeset": 497076,
      "user": "Diego Guidotti",
      "uid": 1700,
      "tags": {
        "created_by": "Potlatch 0.10f",
        "name": "Vallecrosia Alta",
        "place": "village"
      }
    },
    {
      "type": "node",
      "id": 320721329,
      "lat": 43.7188143,
      "lon": 7.2566245,
      "timestamp": "2020-12-16T17:14:33Z",
      "version": 5,
      "changeset": 95955414,
      "user": "meihou",
      "uid": 581277,
      "tags": {
        "brand": "Lidl",
        "brand:website": "http://www.lidl.fr",
        "brand:wikidata": "Q151954",
        "brand:wikipedia": "en:Lidl",
        "name": "Lidl",
        "operator": "Lidl",
        "shop": "supermarket"
      }
    },
    {
      "type": "node",
      "id": 324241315,
      "lat": 43.7260387,
      "lon": 7.2560957,
      "timestamp": "2013-09-14T19:17:43Z",
      "version": 4,
      "changeset": 17838674,
      "user": "philippekerla",
      "uid": 79386,
      "tags": {
        "name": "Casino supermarché",
        "operator": "Casino",
        "shop": "supermarket"
      }
    },
    {
      "type": "node",
      "id": 331622311,
      "lat": 43.8652388,
      "lon": 7.5520554,
      "timestamp": "2017-08-09T05:49:06Z",
      "version": 4,
      "changeset": 50959839,
      "user": "mcheckimport",
      "uid": 893327,
      "tags": {
        "ele": "286",
        "name": "Passo della Pagliurà",
        "natural": "saddle"
      }
    },
    {
      "type": "node",
      "id": 331633246,
      "lat": 43.8787563,
      "lon": 7.4903926,
      "timestamp": "2018-08-26T21:37:52Z",
      "version": 4,
      "changeset": 62016709,
      "user": "Keyser Söze 2",
      "uid": 4324085,
      "tags": {
        "ele": "736",
        "mountain_pass": "yes",
        "name": "Col de la Basse Bergevine",
        "natural": "saddle"
      }
    },
    {
      "type": "node",
      "id": 331633363,
      "lat": 43.8632277,
      "lon": 7.4952498,
      "timestamp": "2015-01-15T21:43:56Z",
      "version": 5,
      "changeset": 28174281,
      "user": "geow",
      "uid": 223093,
      "tags": {
        "ele": "1022",
        "mountain_pass": "yes",
        "name": "Col de Cuore",
        "natural": "saddle"
      }
    },
    {
      "type": "node",
      "id": 331633524,
      "lat": 43.8450936,
      "lon": 7.5006043,
      "timestamp": "2021-05-19T03:11:03Z",
      "version": 6,
      "changeset": 104921870,
      "user": "Hervé TUC",
      "uid": 922338,
      "tags": {
        "ele": "1084",
        "mountain_pass": "yes",
        "name": "Col du Trètore / Passo di Treittore",
        "name:fr": "Col du Trètore",
        "name:it": "Passo di Treittore",
        "natural": "saddle"
      }
    },
    {
      "type": "node",
      "id": 331944617,
      "lat": 43.8934598,
      "lon": 7.5732623,
      "timestamp": "2016-11-19T16:51:19Z",
      "version": 6,
      "changeset": 43804660,
      "user": "vancori",
      "uid": 195228,
      "tags": {
        "ele": "889",
        "mountain_pass": "yes",
        "name": "Colle dei Saviglioni",
        "natural": "saddle"
      }
    },
    {
      "type": "node",
      "id": 331944708,
      "lat": 43.882302,
      "lon": 7.5793203,
      "timestamp": "2020-06-08T15:42:12Z",
      "version": 4,
      "changeset": 86362160,
      "user": "solitone",
      "uid": 584192,
      "tags": {
        "name": "Sella dei Due Abelli",
        "natural": "saddle"
      }
    },
    {
      "type": "node",
      "id": 331946000,
      "lat": 43.984977,
      "lon": 7.6553931,
      "timestamp": "2021-05-19T03:11:03Z",
      "version": 8,
      "changeset": 104921870,
      "user": "Hervé TUC",
      "uid": 922338,
      "tags": {
        "ele": "1684",
        "mountain_pass": "yes",
        "name": "Pas de l'Incise / Passo dell'Incisa",
        "name:fr": "Pas de l'Incise",
        "name:it": "Passo dell'Incisa",
        "natural": "saddle"
      }
    },
    {
      "type": "node",
      "id": 331946967,
      "lat": 43.9740141,
      "lon": 7.65279,
      "timestamp": "2021-05-19T03:11:03Z",
      "version": 5,
      "changeset": 104921870,
      "user": "Hervé TUC",
      "uid": 922338,
      "tags": {
        "ele": "1810",
        "mountain_pass": "yes",
        "name": "Passo di Fonte Dragurina",
        "natural": "saddle"
      }
    },
    {
      "type": "node",
      "id": 332047704,
      "lat": 44.0430894,
      "lon": 7.7196754,
      "timestamp": "2021-09-10T20:11:04Z",
      "version": 5,
      "changeset": 111040498,
      "user": "LudovicG",
      "uid": 209796,
      "tags": {
        "name": "Verdeggia",
        "place": "village",
        "population": "42",
        "population:date": "2019",
        "wikidata": "Q4009909",
        "wikipedia": "it:Verdeggia"
      }
    },
    {
      "type": "node",
      "id": 332047708,
      "lat": 44.0078498,
      "lon": 7.7156765,
      "timestamp": "2015-10-29T22:45:04Z",
      "version": 3,
      "changeset": 34961604,
      "user": "vancori",
      "uid": 195228,
      "tags": {
        "name": "Creppo",
        "place": "hamlet"
      }
    },
    {
      "type": "node",
      "id": 332047711,
      "lat": 44.0037987,
      "lon": 7.7306422,
      "timestamp": "2015-08-08T05:50:20Z",
      "version": 2,
      "changeset": 33194936,
      "user": "solitone",
      "uid": 584192,
      "tags": {
        "name": "Bregalla",
        "place": "hamlet"
      }
    },
    {
      "type": "node",
      "id": 332047714,
      "lat": 44.0309592,
      "lon": 7.7170523,
      "timestamp": "2018-05-30T07:53:36Z",
      "version": 5,
      "changeset": 59389236,
      "user": "Heinz_V",
      "uid": 91490,
      "tags": {
        "name": "Realdo",
        "place": "village",
        "wikidata": "Q3931085",
        "wikipedia": "it:Realdo"
      }
    },
    {
      "type": "node",
      "id": 332102484,
      "lat": 43.9055711,
      "lon": 7.530703,
      "timestamp": "2013-07-06T14:01:39Z",
      "version": 3,
      "changeset": 16849199,
      "user": "sergio7826",
      "uid": 411998,
      "tags": {
        "name": "Libre",
        "place": "hamlet"
      }
    },
    {
      "type": "node",
      "id": 332104950,
      "lat": 43.8875938,
      "lon": 7.5376937,
      "timestamp": "2021-04-16T17:01:49Z",
      "version": 2,
      "changeset": 103072981,
      "user": "nick-28",
      "uid": 3144016,
      "tags": {
        "name": "Fanghetto",
        "place": "hamlet"
      }
    },
    {
      "type": "node",
      "id": 332178008,
      "lat": 43.8383554,
      "lon": 7.5526114,
      "timestamp": "2013-05-10T15:54:29Z",
      "version": 2,
      "changeset": 16066583,
      "user": "beppeu",
      "uid": 480036,
      "tags": {
        "name": "Torri Inferiore",
        "place": "village"
      }
    },
    {
      "type": "node",
      "id": 332453030,
      "lat": 44.0337862,
      "lon": 7.6792962,
      "timestamp": "2021-05-19T03:11:03Z",
      "version": 8,
      "changeset": 104921870,
      "user": "Hervé TUC",
      "uid": 922338,
      "tags": {
        "ele": "1694",
        "mountain_pass": "yes",
        "name": "Baisse de Sanson / Bassa di Sanson",
        "name:fr": "Baisse de Sanson",
        "name:it": "Bassa di Sanson",
        "natural": "saddle"
      }
    },
    {
      "type": "node",
      "id": 334637047,
      "lat": 43.9865796,
      "lon": 7.659555,
      "timestamp": "2021-05-19T03:11:03Z",
      "version": 10,
      "changeset": 104921870,
      "user": "Hervé TUC",
      "uid": 922338,
      "tags": {
        "ele": "2039",
        "name": "Mont Peïrevieille / Monte Pietravecchia",
        "name:fr": "Mont Peïrevieille",
        "name:it": "Monte Pietravecchia",
        "natural": "peak",
        "wikidata": "Q3861841",
        "wikipedia": "it:Monte Pietravecchia"
      }
    },
    {
      "type": "node",
      "id": 334638116,
      "lat": 43.9759345,
      "lon": 7.6531276,
      "timestamp": "2021-05-19T03:11:03Z",
      "version": 13,
      "changeset": 104921870,
      "user": "Hervé TUC",
      "uid": 922338,
      "tags": {
        "alt_name": "Mont Torrage",
        "ele": "1972",
        "name": "Mont Torrage / Monte Toraggio",
        "name:fr": "Mont Torrage",
        "name:it": "Monte Toraggio",
        "natural": "peak",
        "wikidata": "Q1806404",
        "wikipedia": "it:Monte Toraggio"
      }
    },
    {
      "type": "node",
      "id": 338088485,
      "lat": 43.9678701,
      "lon": 7.7316187,
      "timestamp": "2015-01-15T21:44:26Z",
      "version": 7,
      "changeset": 28174281,
      "user": "geow",
      "uid": 223093,
      "tags": {
        "ele": "1227",
        "mountain_pass": "yes",
        "name": "Colle Langan",
        "natural": "saddle"
      }
    },
    {
      "type": "node",
      "id": 339666002,
      "lat": 43.9614995,
      "lon": 7.6841613,
      "timestamp": "2021-02-03T18:20:32Z",
      "version": 5,
      "changeset": 98661071,
      "user": "nick-28",
      "uid": 3144016,
      "tags": {
        "name": "Buggio",
        "place": "hamlet",
        "population": "75",
        "wikidata": "Q2161325",
        "wikipedia": "it:Buggio"
      }
    },
    {
      "type": "node",
      "id": 339873902,
      "lat": 43.9009962,
      "lon": 7.727818,
      "timestamp": "2020-09-19T06:26:33Z",
      "version": 7,
      "changeset": 91140692,
      "user": "Superste230",
      "uid": 10998670,
      "tags": {
        "ele": "898",
        "mountain_pass": "yes",
        "name": "Passo di Ghimbegna",
        "natural": "saddle"
      }
    },
    {
      "type": "node",
      "id": 340057232,
      "lat": 43.8558734,
      "lon": 7.7263619,
      "timestamp": "2017-02-25T16:29:16Z",
      "version": 3,
      "changeset": 46397292,
      "user": "sabas88",
      "uid": 454589,
      "tags": {
        "name": "San Romolo",
        "place": "village",
        "wikidata": "Q2989350",
        "wikipedia": "it:San Romolo (Sanremo)"
      }
    },
    {
      "type": "node",
      "id": 341299936,
      "lat": 43.845713,
      "lon": 7.590644,
      "timestamp": "2017-02-25T16:29:17Z",
      "version": 3,
      "changeset": 46397292,
      "user": "sabas88",
      "uid": 454589,
      "tags": {
        "name": "Trucco",
        "place": "village",
        "wikidata": "Q780809",
        "wikipedia": "it:Trucco (Ventimiglia)"
      }
    },
    {
      "type": "node",
      "id": 349159074,
      "lat": 43.6843454,
      "lon": 7.0683073,
      "timestamp": "2021-05-15T16:32:50Z",
      "version": 6,
      "changeset": 104741331,
      "user": "jcr83",
      "uid": 234940,
      "tags": {
        "name": "Grotte de la Chèvre d'Or",
        "natural": "cave_entrance",
        "ref": "105K"
      }
    },
    {
      "type": "node",
      "id": 349343589,
      "lat": 43.7111565,
      "lon": 7.2484932,
      "timestamp": "2020-03-23T03:17:41Z",
      "version": 7,
      "changeset": 82500335,
      "user": "Olyon",
      "uid": 1443767,
      "tags": {
        "addr:housenumber": "71",
        "addr:postcode": "06000",
        "addr:street": "Avenue de Pessicart",
        "brand": "Carrefour Market",
        "brand:wikidata": "Q2689639",
        "brand:wikipedia": "fr:Carrefour Market",
        "description": "Small supermarket",
        "name": "Carrefour Market",
        "opening_hours": "Mo-Sa 07:30-21:00; Su 07:30-13:00",
        "operator": "Groupement des Mousquetaires",
        "shop": "supermarket",
        "source": "Local knowledge - I shop there :)"
      }
    },
    {
      "type": "node",
      "id": 354972042,
      "lat": 43.9701197,
      "lon": 7.6401135,
      "timestamp": "2021-05-19T03:11:03Z",
      "version": 9,
      "changeset": 104921870,
      "user": "Hervé TUC",
      "uid": 922338,
      "tags": {
        "ele": "1404",
        "mountain_pass": "yes",
        "name": "Col du Corbeau / Gola del Corvo",
        "name:fr": "Col du Corbeau",
        "name:it": "Gola del Corvo",
        "natural": "saddle"
      }
    },
    {
      "type": "node",
      "id": 354972071,
      "lat": 43.9530432,
      "lon": 7.611548,
      "timestamp": "2014-07-10T17:05:13Z",
      "version": 5,
      "changeset": 24067669,
      "user": "cront",
      "uid": 655630,
      "tags": {
        "ele": "1226",
        "mountain_pass": "yes",
        "name": "Colle Scarassan",
        "natural": "saddle"
      }
    },
    {
      "type": "node",
      "id": 360364359,
      "lat": 43.7138311,
      "lon": 7.2503728,
      "timestamp": "2021-07-02T15:14:14Z",
      "version": 6,
      "changeset": 107314345,
      "user": "eddynamite",
      "uid": 10368370,
      "tags": {
        "addr:city": "Nice",
        "addr:housename": "Super U",
        "addr:housenumber": "175",
        "addr:postcode": "06100",
        "addr:street": "Avenue de Pessicart",
        "brand": "Super U",
        "brand:wikidata": "Q2529029",
        "brand:wikipedia": "en:Système U",
        "name": "Super U",
        "opening_hours": "Mo-Sa 07:30-20:00; Su 08:00-13:00",
        "shop": "supermarket"
      }
    },
    {
      "type": "node",
      "id": 364117261,
      "lat": 43.5810397,
      "lon": 7.1216784,
      "timestamp": "2021-10-09T07:35:08Z",
      "version": 12,
      "changeset": 112290718,
      "user": "Ugo M",
      "uid": 3617447,
      "tags": {
        "brand": "Carrefour Market",
        "brand:wikidata": "Q2689639",
        "brand:wikipedia": "fr:Carrefour Market",
        "check_date:opening_hours": "2021-10-09",
        "name": "Carrefour Market",
        "opening_hours": "Mo-Sa 07:30-19:30; Su 08:00-12:30",
        "operator": "Carrefour",
        "phone": "+33 4 92 90 45 45",
        "shop": "supermarket"
      }
    },
    {
      "type": "node",
      "id": 364682421,
      "lat": 43.71907,
      "lon": 7.2528478,
      "timestamp": "2020-09-08T16:08:12Z",
      "version": 10,
      "changeset": 90596636,
      "user": "eddynamite",
      "uid": 10368370,
      "tags": {
        "addr:city": "Nice",
        "addr:postcode": "06000",
        "brand": "Carrefour Express",
        "brand:wikidata": "Q2940190",
        "brand:wikipedia": "fr:Carrefour Express",
        "name": "Carrefour Express",
        "opening_hours": "Mo-Sa 08:00-21:00; Su 09:00-21:00",
        "shop": "supermarket",
        "wheelchair": "yes"
      }
    },
    {
      "type": "node",
      "id": 364757571,
      "lat": 43.9835378,
      "lon": 7.5014375,
      "timestamp": "2015-01-15T21:43:43Z",
      "version": 5,
      "changeset": 28174281,
      "user": "geow",
      "uid": 223093,
      "tags": {
        "ele": "1350",
        "mountain_pass": "yes",
        "name": "Baisse de Colla Bassa",
        "natural": "saddle"
      }
    },
    {
      "type": "node",
      "id": 372835962,
      "lat": 43.6993785,
      "lon": 7.2828211,
      "timestamp": "2020-04-11T19:10:58Z",
      "version": 4,
      "changeset": 83408950,
      "user": "nlehuby",
      "uid": 1424448,
      "tags": {
        "brand": "Spar",
        "brand:wikidata": "Q610492",
        "name": "Spar",
        "operator": "Spar",
        "shop": "supermarket"
      }
    },
    {
      "type": "node",
      "id": 372835993,
      "lat": 43.6991147,
      "lon": 7.2875284,
      "timestamp": "2020-03-22T19:36:51Z",
      "version": 4,
      "changeset": 82492748,
      "user": "PanierAvide",
      "uid": 214436,
      "tags": {
        "brand": "Intermarché",
        "brand:wikidata": "Q3153200",
        "brand:wikipedia": "fr:Intermarché",
        "name": "Intermarché Express",
        "operator": "Groupement des Mousquetaires",
        "shop": "supermarket"
      }
    },
    {
      "type": "node",
      "id": 372836428,
      "lat": 43.6957543,
      "lon": 7.2865537,
      "timestamp": "2020-03-23T03:17:41Z",
      "version": 3,
      "changeset": 82500335,
      "user": "Olyon",
      "uid": 1443767,
      "tags": {
        "addr:city": "Nice",
        "addr:postcode": "06300",
        "addr:street": "Boulevard Stalingrad",
        "brand": "Utile",
        "brand:wikidata": "Q2529029",
        "name": "Utile",
        "operator": "Groupe U",
        "shop": "supermarket"
      }
    },
    {
      "type": "node",
      "id": 413562916,
      "lat": 44.076414,
      "lon": 7.3361954,
      "timestamp": "2021-07-15T07:09:03Z",
      "version": 7,
      "changeset": 108024773,
      "user": "Garabus",
      "uid": 12992972,
      "tags": {
        "ele": "2255",
        "mountain_pass": "yes",
        "name": "Baisse de Férisson",
        "natural": "saddle"
      }
    },
    {
      "type": "node",
      "id": 413590353,
      "lat": 43.9021615,
      "lon": 7.2244543,
      "timestamp": "2015-01-15T21:43:51Z",
      "version": 5,
      "changeset": 28174281,
      "user": "geow",
      "uid": 223093,
      "tags": {
        "mountain_pass": "yes",
        "name": "Col d'Ambellarte",
        "natural": "saddle"
      }
    },
    {
      "type": "node",
      "id": 414048183,
      "lat": 43.8626612,
      "lon": 7.1900366,
      "timestamp": "2020-04-27T18:37:38Z",
      "version": 10,
      "changeset": 84215547,
      "user": "oc-OpenStreetMap",
      "uid": 4224320,
      "tags": {
        "addr:postcode": "06830",
        "name": "Bonson",
        "name:it": "Bonsone",
        "name:oc": "Bonson",
        "place": "village",
        "population": "665",
        "source:name:oc": "ieo-bdtopoc",
        "source:population": "INSEE 2013"
      }
    },
    {
      "type": "node",
      "id": 415269380,
      "lat": 43.8460504,
      "lon": 7.2615649,
      "timestamp": "2019-03-10T18:12:05Z",
      "version": 4,
      "changeset": 67996668,
      "user": "jcr83",
      "uid": 234940,
      "tags": {
        "ele": "767",
        "name": "Col du Travail",
        "natural": "saddle"
      }
    },
    {
      "type": "node",
      "id": 415274002,
      "lat": 43.8388266,
      "lon": 7.273811,
      "timestamp": "2015-01-15T21:44:03Z",
      "version": 4,
      "changeset": 28174281,
      "user": "geow",
      "uid": 223093,
      "tags": {
        "alt_name": "Baisse de Bendejun",
        "ele": "916",
        "mountain_pass": "yes",
        "name": "Col de Rosa",
        "natural": "saddle"
      }
    },
    {
      "type": "node",
      "id": 415274171,
      "lat": 43.8705516,
      "lon": 7.2653163,
      "timestamp": "2021-06-06T16:45:11Z",
      "version": 5,
      "changeset": 105925267,
      "user": "jcr83",
      "uid": 234940,
      "tags": {
        "ele": "1111",
        "mountain_pass": "yes",
        "name": "Col du Dragon",
        "natural": "saddle"
      }
    },
    {
      "type": "node",
      "id": 415336215,
      "lat": 43.8626209,
      "lon": 7.2650265,
      "timestamp": "2009-07-25T09:48:45Z",
      "version": 2,
      "changeset": 1932012,
      "user": "Vlad",
      "uid": 24247,
      "tags": {
        "amenity": "drinking_water"
      }
    },
    {
      "type": "node",
      "id": 415336352,
      "lat": 43.8712423,
      "lon": 7.2595233,
      "timestamp": "2015-01-15T21:43:57Z",
      "version": 5,
      "changeset": 28174281,
      "user": "geow",
      "uid": 223093,
      "tags": {
        "ele": "1079",
        "mountain_pass": "yes",
        "name": "Col de Fuont Blanca",
        "natural": "saddle"
      }
    },
    {
      "type": "node",
      "id": 421446550,
      "lat": 43.893596,
      "lon": 7.3823911,
      "timestamp": "2015-01-15T21:44:07Z",
      "version": 5,
      "changeset": 28174281,
      "user": "geow",
      "uid": 223093,
      "tags": {
        "ele": "1149",
        "mountain_pass": "yes",
        "name": "Col de l'Ablé",
        "natural": "saddle"
      }
    },
    {
      "type": "node",
      "id": 427513246,
      "lat": 43.791413,
      "lon": 7.5399751,
      "timestamp": "2017-02-25T16:29:17Z",
      "version": 4,
      "changeset": 46397292,
      "user": "sabas88",
      "uid": 454589,
      "tags": {
        "is_in": "Imperia, Liguria, Italy",
        "name": "Mortola Superiore",
        "place": "village",
        "wikidata": "Q3865969",
        "wikipedia": "it:Mortola Superiore"
      }
    },
    {
      "type": "node",
      "id": 427513777,
      "lat": 43.8087329,
      "lon": 7.5496726,
      "timestamp": "2013-05-18T15:20:05Z",
      "version": 3,
      "changeset": 16181759,
      "user": "beppeu",
      "uid": 480036,
      "tags": {
        "is_in": "Imperia, Liguria, Italy",
        "name": "Sealza",
        "place": "hamlet"
      }
    },
    {
      "type": "node",
      "id": 427523778,
      "lat": 43.7869783,
      "lon": 7.5359249,
      "timestamp": "2017-03-01T20:15:10Z",
      "version": 4,
      "changeset": 46503668,
      "user": "sabas88",
      "uid": 454589,
      "tags": {
        "ele": "220.7468262",
        "is_in": "Imperia, Liguria, Italy",
        "name": "Grimaldi Superiore",
        "place": "village",
        "wikidata": "Q997785",
        "wikipedia": "it:Grimaldi (Ventimiglia)"
      }
    },
    {
      "type": "node",
      "id": 427554477,
      "lat": 43.7949361,
      "lon": 7.5639384,
      "timestamp": "2017-02-25T16:29:18Z",
      "version": 5,
      "changeset": 46397292,
      "user": "sabas88",
      "uid": 454589,
      "tags": {
        "is_in": "Imperia, Liguria, Italy",
        "name": "Latte",
        "place": "village",
        "wikidata": "Q3827564",
        "wikipedia": "it:Latte (Ventimiglia)"
      }
    },
    {
      "type": "node",
      "id": 427554724,
      "lat": 43.7853178,
      "lon": 7.5536468,
      "timestamp": "2017-02-25T16:29:18Z",
      "version": 5,
      "changeset": 46397292,
      "user": "sabas88",
      "uid": 454589,
      "tags": {
        "is_in": "Imperia, Liguria, Italy",
        "name": "Mortola Inferiore",
        "place": "village",
        "wikidata": "Q734312",
        "wikipedia": "it:Mortola Inferiore"
      }
    },
    {
      "type": "node",
      "id": 434302279,
      "lat": 43.7059515,
      "lon": 7.3010096,
      "timestamp": "2021-12-16T15:43:37Z",
      "version": 4,
      "changeset": 115015025,
      "user": "divulmappeur",
      "uid": 8490885,
      "tags": {
        "name": "Col de Villefranche",
        "natural": "saddle",
        "source": "IGN - 2021-06"
      }
    },
    {
      "type": "node",
      "id": 438353417,
      "lat": 44.0684313,
      "lon": 7.4946951,
      "timestamp": "2012-11-23T18:34:50Z",
      "version": 2,
      "changeset": 14002867,
      "user": "sergio7826",
      "uid": 411998,
      "tags": {
        "name": "Grange de Valaure",
        "tourism": "alpine_hut"
      }
    },
    {
      "type": "node",
      "id": 440122312,
      "lat": 43.7024333,
      "lon": 7.2671893,
      "timestamp": "2018-04-17T22:42:02Z",
      "version": 9,
      "changeset": 58184680,
      "user": "frosm",
      "uid": 6383530,
      "tags": {
        "brand": "Monoprix",
        "brand:wikidata": "Q3321241",
        "brand:wikipedia": "fr:Monoprix (France)",
        "name": "Monoprix",
        "opening_hours": "Mo-Sa 08:30-21:00; Su 09:00-20:00",
        "operator": "Groupe Casino",
        "shop": "supermarket",
        "wheelchair": "yes"
      }
    },
    {
      "type": "node",
      "id": 442496558,
      "lat": 43.6179444,
      "lon": 7.0752522,
      "timestamp": "2021-10-10T18:32:05Z",
      "version": 10,
      "changeset": 112344754,
      "user": "vmeurisse",
      "uid": 15489,
      "tags": {
        "brand": "Casino",
        "brand:wikidata": "Q89029184",
        "name": "Casino",
        "opening_hours": "Mo-Sa 07:00-20:30; Su 09:00-21:00",
        "operator": "Casino",
        "payment:coins": "yes",
        "payment:credit_cards": "yes",
        "payment:debit_cards": "yes",
        "shop": "supermarket",
        "wheelchair": "yes"
      }
    },
    {
      "type": "node",
      "id": 443347442,
      "lat": 43.8041281,
      "lon": 7.497011,
      "timestamp": "2020-04-28T11:21:45Z",
      "version": 18,
      "changeset": 84262430,
      "user": "oc-OpenStreetMap",
      "uid": 4224320,
      "tags": {
        "name": "Castellar",
        "name:it": "Castellaro",
        "name:oc": "Castelar",
        "name:ru": "Кастеллар",
        "place": "village",
        "postal_code": "06500",
        "ref:FR:SIREN": "210600359",
        "source": "cadastre-dgi-fr source : Direction Générale des Impôts - Cadastre. Mise à jour : 2009",
        "source:name:oc": "ieo-bdtopoc"
      }
    },
    {
      "type": "node",
      "id": 443606688,
      "lat": 43.7104872,
      "lon": 7.2632958,
      "timestamp": "2009-07-19T07:27:25Z",
      "version": 1,
      "changeset": 1869690,
      "user": "remyoudompheng",
      "uid": 41851,
      "tags": {
        "name": "Schlecker",
        "shop": "convenience"
      }
    },
    {
      "type": "node",
      "id": 443606697,
      "lat": 43.7108068,
      "lon": 7.2636881,
      "timestamp": "2020-03-23T03:17:41Z",
      "version": 4,
      "changeset": 82500335,
      "user": "Olyon",
      "uid": 1443767,
      "tags": {
        "brand": "Carrefour City",
        "brand:wikidata": "Q2940187",
        "name": "Carrefour City",
        "operator": "Carrefour",
        "shop": "supermarket"
      }
    },
    {
      "type": "node",
      "id": 444307332,
      "lat": 43.7492033,
      "lon": 7.2791234,
      "timestamp": "2020-04-28T11:21:46Z",
      "version": 19,
      "changeset": 84262430,
      "user": "oc-OpenStreetMap",
      "uid": 4224320,
      "tags": {
        "name": "Falicon",
        "name:fr": "Falicon",
        "name:it": "Falicone",
        "name:ja": "ファリコン",
        "name:oc": "Falicon",
        "name:ru": "Фаликон",
        "place": "village",
        "postal_code": "06950",
        "ref:FR:SIREN": "210600607",
        "source:name:oc": "ieo-bdtopoc",
        "website": "http://www.mairie-falicon.com/",
        "wikidata": "Q867129",
        "wikipedia": "fr:Falicon"
      }
    },
    {
      "type": "node",
      "id": 444308579,
      "lat": 43.7832717,
      "lon": 7.2440882,
      "timestamp": "2020-04-27T18:37:38Z",
      "version": 17,
      "changeset": 84215547,
      "user": "oc-OpenStreetMap",
      "uid": 4224320,
      "tags": {
        "addr:postcode": "06790",
        "name": "Aspremont",
        "name:it": "Aspromonte di Nizza",
        "name:ja": "アスプルモン",
        "name:oc": "Aspermont",
        "place": "village",
        "population": "2187",
        "ref:FR:SIREN": "210600060",
        "short_name:it": "Aspromonte",
        "source:name:oc": "ieo-bdtopoc",
        "source:population": "INSEE 2013"
      }
    },
    {
      "type": "node",
      "id": 450329594,
      "lat": 43.6291625,
      "lon": 7.0900079,
      "timestamp": "2009-11-22T11:47:21Z",
      "version": 2,
      "changeset": 3184837,
      "user": "Gnurfos",
      "uid": 181250,
      "tags": {
        "amenity": "drinking_water"
      }
    },
    {
      "type": "node",
      "id": 451921782,
      "lat": 43.7090717,
      "lon": 7.2562025,
      "timestamp": "2020-03-23T03:17:42Z",
      "version": 7,
      "changeset": 82500335,
      "user": "Olyon",
      "uid": 1443767,
      "tags": {
        "brand": "Carrefour City",
        "brand:wikidata": "Q2940187",
        "name": "Carrefour City",
        "opening_hours": "Mo-Sa 07:00-22:00, Su 09:30-13:00",
        "operator": "Carrefour",
        "shop": "supermarket",
        "wheelchair": "yes"
      }
    },
    {
      "type": "node",
      "id": 454148785,
      "lat": 44.0621741,
      "lon": 7.4266339,
      "timestamp": "2015-01-15T21:44:38Z",
      "version": 5,
      "changeset": 28174281,
      "user": "geow",
      "uid": 223093,
      "tags": {
        "ele": "2511",
        "mountain_pass": "yes",
        "name": "Pas de l'Arpette",
        "natural": "saddle"
      }
    },
    {
      "type": "node",
      "id": 458905902,
      "lat": 43.7045762,
      "lon": 7.2563139,
      "timestamp": "2020-03-27T05:20:32Z",
      "version": 5,
      "changeset": 82693630,
      "user": "Olyon",
      "uid": 1443767,
      "tags": {
        "brand": "Carrefour City",
        "brand:wikidata": "Q2940187",
        "brand:wikipedia": "fr:Carrefour City",
        "name": "Carrefour City",
        "opening_hours": "Mo-Sa 07:00-22:00, Su 08:30-13:00",
        "operator": "Carrefour",
        "shop": "convenience",
        "wheelchair": "yes"
      }
    },
    {
      "type": "node",
      "id": 458922796,
      "lat": 43.7008955,
      "lon": 7.256013,
      "timestamp": "2020-01-19T14:27:51Z",
      "version": 3,
      "changeset": 79756332,
      "user": "fgouget",
      "uid": 2678738,
      "tags": {
        "name": "Casino Shop",
        "operator": "Casino",
        "shop": "supermarket"
      }
    },
    {
      "type": "node",
      "id": 458922809,
      "lat": 43.6990438,
      "lon": 7.2560533,
      "timestamp": "2021-11-30T07:43:30Z",
      "version": 4,
      "changeset": 114378820,
      "user": "wheelmap_visitor",
      "uid": 290680,
      "tags": {
        "brand": "Casino",
        "brand:wikidata": "Q89029184",
        "name": "Casino",
        "operator": "Casino",
        "shop": "supermarket",
        "wheelchair": "yes"
      }
    },
    {
      "type": "node",
      "id": 464923308,
      "lat": 43.8500281,
      "lon": 7.1637507,
      "timestamp": "2020-04-28T11:21:46Z",
      "version": 14,
      "changeset": 84262430,
      "user": "oc-OpenStreetMap",
      "uid": 4224320,
      "tags": {
        "name": "Gilette",
        "name:it": "Giletta",
        "name:oc": "Gileta",
        "place": "village",
        "postal_code": "06830",
        "source:name:oc": "ieo-bdtopoc"
      }
    },
    {
      "type": "node",
      "id": 465249913,
      "lat": 43.7051438,
      "lon": 7.2668471,
      "timestamp": "2020-03-27T05:20:32Z",
      "version": 3,
      "changeset": 82693630,
      "user": "Olyon",
      "uid": 1443767,
      "tags": {
        "brand": "Spar",
        "brand:wikidata": "Q610492",
        "name": "Spar",
        "operator": "Spar",
        "shop": "convenience"
      }
    },
    {
      "type": "node",
      "id": 471972960,
      "lat": 43.7061928,
      "lon": 7.2685365,
      "timestamp": "2020-05-03T04:15:18Z",
      "version": 9,
      "changeset": 84545418,
      "user": "CaResteOuvert_visitor",
      "uid": 10944324,
      "tags": {
        "access:covid19": "yes",
        "addr:street": "Rue de Lépante",
        "brand": "Carrefour",
        "brand:wikidata": "Q217599",
        "name": "Carrefour",
        "opening_hours:covid19": "open",
        "shop": "supermarket"
      }
    },
    {
      "type": "node",
      "id": 473748767,
      "lat": 44.0617815,
      "lon": 7.7119805,
      "timestamp": "2021-05-19T03:11:03Z",
      "version": 13,
      "changeset": 104921870,
      "user": "Hervé TUC",
      "uid": 922338,
      "tags": {
        "ele": "2200",
        "name": "Mont Saccarel",
        "name:it": "Monte Saccarello",
        "natural": "peak",
        "source": "CTR Regione Liguria",
        "wikidata": "Q1516713",
        "wikipedia": "it:Monte Saccarello"
      }
    },
    {
      "type": "node",
      "id": 492068128,
      "lat": 44.083302,
      "lon": 7.1047354,
      "timestamp": "2021-05-31T13:57:24Z",
      "version": 17,
      "changeset": 105628396,
      "user": "Farot",
      "uid": 10617233,
      "tags": {
        "addr:postcode": "06420",
        "alt_name:it": "San Salvatore di Tinea",
        "name": "Saint-Sauveur-sur-Tinée",
        "name:it": "San Salvatore",
        "name:oc": "Sant Sarvaor de Tiniá",
        "place": "village",
        "population": "346",
        "ref:FR:SIREN": "210601290",
        "source:name:oc": "ieo-bdtopoc",
        "wikidata": "Q856193",
        "wikipedia": "fr:Saint-Sauveur-sur-Tinée"
      }
    },
    {
      "type": "node",
      "id": 494259631,
      "lat": 44.0730517,
      "lon": 7.4503971,
      "timestamp": "2017-06-14T11:03:47Z",
      "version": 6,
      "changeset": 49526354,
      "user": "Keyser Söze 2",
      "uid": 4324085,
      "tags": {
        "c2c:id": "39386",
        "ele": "2872",
        "name": "Mont Bego",
        "natural": "peak",
        "source": "cadastre-dgi-fr source : Direction Générale des Impôts - Cadastre. Mise à jour : 2009",
        "wikidata": "Q745803"
      }
    },
    {
      "type": "node",
      "id": 521919323,
      "lat": 44.0201925,
      "lon": 7.3937419,
      "timestamp": "2021-07-28T19:48:19Z",
      "version": 3,
      "changeset": 108777822,
      "user": "Garabus",
      "uid": 12992972,
      "tags": {
        "alt_name": "Baisse de Mallette",
        "ele": "1906",
        "name": "Baisse de la Coulette",
        "natural": "saddle"
      }
    },
    {
      "type": "node",
      "id": 527852857,
      "lat": 43.5937793,
      "lon": 7.096589,
      "timestamp": "2009-10-25T11:16:48Z",
      "version": 2,
      "changeset": 2945095,
      "user": "Gnurfos",
      "uid": 181250,
      "tags": {
        "amenity": "drinking_water"
      }
    },
    {
      "type": "node",
      "id": 528726027,
      "lat": 43.594931,
      "lon": 7.0687872,
      "timestamp": "2009-10-25T18:07:40Z",
      "version": 2,
      "changeset": 2949063,
      "user": "Gnurfos",
      "uid": 181250,
      "tags": {
        "amenity": "drinking_water"
      }
    },
    {
      "type": "node",
      "id": 528740437,
      "lat": 43.5913335,
      "lon": 7.0607449,
      "timestamp": "2019-07-10T12:51:50Z",
      "version": 2,
      "changeset": 72094062,
      "user": "jcr83",
      "uid": 234940,
      "tags": {
        "amenity": "drinking_water",
        "note": "à vérifier"
      }
    },
    {
      "type": "node",
      "id": 534749812,
      "lat": 43.9341925,
      "lon": 7.2431269,
      "timestamp": "2021-08-03T18:32:45Z",
      "version": 5,
      "changeset": 109108941,
      "user": "Garabus",
      "uid": 12992972,
      "tags": {
        "alt_name": "Col de la Meï",
        "ele": "1220",
        "mountain_pass": "yes",
        "name": "Bouche de Castel Gineste",
        "natural": "saddle"
      }
    },
    {
      "type": "node",
      "id": 534749941,
      "lat": 43.9199594,
      "lon": 7.2650593,
      "timestamp": "2011-11-17T19:41:35Z",
      "version": 2,
      "changeset": 9857077,
      "user": "sergio7826",
      "uid": 411998,
      "tags": {
        "name": "Saint-Jean la Rivière",
        "place": "hamlet"
      }
    },
    {
      "type": "node",
      "id": 539641558,
      "lat": 43.5983149,
      "lon": 7.0886259,
      "timestamp": "2019-08-01T08:36:29Z",
      "version": 7,
      "changeset": 72887352,
      "user": "ElChupacabra",
      "uid": 7434959,
      "tags": {
        "brand": "Carrefour Market",
        "brand:wikidata": "Q2689639",
        "brand:wikipedia": "fr:Carrefour Market",
        "name": "Carrefour Market",
        "operator": "Carrefour Marker",
        "shop": "supermarket"
      }
    },
    {
      "type": "node",
      "id": 540336181,
      "lat": 43.8540119,
      "lon": 7.408214,
      "timestamp": "2017-08-20T10:37:42Z",
      "version": 4,
      "changeset": 51273898,
      "user": "Keyser Söze 2",
      "uid": 4324085,
      "tags": {
        "ele": "1024",
        "mountain_pass": "yes",
        "name": "Baisse du Pape",
        "natural": "saddle"
      }
    },
    {
      "type": "node",
      "id": 540336819,
      "lat": 43.8450677,
      "lon": 7.4111058,
      "timestamp": "2017-07-05T22:10:57Z",
      "version": 6,
      "changeset": 50069907,
      "user": "Keyser Söze 2",
      "uid": 4324085,
      "tags": {
        "ele": "1083",
        "mountain_pass": "yes",
        "name": "Col du Farguet",
        "natural": "saddle"
      }
    },
    {
      "type": "node",
      "id": 540406880,
      "lat": 43.8389804,
      "lon": 7.4607619,
      "timestamp": "2009-10-25T20:51:12Z",
      "version": 1,
      "changeset": 2950935,
      "user": "loecksche",
      "uid": 89149,
      "tags": {
        "amenity": "drinking_water"
      }
    },
    {
      "type": "node",
      "id": 540422439,
      "lat": 43.7754935,
      "lon": 7.4470157,
      "timestamp": "2021-12-03T13:19:21Z",
      "version": 4,
      "changeset": 114523299,
      "user": "fmorel",
      "uid": 331938,
      "tags": {
        "ele": "440",
        "name": "Col de La Coupière",
        "natural": "saddle"
      }
    },
    {
      "type": "node",
      "id": 564702281,
      "lat": 43.6260752,
      "lon": 7.1004158,
      "timestamp": "2009-11-15T13:24:13Z",
      "version": 1,
      "changeset": 3121749,
      "user": "Gnurfos",
      "uid": 181250,
      "tags": {
        "amenity": "drinking_water"
      }
    },
    {
      "type": "node",
      "id": 573659920,
      "lat": 43.6668459,
      "lon": 7.070199,
      "timestamp": "2021-04-18T16:54:39Z",
      "version": 3,
      "changeset": 103146391,
      "user": "jcr83",
      "uid": 234940,
      "tags": {
        "amenity": "drinking_water"
      }
    },
    {
      "type": "node",
      "id": 581950063,
      "lat": 43.7642725,
      "lon": 7.038437,
      "timestamp": "2017-09-03T11:29:31Z",
      "version": 3,
      "changeset": 51690471,
      "user": "Vlad",
      "uid": 24247,
      "tags": {
        "name": "Saint-Barnabé",
        "place": "hamlet"
      }
    },
    {
      "type": "node",
      "id": 582610748,
      "lat": 44.0316773,
      "lon": 7.1007597,
      "timestamp": "2020-04-28T11:21:46Z",
      "version": 10,
      "changeset": 84262430,
      "user": "oc-OpenStreetMap",
      "uid": 4224320,
      "tags": {
        "addr:postcode": "06420",
        "name": "Ilonse",
        "name:it": "Ilonza",
        "name:oc": "Ilonça",
        "place": "village",
        "population": "167",
        "source:name:oc": "ieo-bdtopoc",
        "source:population": "INSEE 2013",
        "wikidata": "Q1018188",
        "wikipedia": "fr:Ilonse"
      }
    },
    {
      "type": "node",
      "id": 582628694,
      "lat": 44.0415654,
      "lon": 7.1243732,
      "timestamp": "2009-12-06T17:40:09Z",
      "version": 1,
      "changeset": 3307459,
      "user": "Djam",
      "uid": 24982,
      "tags": {
        "name": "Irougne",
        "place": "hamlet"
      }
    },
    {
      "type": "node",
      "id": 588643359,
      "lat": 43.7080983,
      "lon": 7.2523413,
      "timestamp": "2020-08-16T22:49:14Z",
      "version": 7,
      "changeset": 89485205,
      "user": "divulmappeur",
      "uid": 8490885,
      "tags": {
        "brand": "Utile",
        "brand:wikidata": "Q2529029",
        "brand:wikipedia": "en:Système U",
        "name": "Utile",
        "opening_hours": "Mo-Su 07:00-20:00",
        "shop": "convenience"
      }
    },
    {
      "type": "node",
      "id": 599572294,
      "lat": 43.8518338,
      "lon": 7.4971717,
      "timestamp": "2020-04-04T20:18:54Z",
      "version": 6,
      "changeset": 83082437,
      "user": "Edward",
      "uid": 364,
      "tags": {
        "ele": "1328",
        "name": "Monte Buletta",
        "name:fr": "Mont Mulacié",
        "natural": "peak",
        "wikidata": "Q31656589"
      }
    },
    {
      "type": "node",
      "id": 599572299,
      "lat": 43.8883385,
      "lon": 7.5816499,
      "timestamp": "2017-02-25T16:29:20Z",
      "version": 8,
      "changeset": 46397292,
      "user": "sabas88",
      "uid": 454589,
      "tags": {
        "ele": "1016",
        "name": "Monte Abellio",
        "natural": "peak",
        "wikidata": "Q3861163",
        "wikipedia": "it:Monte Abellio"
      }
    },
    {
      "type": "node",
      "id": 599572311,
      "lat": 43.9637874,
      "lon": 7.6278241,
      "timestamp": "2021-05-19T03:11:03Z",
      "version": 8,
      "changeset": 104921870,
      "user": "Hervé TUC",
      "uid": 922338,
      "tags": {
        "ele": "1556",
        "name": "Mont Léga",
        "name:ia": "Monte Lega",
        "natural": "peak",
        "wikidata": "Q31647755"
      }
    },
    {
      "type": "node",
      "id": 599572319,
      "lat": 44.018251,
      "lon": 7.6564464,
      "timestamp": "2020-06-25T12:26:38Z",
      "version": 7,
      "changeset": 87140740,
      "user": "solitone",
      "uid": 584192,
      "tags": {
        "PDOP": "1.54",
        "ele": "2137",
        "name": "Cime de Marta",
        "name:it": "Cima di Marta",
        "natural": "peak",
        "source": "survey",
        "wikidata": "Q3676743",
        "wikipedia": "it:Cima Marta"
      }
    },
    {
      "type": "node",
      "id": 599952480,
      "lat": 43.8846801,
      "lon": 7.3608864,
      "timestamp": "2020-04-28T11:21:47Z",
      "version": 20,
      "changeset": 84262430,
      "user": "oc-OpenStreetMap",
      "uid": 4224320,
      "tags": {
        "name": "Lucéram",
        "name:fr": "Lucéram",
        "name:it": "Lucerame",
        "name:oc": "Luceram",
        "place": "village",
        "postal_code": "06440",
        "ref:FR:SIREN": "210600771",
        "source:name:oc": "ieo-bdtopoc"
      }
    },
    {
      "type": "node",
      "id": 600186318,
      "lat": 43.9319595,
      "lon": 7.3604376,
      "timestamp": "2017-09-25T01:40:04Z",
      "version": 6,
      "changeset": 52342326,
      "user": "nyuriks",
      "uid": 339581,
      "tags": {
        "name": "Peïra-Cava",
        "place": "hamlet",
        "wikidata": "Q3377886",
        "wikipedia": "fr:Peïra-Cava"
      }
    },
    {
      "type": "node",
      "id": 604018280,
      "lat": 43.7637103,
      "lon": 7.039185,
      "timestamp": "2017-09-03T11:29:31Z",
      "version": 2,
      "changeset": 51690471,
      "user": "Vlad",
      "uid": 24247,
      "tags": {
        "amenity": "drinking_water"
      }
    },
    {
      "type": "node",
      "id": 609404573,
      "lat": 43.6969934,
      "lon": 7.2512577,
      "timestamp": "2010-01-08T17:27:31Z",
      "version": 1,
      "changeset": 3571936,
      "user": "remyoudompheng",
      "uid": 41851,
      "tags": {
        "name": "Schlecker",
        "shop": "convenience"
      }
    },
    {
      "type": "node",
      "id": 618693791,
      "lat": 43.7111997,
      "lon": 7.2814118,
      "timestamp": "2020-03-27T05:20:33Z",
      "version": 3,
      "changeset": 82693630,
      "user": "Olyon",
      "uid": 1443767,
      "tags": {
        "brand": "Vival",
        "brand:wikidata": "Q7937525",
        "name": "Vival",
        "operator": "Vival",
        "shop": "convenience"
      }
    },
    {
      "type": "node",
      "id": 677560398,
      "lat": 43.6231788,
      "lon": 7.0467177,
      "timestamp": "2021-10-12T10:33:47Z",
      "version": 8,
      "changeset": 112411796,
      "user": "Emanothep",
      "uid": 14104975,
      "tags": {
        "brand": "Le Petit Casino",
        "brand:wikidata": "Q89029249",
        "name": "Le Petit Casino",
        "opening_hours": "Mo-Fr 08:00-19:00; Sa 09:00-19:00",
        "operator": "Casino",
        "shop": "convenience"
      }
    },
    {
      "type": "node",
      "id": 683825704,
      "lat": 43.665179,
      "lon": 7.1534485,
      "timestamp": "2020-04-01T21:20:43Z",
      "version": 3,
      "changeset": 82944780,
      "user": "Zorglub67",
      "uid": 508222,
      "tags": {
        "brand": "Casino",
        "brand:wikidata": "Q89029184",
        "name": "Casino",
        "operator": "Casino",
        "shop": "supermarket"
      }
    },
    {
      "type": "node",
      "id": 706538488,
      "lat": 43.8436639,
      "lon": 7.0476356,
      "timestamp": "2021-05-31T13:45:04Z",
      "version": 9,
      "changeset": 105627818,
      "user": "Farot",
      "uid": 10617233,
      "tags": {
        "addr:postcode": "06510",
        "name": "Conségudes",
        "name:oc": "Consegüás",
        "place": "village",
        "population": "82",
        "source:name:oc": "ieo-bdtopoc",
        "source:population": "INSEE 2013"
      }
    },
    {
      "type": "node",
      "id": 706538572,
      "lat": 43.8469957,
      "lon": 7.0934702,
      "timestamp": "2020-04-28T11:21:48Z",
      "version": 8,
      "changeset": 84262430,
      "user": "oc-OpenStreetMap",
      "uid": 4224320,
      "tags": {
        "addr:postcode": "06510",
        "name": "Les Ferres",
        "name:oc": "Sei Ferres",
        "place": "village",
        "population": "97",
        "source:name:oc": "ieo-bdtopoc",
        "source:population": "INSEE 2013"
      }
    },
    {
      "type": "node",
      "id": 707729996,
      "lat": 43.7074783,
      "lon": 7.3318537,
      "timestamp": "2019-11-19T05:49:59Z",
      "version": 5,
      "changeset": 77256308,
      "user": "thetornado76",
      "uid": 1624486,
      "tags": {
        "addr:city": "Beaulieu-sur-Mer",
        "addr:housenumber": "1",
        "addr:postcode": "06310",
        "addr:street": "Rue du 8 Mai 1945",
        "contact:website": "https://www.magasins-u.com/superu-beaulieusurmer",
        "internet_access": "wlan",
        "internet_access:fee": "no",
        "name": "Super U",
        "opening_hours": "Mo-Sa 08:30-20:00; Su 08:30-12:45",
        "operator": "Système U",
        "shop": "convenience",
        "wheelchair": "yes"
      }
    },