{
  "osm3s": {
    "timestamp_osm_date": "2022-07-20T23:59:59Z",
    "timestamp_osm_base": "2022-07-21T05:15:53Z",
    "copyright": "The data included in this document is from www.openstreetmap.org. The data is made available under ODbL."
  },
  "elements": [
    {
      "type": "node",
      "id": 277772089,
      "lat": 6.8857003,
      "lon": -73.0805844,
      "timestamp": "2013-08-19T01:05:38Z",
      "version": 4,
      "changeset": 17404475,
      "user": "bastien59360",
      "uid": 273304,
      "tags": {
        "is_in": "Colombia, Santander",
        "name": "Mirador Salto del Duende",
        "place": "village",
        "tourism": "viewpoint"
      }
    },
    {
      "type": "node",
      "id": 277772094,
      "lat": 6.6945729,
      "lon": -73.0187027,
      "timestamp": "2021-11-04T15:08:05Z",
      "version": 8,
      "changeset": 113374035,
      "user": "magrej",
      "uid": 7345137,
      "tags": {
        "divipola": "68051",
        "is_in:country": "Colombia",
        "is_in:state": "Santander",
        "name": "Aratoca",
        "note": "POBLACION, CABECERA MUNICIPAL, 951c2923280fe0d1838860535ce9ed6d",
        "place": "town",
        "source": "OCHA Colombia 2010",
        "wikidata": "Q933015",
        "wikipedia": "en:Aratoca"
      }
    },
    {
      "type": "node",
      "id": 427590793,
      "lat": 6.4769907,
      "lon": -72.9706464,
      "timestamp": "2018-04-24T00:47:24Z",
      "version": 3,
      "changeset": 58357488,
      "user": "fredw",
      "uid": 5269,
      "tags": {
        "divipola": "68464",
        "is_in:country": "Colombia",
        "is_in:state": "Santander",
        "name": "Mogotes",
        "note": "POBLACION, CABECERA MUNICIPAL, ce675a2da4e0c05d5fdc5f7dcedf231f",
        "place": "town",
        "source": "OCHA Colombia 2010"
      }
    },
    {
      "type": "node",
      "id": 427591975,
      "lat": 6.3438974,
      "lon": -72.816606,
      "timestamp": "2021-11-03T10:34:10Z",
      "version": 3,
      "changeset": 113325201,
      "user": "borovac",
      "uid": 10222347,
      "tags": {
        "divipola": "68502",
        "is_in:country": "Colombia",
        "is_in:state": "Santander",
        "name": "Onzaga",
        "note": "POBLACION, CABECERA MUNICIPAL, 17ec8486e11ec1bf1950f81b351e6fa0",
        "place": "town",
        "source": "OCHA Colombia 2010",
        "wikidata": "Q2245327",
        "wikipedia": "en:Onzaga"
      }
    },
    {
      "type": "node",
      "id": 427596710,
      "lat": 6.699661,
      "lon": -72.7324563,
      "timestamp": "2021-11-04T08:12:48Z",
      "version": 5,
      "changeset": 113359940,
      "user": "borovac",
      "uid": 10222347,
      "tags": {
        "divipola": "68432",
        "is_in:country": "Colombia",
        "is_in:state": "Santander",
        "name": "Málaga",
        "note": "POBLACION, CABECERA MUNICIPAL, 09260f8fe9422672909f6767997d596b",
        "place": "town",
        "source": "OCHA Colombia 2010",
        "wikidata": "Q950892",
        "wikipedia": "en:Málaga, Santander"
      }
    },
    {
      "type": "node",
      "id": 427597278,
      "lat": 6.5009513,
      "lon": -72.7382915,
      "timestamp": "2019-09-12T19:20:55Z",
      "version": 5,
      "changeset": 74406269,
      "user": "yurley 2004",
      "uid": 10076765,
      "tags": {
        "divipola": "15218",
        "is_in:country": "Colombia",
        "is_in:state": "Boyacá",
        "name": "Covarachía",
        "note": "POBLACION, CABECERA MUNICIPAL, f798e51304a646977d80f4e3a0756a63",
        "place": "town",
        "source": "OCHA Colombia 2010"
      }
    },
    {
      "type": "node",
      "id": 599018034,
      "lat": 6.9176961,
      "lon": -73.006326,
      "timestamp": "2021-05-25T01:40:29Z",
      "version": 5,
      "changeset": 105255083,
      "user": "HeKeIsDa",
      "uid": 13349801,
      "tags": {
        "ele": "1303.4233398",
        "name": "Corregimiento de Los Curos",
        "place": "hamlet",
        "wpt_description": "22-DIC-09 6:26:02PM"
      }
    },
    {
      "type": "node",
      "id": 599018199,
      "lat": 6.8936047,
      "lon": -73.0353416,
      "timestamp": "2011-02-07T22:59:20Z",
      "version": 2,
      "changeset": 7222161,
      "user": "Fabi2",
      "uid": 125718,
      "tags": {
        "name": "Mesa los Santos",
        "place": "hamlet",
        "wpt_description": "22-DIC-09 6:20:49PM"
      }
    },
    {
      "type": "node",
      "id": 690330300,
      "lat": 6.3313744,
      "lon": -72.6836565,
      "timestamp": "2010-04-09T13:26:30Z",
      "version": 1,
      "changeset": 4373251,
      "user": "ikks",
      "uid": 37987,
      "tags": {
        "name": "Plaza de Mercado",
        "shop": "supermarket"
      }
    },
    {
      "type": "node",
      "id": 703170045,
      "lat": 6.3180471,
      "lon": -72.5603339,
      "timestamp": "2022-02-02T18:01:50Z",
      "version": 9,
      "changeset": 116929564,
      "user": "JLOSM",
      "uid": 4494325,
      "tags": {
        "comment": "convertido a OSM usando http://GaleNUx.com",
        "divipola": "15403",
        "name": "La Uvita",
        "place": "town",
        "source": "OCHA Colombia 2010"
      }
    },
    {
      "type": "node",
      "id": 703170079,
      "lat": 6.3406733,
      "lon": -73.1220123,
      "timestamp": "2021-11-08T08:20:46Z",
      "version": 5,
      "changeset": 113510456,
      "user": "borovac",
      "uid": 10222347,
      "tags": {
        "divipola": "68498",
        "is_in:country": "Colombia",
        "is_in:state": "Santander",
        "name": "Ocamonte",
        "note": "POBLACION, CABECERA MUNICIPAL, 140a8491fffda025c66603d6f0cf0355",
        "place": "town",
        "source": "OCHA Colombia 2010",
        "wikidata": "Q1655496",
        "wikipedia": "en:Ocamonte"
      }
    },
    {
      "type": "node",
      "id": 703170081,
      "lat": 6.427589,
      "lon": -72.8676531,
      "timestamp": "2012-07-27T14:44:28Z",
      "version": 3,
      "changeset": 12512399,
      "user": "Manchito",
      "uid": 202868,
      "tags": {
        "divipola": "68682",
        "is_in:country": "Colombia",
        "is_in:state": "Santander",
        "name": "San Joaquín",
        "note": "POBLACION, CABECERA MUNICIPAL, 350935f856e4171e1c4980a3d2f50f43",
        "place": "town",
        "source": "OCHA Colombia 2010"
      }
    },
    {
      "type": "node",
      "id": 703170101,
      "lat": 6.6067027,
      "lon": -73.069209,
      "timestamp": "2012-07-27T14:44:19Z",
      "version": 4,
      "changeset": 12512399,
      "user": "Manchito",
      "uid": 202868,
      "tags": {
        "comment": "convertido a OSM usando http://GaleNUx.com",
        "divipola": "68229",
        "is_in:country": "Colombia",
        "is_in:state": "Santander",
        "name": "Curití",
        "note": "POBLACION, CABECERA MUNICIPAL, bb544310a31b013780571b221fbbc329",
        "place": "town",
        "source": "OCHA Colombia 2010"
      }
    },
    {
      "type": "node",
      "id": 703170102,
      "lat": 6.335189,
      "lon": -72.6803643,
      "timestamp": "2020-07-25T22:32:25Z",
      "version": 7,
      "changeset": 88507771,
      "user": "JLOSM",
      "uid": 4494325,
      "tags": {
        "comment": "convertido a OSM usando http://GaleNUx.com",
        "divipola": "15753",
        "name": "Soatá",
        "note": "POBLACION, CABECERA MUNICIPAL, 392dd0de986d15621faf9aa1e3036724",
        "place": "town",
        "source": "OCHA Colombia 2010"
      }
    },
    {
      "type": "node",
      "id": 703170106,
      "lat": 6.4825581,
      "lon": -72.4952026,
      "timestamp": "2021-11-04T11:33:27Z",
      "version": 7,
      "changeset": 113366087,
      "user": "magrej",
      "uid": 7345137,
      "tags": {
        "comment": "convertido a OSM usando http://GaleNUx.com",
        "divipola": "15248",
        "is_in": "Colombia; Boyacá ; El Espino",
        "name": "El Espino",
        "note": "POBLACION, CABECERA MUNICIPAL, af12d8c80f851b2dac4528fa41129340",
        "place": "town",
        "source": "OCHA Colombia 2010",
        "wikidata": "Q1654603",
        "wikipedia": "en:El Espino, Boyacá"
      }
    },
    {
      "type": "node",
      "id": 703170107,
      "lat": 6.4426674,
      "lon": -72.4590342,
      "timestamp": "2022-04-14T20:16:42Z",
      "version": 7,
      "changeset": 119728126,
      "user": "JuanMelo",
      "uid": 12906384,
      "tags": {
        "comment": "convertido a OSM usando http://GaleNUx.com",
        "divipola": "15522",
        "name": "Panqueba",
        "note": "POBLACION, CABECERA MUNICIPAL, 042757a0464ff13d68090bb7bc3e02f4",
        "place": "town",
        "source": "OCHA Colombia 2010",
        "wikidata": "Q1656207",
        "wikipedia": "en:Panqueba"
      }
    },
    {
      "type": "node",
      "id": 703170111,
      "lat": 6.4599118,
      "lon": -72.5011643,
      "timestamp": "2021-01-09T04:50:37Z",
      "version": 7,
      "changeset": 97198362,
      "user": "AngocA",
      "uid": 89128,
      "tags": {
        "divipola": "15317",
        "name": "Guacamayas",
        "note": "POBLACION, CABECERA MUNICIPAL, 2a15eac6461ea0a27aeda977359f8ff0",
        "place": "town",
        "source": "OCHA Colombia 2010"
      }
    },
    {
      "type": "node",
      "id": 703170113,
      "lat": 6.4017573,
      "lon": -72.5559807,
      "timestamp": "2020-11-12T04:23:32Z",
      "version": 5,
      "changeset": 93963514,
      "user": "JLOSM",
      "uid": 4494325,
      "tags": {
        "comment": "convertido a OSM usando http://GaleNUx.com",
        "divipola": "15673",
        "name": "San Mateo",
        "note": "POBLACION, CABECERA MUNICIPAL, 0bae5bf5c3f8b247989a8dac689e763d",
        "place": "town",
        "source": "OCHA Colombia 2010"
      }
    },
    {
      "type": "node",
      "id": 703170120,
      "lat": 6.6682065,
      "lon": -72.699343,
      "timestamp": "2019-04-26T16:28:44Z",
      "version": 8,
      "changeset": 69607531,
      "user": "German C",
      "uid": 1225083,
      "tags": {
        "divipola": "68266",
        "is_in:country": "Colombia",
        "is_in:state": "Santander",
        "name": "Enciso",
        "note": "POBLACION, CABECERA MUNICIPAL, d62f3b829e5e8ef7d6f1549361b55959",
        "place": "town",
        "source": "OCHA Colombia 2010",
        "website": "http://www.enciso-santander.gov.co/"
      }
    },
    {
      "type": "node",
      "id": 703170125,
      "lat": 6.5060841,
      "lon": -72.5925353,
      "timestamp": "2021-11-04T07:54:30Z",
      "version": 5,
      "changeset": 113359459,
      "user": "PulisakZ",
      "uid": 9026132,
      "tags": {
        "divipola": "68425",
        "is_in:country": "Colombia",
        "is_in:state": "Santander",
        "name": "Macaravita",
        "note": "POBLACION, CABECERA MUNICIPAL, 3436056b71b15dd28edb1049bee3b362",
        "place": "town",
        "source": "OCHA Colombia 2010",
        "wikidata": "Q1655505",
        "wikipedia": "en:Macaravita"
      }
    },
    {
      "type": "node",
      "id": 703170127,
      "lat": 6.8760761,
      "lon": -72.8557642,
      "timestamp": "2021-11-02T15:13:45Z",
      "version": 4,
      "changeset": 113289644,
      "user": "borovac",
      "uid": 10222347,
      "tags": {
        "divipola": "68318",
        "is_in:country": "Colombia",
        "is_in:state": "Santander",
        "name": "Guaca",
        "note": "POBLACION, CABECERA MUNICIPAL, cbf65bfa46be09ea097ec37893b8069a",
        "place": "town",
        "source": "OCHA Colombia 2010",
        "wikidata": "Q948769",
        "wikipedia": "en:Guaca, Santander"
      }
    },
    {
      "type": "node",
      "id": 703170132,
      "lat": 6.8435992,
      "lon": -72.6939627,
      "timestamp": "2021-11-04T07:46:46Z",
      "version": 7,
      "changeset": 113359278,
      "user": "magrej",
      "uid": 7345137,
      "tags": {
        "divipola": "68162",
        "is_in:country": "Colombia",
        "is_in:state": "Santander",
        "name": "Cerrito",
        "note": "POBLACION, CABECERA MUNICIPAL, 229fec3799494768754b78c188c2bd62",
        "place": "town",
        "source": "OCHA Colombia 2010",
        "wikidata": "Q2012935",
        "wikipedia": "en:Cerrito, Santander"
      }
    },
    {
      "type": "node",
      "id": 703170134,
      "lat": 6.7559026,
      "lon": -73.1018206,
      "timestamp": "2012-07-27T14:44:23Z",
      "version": 4,
      "changeset": 12512399,
      "user": "Manchito",
      "uid": 202868,
      "tags": {
        "comment": "convertido a OSM usando http://GaleNUx.com",
        "divipola": "68418",
        "is_in:country": "Colombia",
        "is_in:state": "Santander",
        "name": "Los Santos",
        "note": "POBLACION, CABECERA MUNICIPAL, e1f57e307855f4c760cf07a0eadaf87f",
        "place": "town",
        "source": "OCHA Colombia 2010"
      }
    },
    {
      "type": "node",
      "id": 703170135,
      "lat": 6.8100668,
      "lon": -72.8506351,
      "timestamp": "2021-11-08T12:33:25Z",
      "version": 7,
      "changeset": 113520811,
      "user": "magrej",
      "uid": 7345137,
      "tags": {
        "divipola": "68669",
        "is_in:country": "Colombia",
        "is_in:state": "Santander",
        "name": "San Andrés",
        "note": "POBLACION, CABECERA MUNICIPAL, 284dd11c88d947e33d7e976f01db07f4",
        "place": "town",
        "source": "OCHA Colombia 2010",
        "wikidata": "Q964241",
        "wikipedia": "en:San Andrés, Santander"
      }
    },
    {
      "type": "node",
      "id": 703170137,
      "lat": 6.7534688,
      "lon": -72.9746494,
      "timestamp": "2012-07-27T14:44:17Z",
      "version": 4,
      "changeset": 12512399,
      "user": "Manchito",
      "uid": 202868,
      "tags": {
        "comment": "convertido a OSM usando http://GaleNUx.com",
        "divipola": "68160",
        "is_in:country": "Colombia",
        "is_in:state": "Santander",
        "name": "Cepitá",
        "note": "POBLACION, CABECERA MUNICIPAL, 4c7a59c4841138cbffbca52db683f5f7",
        "place": "town",
        "source": "OCHA Colombia 2010"
      }
    },
    {
      "type": "node",
      "id": 703231615,
      "lat": 6.7285406,
      "lon": -72.4987545,
      "timestamp": "2021-08-19T23:34:21Z",
      "version": 3,
      "changeset": 109957320,
      "user": "Federico Explorador",
      "uid": 293454,
      "tags": {
        "comment": "convertido a OSM usando http://GaleNUx.com",
        "divipola": "15180",
        "ele": "4099",
        "is_in": "Colombia; Boyacá ; Chiscas",
        "name": "Alto Cinchona",
        "natural": "saddle",
        "note": "OROGRAFIA, MONTAÑAS Y CERROS, 610a8e7b98170873f3e7df210e8b3cf9",
        "source": "OCHA Colombia 2010"
      }
    },
    {
      "type": "node",
      "id": 703524229,
      "lat": 6.3313485,
      "lon": -73.0681834,
      "timestamp": "2018-04-20T22:52:17Z",
      "version": 3,
      "changeset": 58278551,
      "user": "fredw",
      "uid": 5269,
      "tags": {
        "comment": "convertido a OSM usando http://GaleNUx.com",
        "divipola": "68167",
        "fixme": "Revisar: este punto fue creado por importación directa",
        "is_in": "Colombia; Santander ; Charalá",
        "name": "Lenguna",
        "note": "GEOPUNTO, PUNTO DE INTERES, 3aa9e00895f9ce4cce6fba6a665cba90",
        "place": "hamlet",
        "source": "OCHA Colombia 2010"
      }
    },
    {
      "type": "node",
      "id": 703524321,
      "lat": 6.4959996,
      "lon": -72.8515138,
      "timestamp": "2018-04-24T00:47:24Z",
      "version": 3,
      "changeset": 58357488,
      "user": "fredw",
      "uid": 5269,
      "tags": {
        "comment": "convertido a OSM usando http://GaleNUx.com",
        "divipola": "68682",
        "fixme": "Revisar: este punto fue creado por importación directa",
        "is_in": "Colombia; Santander ; San Joaquín",
        "name": "La Boca Del Cedro",
        "note": "GEOPUNTO, PUNTO DE INTERES, b782154ac6f44cfaf1ac8fe4015c26df",
        "place": "hamlet",
        "source": "OCHA Colombia 2010"
      }
    },
    {
      "type": "node",
      "id": 703524358,
      "lat": 6.5866071,
      "lon": -72.9643992,
      "timestamp": "2018-04-24T22:58:02Z",
      "version": 4,
      "changeset": 58391682,
      "user": "fredw",
      "uid": 5269,
      "tags": {
        "comment": "convertido a OSM usando http://GaleNUx.com",
        "divipola": "68464",
        "fixme": "Revisar: este punto fue creado por importación directa",
        "is_in": "Colombia; Santander ; Mogotes",
        "name": "Pitiguao",
        "note": "POBLACION, POBLACION, 5dd803766beaada8f5c903163bdfb0f6",
        "place": "village",
        "source": "OCHA Colombia 2010"
      }
    },
    {
      "type": "node",
      "id": 703524401,
      "lat": 6.5512105,
      "lon": -72.8309102,
      "timestamp": "2019-04-17T04:37:04Z",
      "version": 4,
      "changeset": 69294279,
      "user": "Federico Explorador",
      "uid": 293454,
      "tags": {
        "comment": "convertido a OSM usando http://GaleNUx.com",
        "divipola": "68682",
        "fixme": "Revisar: este punto fue creado por importación directa",
        "is_in": "Colombia; Santander ; San Joaquín",
        "name": "Ricaurte",
        "note": "POBLACION, POBLACION, 52bd6b1d61c8d231e2c6d96ccdf84300",
        "place": "village",
        "source": "OCHA Colombia 2010"
      }
    },
    {
      "type": "node",
      "id": 703524598,
      "lat": 6.6168652,
      "lon": -72.5759045,
      "timestamp": "2020-06-17T00:00:15Z",
      "version": 3,
      "changeset": 86744142,
      "user": "fredw",
      "uid": 5269,
      "tags": {
        "comment": "convertido a OSM usando http://GaleNUx.com",
        "divipola": "68152",
        "fixme": "Revisar: este punto fue creado por importación directa",
        "is_in": "Colombia; Santander ; Carcasi",
        "name": "Guayabal",
        "note": "GEOPUNTO, PUNTO DE INTERES, 5be804316b4cef04c953fda46088c990",
        "place": "hamlet",
        "source": "OCHA Colombia 2010"
      }
    },
    {
      "type": "node",
      "id": 703524631,
      "lat": 6.8430359,
      "lon": -73.1081673,
      "timestamp": "2012-08-14T03:23:49Z",
      "version": 3,
      "changeset": 12721768,
      "user": "Manchito",
      "uid": 202868,
      "tags": {
        "comment": "convertido a OSM usando http://GaleNUx.com",
        "divipola": "68418",
        "fixme": "Revisar: este punto fue creado por importación directa",
        "is_in": "Colombia; Santander ; Los Santos",
        "name": "Llamadas",
        "note": "ADMINISTRATIVO, VEREDA, d5b5d085e59169dd068060f060ad045e",
        "place": "hamlet",
        "source": "OCHA Colombia 2010"
      }
    },
    {
      "type": "node",
      "id": 703524768,
      "lat": 6.8491128,
      "lon": -72.8483242,
      "timestamp": "2020-05-24T04:37:34Z",
      "version": 4,
      "changeset": 85670928,
      "user": "CamiloBermúdez",
      "uid": 3938552,
      "tags": {
        "comment": "convertido a OSM usando http://GaleNUx.com",
        "divipola": "68318",
        "fixme": "Revisar: este punto fue creado por importación directa",
        "is_in": "Colombia;Santander;Guaca",
        "name": "Vereda Tavacal",
        "note": "GEOPUNTO, PUNTO DE INTERES, 1a86644b2ecc78a6349239d81a6eb7ed",
        "place": "hamlet",
        "source": "OCHA Colombia 2010"
      }
    },
    {
      "type": "node",
      "id": 703524826,
      "lat": 6.8602403,
      "lon": -72.8693904,
      "timestamp": "2020-05-24T04:37:34Z",
      "version": 4,
      "changeset": 85670928,
      "user": "CamiloBermúdez",
      "uid": 3938552,
      "tags": {
        "comment": "convertido a OSM usando http://GaleNUx.com",
        "divipola": "68318",
        "fixme": "Revisar: este punto fue creado por importación directa",
        "is_in": "Colombia;Santander;Guaca",
        "name": "Vereda las Nieves",
        "note": "GEOPUNTO, PUNTO DE INTERES, 2bd71190c95d6c5b9feb983a0985cc96",
        "place": "hamlet",
        "source": "OCHA Colombia 2010"
      }
    },
    {
      "type": "node",
      "id": 703524845,
      "lat": 6.8864642,
      "lon": -72.8246683,
      "timestamp": "2020-05-24T04:36:16Z",
      "version": 4,
      "changeset": 85670919,
      "user": "CamiloBermúdez",
      "uid": 3938552,
      "tags": {
        "comment": "convertido a OSM usando http://GaleNUx.com",
        "divipola": "68318",
        "fixme": "Revisar: este punto fue creado por importación directa",
        "is_in": "Colombia;Santander;Guaca",
        "name": "Vereda el Palmar",
        "note": "GEOPUNTO, PUNTO DE INTERES, 8b693cbc07e6e03eb8b9bd38747426ce",
        "place": "hamlet",
        "source": "OCHA Colombia 2010"
      }
    },
    {
      "type": "node",
      "id": 703525141,
      "lat": 6.6982165,
      "lon": -72.5496895,
      "timestamp": "2020-06-17T00:00:15Z",
      "version": 3,
      "changeset": 86744142,
      "user": "fredw",
      "uid": 5269,
      "tags": {
        "comment": "convertido a OSM usando http://GaleNUx.com",
        "divipola": "68152",
        "fixme": "Revisar: este punto fue creado por importación directa",
        "is_in": "Colombia; Santander ; Carcasi",
        "name": "Aguatendida",
        "note": "GEOPUNTO, PUNTO DE INTERES, effd6bb3393778105f9d6f0503a87652",
        "place": "hamlet",
        "source": "OCHA Colombia 2010"
      }
    },
    {
      "type": "node",
      "id": 1885014452,
      "lat": 6.9874808,
      "lon": -73.0504129,
      "timestamp": "2021-11-03T09:45:57Z",
      "version": 5,
      "changeset": 113323195,
      "user": "borovac",
      "uid": 10222347,
      "tags": {
        "divipola": "68547",
        "is_in:country": "Colombia",
        "is_in:state": "Santander",
        "name": "Piedecuesta",
        "note": "POBLACION, CABECERA MUNICIPAL, cab40094fcbfd92a0c3272316343411a",
        "place": "town",
        "population": "115902",
        "source": "OCHA Colombia 2010",
        "wikidata": "Q2075634",
        "wikipedia": "en:Piedecuesta"
      }
    },
    {
      "type": "node",
      "id": 1961746360,
      "lat": 6.8328382,
      "lon": -73.1163952,
      "timestamp": "2016-06-02T22:08:27Z",
      "version": 2,
      "changeset": 39766176,
      "user": "Federico Explorador",
      "uid": 293454,
      "tags": {
        "name": "Vda. Los Potreros",
        "place": "hamlet"
      }
    },
    {
      "type": "node",
      "id": 2093888866,
      "lat": 6.4076711,
      "lon": -72.4457503,
      "timestamp": "2020-07-25T22:20:59Z",
      "version": 3,
      "changeset": 88507635,
      "user": "JLOSM",
      "uid": 4494325,
      "tags": {
        "name": "El Cocuy",
        "place": "town",
        "source": "survey"
      }
    },
    {
      "type": "node",
      "id": 2960139405,
      "lat": 6.8256953,
      "lon": -73.0000341,
      "timestamp": "2014-07-12T18:24:27Z",
      "version": 1,
      "changeset": 24106356,
      "user": "Leonardo Gutierrez",
      "uid": 77400,
      "tags": {
        "name": "Pescadero",
        "place": "hamlet"
      }
    },
    {
      "type": "node",
      "id": 2961236557,
      "lat": 6.8251225,
      "lon": -72.9998495,
      "timestamp": "2021-05-22T03:12:11Z",
      "version": 2,
      "changeset": 105116941,
      "user": "HeKeIsDa",
      "uid": 13349801,
      "tags": {
        "name": "Chicamocha Real, Municipio de Umpalá",
        "place": "hamlet",
        "population": "2000"
      }
    },
    {
      "type": "node",
      "id": 4102724011,
      "lat": 6.9200423,
      "lon": -73.0481107,
      "timestamp": "2016-04-06T15:38:18Z",
      "version": 1,
      "changeset": 38354725,
      "user": "Jhon Jaimes",
      "uid": 3784368,
      "tags": {
        "name": "Tienda",
        "shop": "supermarket"
      }
    },
    {
      "type": "node",
      "id": 4102724049,
      "lat": 6.9173328,
      "lon": -73.0345952,
      "timestamp": "2016-04-06T15:39:02Z",
      "version": 1,
      "changeset": 38354738,
      "user": "Jhon Jaimes",
      "uid": 3784368,
      "tags": {
        "name": "Tienda La punta",
        "shop": "supermarket"
      }
    },
    {
      "type": "node",
      "id": 4222757086,
      "lat": 6.7456789,
      "lon": -73.1178717,
      "timestamp": "2017-06-02T14:52:07Z",
      "version": 2,
      "changeset": 49198896,
      "user": "Federico Explorador",
      "uid": 293454,
      "tags": {
        "name": "Vda. El Pozo",
        "place": "hamlet"
      }
    },
    {
      "type": "node",
      "id": 4222757087,
      "lat": 6.7699689,
      "lon": -73.0699079,
      "timestamp": "2016-06-02T22:08:22Z",
      "version": 1,
      "changeset": 39766176,
      "user": "Federico Explorador",
      "uid": 293454,
      "tags": {
        "name": "Vda. La Mojarra",
        "place": "hamlet"
      }
    },
    {
      "type": "node",
      "id": 4222757088,
      "lat": 6.751975,
      "lon": -73.0916935,
      "timestamp": "2017-06-02T14:52:07Z",
      "version": 2,
      "changeset": 49198896,
      "user": "Federico Explorador",
      "uid": 293454,
      "tags": {
        "name": "Vda. La Peña",
        "place": "hamlet"
      }
    },
    {
      "type": "node",
      "id": 4242806325,
      "lat": 6.6956207,
      "lon": -72.7291791,
      "timestamp": "2016-06-14T12:47:41Z",
      "version": 1,
      "changeset": 40016710,
      "user": "edgar castellanos",
      "uid": 3847418,
      "tags": {
        "tourism": "camp_site"
      }
    },
    {
      "type": "node",
      "id": 4444743189,
      "lat": 6.5569558,
      "lon": -73.1152877,
      "timestamp": "2021-06-11T17:32:08Z",
      "version": 2,
      "changeset": 106226918,
      "user": "JuanMelo",
      "uid": 12906384,
      "tags": {
        "addr:street": "km 2 San Gil - Bucaramanga",
        "email": "ingjjrocas@gmail.com",
        "internet_access": "wlan",
        "name": "Casona La Guanentina",
        "name:es": "Casona La Guanentina",
        "opening_hours": "24/7",
        "operator": "telesangil",
        "phone": "+57 3123140646",
        "tourism": "alpine_hut"
      }
    },
    {
      "type": "node",
      "id": 4640716890,
      "lat": 6.8530272,
      "lon": -73.0663335,
      "timestamp": "2018-01-17T00:17:25Z",
      "version": 2,
      "changeset": 55508567,
      "user": "sissou",
      "uid": 13303,
      "tags": {
        "amenity": "marketplace",
        "name": "Mercado Campesino",
        "name:es": "Mercado Campesino",
        "shop": "supermarket"
      }
    },
    {
      "type": "node",
      "id": 4702603097,
      "lat": 6.7801817,
      "lon": -73.088486,
      "timestamp": "2018-01-17T00:16:59Z",
      "version": 2,
      "changeset": 55508563,
      "user": "sissou",
      "uid": 13303,
      "tags": {
        "name": "Tienda doña helena",
        "name:es": "Tienda doña helena",
        "shop": "convenience"
      }
    },
    {
      "type": "node",
      "id": 4924921022,
      "lat": 6.6043562,
      "lon": -73.073157,
      "timestamp": "2019-10-16T17:17:03Z",
      "version": 2,
      "changeset": 75794895,
      "user": "JeffTaylor",
      "uid": 387040,
      "tags": {
        "access": "customers",
        "name": "Cueva de la Vaca",
        "name:es": "Cueva de la Vaca",
        "natural": "cave_entrance",
        "tourism": "attraction"
      }
    },
    {
      "type": "node",
      "id": 5091717123,
      "lat": 6.9921504,
      "lon": -73.0412427,
      "timestamp": "2017-09-09T12:54:29Z",
      "version": 1,
      "changeset": 51879136,
      "user": "DARIO ROJAS",
      "uid": 4777596,
      "tags": {
        "amenity": "drinking_water",
        "name": "planta acueducto piedecuesta",
        "name:es": "planta acueducto piedecuesta"
      }
    },
    {
      "type": "node",
      "id": 5343930792,
      "lat": 6.9874777,
      "lon": -73.0451267,
      "timestamp": "2018-01-17T00:17:56Z",
      "version": 1,
      "changeset": 55508573,
      "user": "sissou",
      "uid": 13303,
      "tags": {
        "name": "Justo & Bueno",
        "shop": "supermarket"
      }
    },
    {
      "type": "node",
      "id": 5577380752,
      "lat": 6.6583869,
      "lon": -72.7334887,
      "timestamp": "2020-11-12T03:48:17Z",
      "version": 3,
      "changeset": 93961713,
      "user": "JLOSM",
      "uid": 4494325,
      "tags": {
        "divipola": "68684",
        "name": "San José de Miranda",
        "place": "town"
      }
    },
    {
      "type": "node",
      "id": 5577381577,
      "lat": 6.6737293,
      "lon": -72.8091136,
      "timestamp": "2022-04-11T07:51:55Z",
      "version": 5,
      "changeset": 119565001,
      "user": "PulisakZ",
      "uid": 9026132,
      "tags": {
        "divipola": "68468",
        "name": "Molagavita",
        "note": "POBLACION, CABECERA MUNICIPAL, 1ea816d3cae2489586822c8970bc5efa",
        "place": "town",
        "source": "OCHA Colombia 2010"
      }
    },
    {
      "type": "node",
      "id": 5596657822,
      "lat": 6.4212152,
      "lon": -72.6913888,
      "timestamp": "2018-05-04T14:27:07Z",
      "version": 1,
      "changeset": 58681381,
      "user": "TulioEnrique",
      "uid": 5441737,
      "tags": {
        "name": "Tipacoque",
        "place": "town",
        "population": "5000"
      }
    },
    {
      "type": "node",
      "id": 5725194523,
      "lat": 6.3323625,
      "lon": -72.6835473,
      "timestamp": "2019-03-14T05:45:53Z",
      "version": 2,
      "changeset": 68124449,
      "user": "jlp123",
      "uid": 9094407,
      "tags": {
        "name": "autoservicio merkar",
        "shop": "supermarket"
      }
    },
    {
      "type": "node",
      "id": 6341984400,
      "lat": 6.3981225,
      "lon": -72.7212158,
      "timestamp": "2019-04-08T18:37:46Z",
      "version": 2,
      "changeset": 69018824,
      "user": "JackyGuzmàn06",
      "uid": 8636539,
      "tags": {
        "name": "La Cabaña",
        "tourism": "wilderness_hut"
      }
    },
    {
      "type": "node",
      "id": 6379887751,
      "lat": 6.3357557,
      "lon": -72.6809135,
      "timestamp": "2019-04-03T01:21:15Z",
      "version": 1,
      "changeset": 68818758,
      "user": "jlp123",
      "uid": 9094407,
      "tags": {
        "name": "distribuidora mi soatá",
        "opening_hours": "Mo-Su 09:00-21:00",
        "payment:coins": "yes",
        "shop": "supermarket"
      }
    },
    {
      "type": "node",
      "id": 6407908417,
      "lat": 6.8341733,
      "lon": -72.8500412,
      "timestamp": "2020-05-24T04:37:34Z",
      "version": 2,
      "changeset": 85670928,
      "user": "CamiloBermúdez",
      "uid": 3938552,
      "tags": {
        "name": "Vereda el Azucar",
        "place": "hamlet"
      }
    },
    {
      "type": "node",
      "id": 6407908424,
      "lat": 6.8556986,
      "lon": -72.8635077,
      "timestamp": "2020-05-24T04:37:34Z",
      "version": 2,
      "changeset": 85670928,
      "user": "CamiloBermúdez",
      "uid": 3938552,
      "tags": {
        "name": "Vereda Potrero Grande",
        "place": "hamlet"
      }
    },
    {
      "type": "node",
      "id": 6407908440,
      "lat": 6.8530341,
      "lon": -72.8427547,
      "timestamp": "2020-05-24T04:37:34Z",
      "version": 2,
      "changeset": 85670928,
      "user": "CamiloBermúdez",
      "uid": 3938552,
      "tags": {
        "name": "Vereda Piedra Baja",
        "place": "hamlet"
      }
    },
    {
      "type": "node",
      "id": 6410067532,
      "lat": 6.8955803,
      "lon": -72.8340268,
      "timestamp": "2020-05-24T04:36:16Z",
      "version": 2,
      "changeset": 85670919,
      "user": "CamiloBermúdez",
      "uid": 3938552,
      "tags": {
        "name": "Vereda Cupaga Bajo",
        "place": "hamlet"
      }
    },
    {
      "type": "node",
      "id": 6410067533,
      "lat": 6.903771,
      "lon": -72.834236,
      "timestamp": "2020-05-24T04:36:16Z",
      "version": 2,
      "changeset": 85670919,
      "user": "CamiloBermúdez",
      "uid": 3938552,
      "tags": {
        "name": "Vereda Cupaga Alto",
        "place": "hamlet"
      }
    },
    {
      "type": "node",
      "id": 6410067554,
      "lat": 6.9057621,
      "lon": -72.8423729,
      "timestamp": "2020-05-24T04:36:16Z",
      "version": 2,
      "changeset": 85670919,
      "user": "CamiloBermúdez",
      "uid": 3938552,
      "tags": {
        "name": "Vereda Camara",
        "place": "hamlet"
      }
    },
    {
      "type": "node",
      "id": 6414537958,
      "lat": 6.4194748,
      "lon": -72.6921198,
      "timestamp": "2019-04-18T15:47:35Z",
      "version": 1,
      "changeset": 69349988,
      "user": "YEISONRIVEROS",
      "uid": 9308364,
      "tags": {
        "name": "Inter Rapidisimo Tipacoque",
        "shop": "supermarket"
      }
    },
    {
      "type": "node",
      "id": 6414547573,
      "lat": 6.4191039,
      "lon": -72.6923164,
      "timestamp": "2019-04-18T15:53:09Z",
      "version": 2,
      "changeset": 69350212,
      "user": "YEISONRIVEROS",
      "uid": 9308364,
      "tags": {
        "name": "Tienda Multisevicio",
        "shop": "convenience"
      }
    },
    {
      "type": "node",
      "id": 6414583977,
      "lat": 6.4171051,
      "lon": -72.6924781,
      "timestamp": "2019-04-18T16:10:33Z",
      "version": 1,
      "changeset": 69350893,
      "user": "YEISONRIVEROS",
      "uid": 9308364,
      "tags": {
        "name": "Tienda Multiservicio",
        "shop": "convenience"
      }
    },
    {
      "type": "node",
      "id": 6414588486,
      "lat": 6.4166531,
      "lon": -72.6917499,
      "timestamp": "2019-04-18T16:12:35Z",
      "version": 1,
      "changeset": 69350975,
      "user": "YEISONRIVEROS",
      "uid": 9308364,
      "tags": {
        "name": "\"Tienda Millan\"",
        "shop": "convenience"
      }
    },
    {
      "type": "node",
      "id": 6414712835,
      "lat": 6.4206213,
      "lon": -72.6910754,
      "timestamp": "2019-04-18T17:08:31Z",
      "version": 1,
      "changeset": 69352863,
      "user": "YEISONRIVEROS",
      "uid": 9308364,
      "tags": {
        "name": "Servientrega Tipacoque",
        "shop": "convenience"
      }
    },
    {
      "type": "node",
      "id": 6438926511,
      "lat": 6.3726445,
      "lon": -72.6420408,
      "timestamp": "2019-05-17T07:11:50Z",
      "version": 3,
      "changeset": 70345183,
      "user": "carciofo",
      "uid": 2533093,
      "tags": {
        "man_made": "water_well",
        "natural": "spring",
        "operator": "Nacimiento de agua el Platano"
      }
    },
    {
      "type": "node",
      "id": 6441551894,
      "lat": 6.3171155,
      "lon": -72.5612871,
      "timestamp": "2019-05-01T21:09:13Z",
      "version": 1,
      "changeset": 69782171,
      "user": "Julieth s",
      "uid": 9615270,
      "tags": {
        "name": "Auto servicio Julieth",
        "shop": "supermarket"
      }
    },
    {
      "type": "node",
      "id": 6480033346,
      "lat": 6.3289039,
      "lon": -72.5853503,
      "timestamp": "2019-05-17T07:06:21Z",
      "version": 1,
      "changeset": 70345052,
      "user": "carciofo",
      "uid": 2533093,
      "tags": {
        "name": "RANCHO Y LICORES VIVIANA",
        "shop": "supermarket"
      }
    },
    {
      "type": "node",
      "id": 6545751502,
      "lat": 6.50066,
      "lon": -72.7387846,
      "timestamp": "2019-06-13T19:23:44Z",
      "version": 1,
      "changeset": 71229927,
      "user": "nidiaa",
      "uid": 10041658,
      "tags": {
        "name": "supermercado moreno",
        "shop": "supermarket"
      }
    },
    {
      "type": "node",
      "id": 6629720840,
      "lat": 6.4994797,
      "lon": -72.7395257,
      "timestamp": "2019-09-19T18:50:01Z",
      "version": 2,
      "changeset": 74691151,
      "user": "pedrito7mt",
      "uid": 10041557,
      "tags": {
        "addr:city": "Covarachía",
        "addr:housenumber": "1-88",
        "addr:postcode": "151040",
        "addr:street": "Carrera 2",
        "name": "el campesino",
        "shop": "convenience"
      }
    },
    {
      "type": "node",
      "id": 6640368785,
      "lat": 6.824591,
      "lon": -73.1104366,
      "timestamp": "2019-07-23T12:18:38Z",
      "version": 1,
      "changeset": 72555062,
      "user": "Dinis Molodcov",
      "uid": 6187249,
      "tags": {
        "name": "Finca de tabaco",
        "name:en": "Tabaco farm",
        "tourism": "wilderness_hut"
      }
    },
    {
      "type": "node",
      "id": 6640368885,
      "lat": 6.8324447,
      "lon": -73.1161084,
      "timestamp": "2019-07-23T12:18:39Z",
      "version": 1,
      "changeset": 72555062,
      "user": "Dinis Molodcov",
      "uid": 6187249,
      "tags": {
        "name": "Finca de tabaco",
        "name:en": "Tabaco farm",
        "tourism": "wilderness_hut"
      }
    },
    {
      "type": "node",
      "id": 7438892192,
      "lat": 6.5093597,
      "lon": -72.7300046,
      "timestamp": "2020-06-18T19:05:27Z",
      "version": 2,
      "changeset": 86839357,
      "user": "el piropaso",
      "uid": 11367647,
      "tags": {
        "name": "pollos el piropaso",
        "opening_hours:covid19": "open",
        "operator": "luis poveda",
        "shop": "supermarket"
      }
    },
    {
      "type": "node",
      "id": 7836323374,
      "lat": 6.7682934,
      "lon": -72.694484,
      "timestamp": "2021-11-02T10:38:30Z",
      "version": 2,
      "changeset": 113276935,
      "user": "borovac",
      "uid": 10222347,
      "tags": {
        "name": "Concepción",
        "place": "town",
        "wikidata": "Q1575628",
        "wikipedia": "en:Concepción, Santander"
      }
    },
    {
      "type": "node",
      "id": 8110086577,
      "lat": 6.5535107,
      "lon": -72.5003939,
      "timestamp": "2021-01-15T00:59:34Z",
      "version": 2,
      "changeset": 97521271,
      "user": "Federico Explorador",
      "uid": 293454,
      "tags": {
        "divipola": "15180",
        "name": "Chiscas",
        "place": "town"
      }
    },
    {
      "type": "node",
      "id": 8110086578,
      "lat": 6.6273516,
      "lon": -72.6260967,
      "timestamp": "2021-11-08T11:49:57Z",
      "version": 2,
      "changeset": 113519118,
      "user": "borovac",
      "uid": 10222347,
      "tags": {
        "divipola": "68152",
        "name": "Carcasí",
        "place": "town",
        "wikidata": "Q1656695",
        "wikipedia": "en:Carcasí"
      }
    },
    {
      "type": "node",
      "id": 8110086579,
      "lat": 6.5759286,
      "lon": -72.6455489,
      "timestamp": "2021-11-04T08:46:47Z",
      "version": 2,
      "changeset": 113360900,
      "user": "PulisakZ",
      "uid": 9026132,
      "tags": {
        "divipola": "68686",
        "name": "San Miguel",
        "place": "town",
        "wikidata": "Q2434034",
        "wikipedia": "en:San Miguel, Santander"
      }
    },
    {
      "type": "node",
      "id": 8110086580,
      "lat": 6.5291798,
      "lon": -72.6982619,
      "timestamp": "2020-11-12T03:48:17Z",
      "version": 1,
      "changeset": 93961713,
      "user": "JLOSM",
      "uid": 4494325,
      "tags": {
        "divipola": "68147",
        "name": "Capitanejo",
        "place": "town"
      }
    },
    {
      "type": "node",
      "id": 8110086581,
      "lat": 6.9897665,
      "lon": -72.9075119,
      "timestamp": "2020-11-12T03:48:17Z",
      "version": 1,
      "changeset": 93961713,
      "user": "JLOSM",
      "uid": 4494325,
      "tags": {
        "divipola": "68705",
        "name": "Santa Bárbara",
        "place": "town"
      }
    },
    {
      "type": "node",
      "id": 8322776441,
      "lat": 6.5746199,
      "lon": -72.4715468,
      "timestamp": "2021-01-15T00:59:34Z",
      "version": 1,
      "changeset": 97521271,
      "user": "Federico Explorador",
      "uid": 293454,
      "tags": {
        "name": "Las Mercedes",
        "place": "village"
      }
    },
    {
      "type": "node",
      "id": 8752985015,
      "lat": 6.9897384,
      "lon": -73.0561801,
      "timestamp": "2021-05-27T01:57:15Z",
      "version": 3,
      "changeset": 105385223,
      "user": "HeKeIsDa",
      "uid": 13349801,
      "tags": {
        "description": "Abarca barrios como: El Trapiche, la tachuela,albania,san jeronimo,la cancha,villa lina, chacarita,bariloche,buenos aires,suratoque (Interior de la Tachuela),la cancha,campoiderve sur  , torres de campoverde, altos de  villa lina",
        "name": "Comuna del Trapiche",
        "place": "village",
        "population": "23000"
      }
    },
    {
      "type": "node",
      "id": 8753234246,
      "lat": 6.8421652,
      "lon": -72.9783782,
      "timestamp": "2022-03-21T04:52:27Z",
      "version": 6,
      "changeset": 118717871,
      "user": "CafetoMH",
      "uid": 6893461,
      "tags": {
        "name": "Umpalá",
        "place": "village"
      }
    },
    {
      "type": "node",
      "id": 8754478749,
      "lat": 6.9131059,
      "lon": -72.941899,
      "timestamp": "2021-05-22T02:08:04Z",
      "version": 1,
      "changeset": 105116393,
      "user": "HeKeIsDa",
      "uid": 13349801,
      "tags": {
        "name": "Corregimiento de Boquerón, Municipio de Umpalá",
        "place": "village",
        "population": "500"
      }
    },
    {
      "type": "node",
      "id": 8754488345,
      "lat": 6.9404029,
      "lon": -72.9237775,
      "timestamp": "2021-05-22T02:11:40Z",
      "version": 1,
      "changeset": 105116436,
      "user": "HeKeIsDa",
      "uid": 13349801,
      "tags": {
        "name": "Caserio de La Tahoma",
        "place": "village",
        "population": "200"
      }
    },
    {
      "type": "node",
      "id": 9276504317,
      "lat": 6.3323404,
      "lon": -72.6833843,
      "timestamp": "2021-11-23T00:51:52Z",
      "version": 1,
      "changeset": 114119186,
      "user": "Mochilão Sabático",
      "uid": 7640196,
      "tags": {
        "name": "Merkar",
        "shop": "supermarket"
      }
    },
    {
      "type": "node",
      "id": 9377060039,
      "lat": 6.4810208,
      "lon": -72.570971,
      "timestamp": "2021-12-29T18:26:43Z",
      "version": 1,
      "changeset": 115532855,
      "user": "AngocA",
      "uid": 89128,
      "tags": {
        "name": "Tienda Nueva",
        "shop": "convenience"
      }
    },
    {
      "type": "node",
      "id": 9377064431,
      "lat": 6.4433593,
      "lon": -72.6028222,
      "timestamp": "2021-12-29T18:28:02Z",
      "version": 1,
      "changeset": 115532897,
      "user": "AngocA",
      "uid": 89128,
      "tags": {
        "name": "Casería El Chapetón",
        "place": "hamlet"
      }
    },
    {
      "type": "node",
      "id": 9416635317,
      "lat": 6.9850631,
      "lon": -73.0520087,
      "timestamp": "2022-02-06T05:11:22Z",
      "version": 2,
      "changeset": 117067226,
      "user": "AngocA",
      "uid": 89128,
      "tags": {
        "addr:street": "Carrera 5",
        "name": "Tienda D1",
        "opening_hours": "Mo-Fr 06:00-20:00; Sa 06:00-21:00; Su 06:00-19:00",
        "shop": "convenience"
      }
    },
    {
      "type": "node",
      "id": 9432344520,
      "lat": 6.6047215,
      "lon": -73.0667814,
      "timestamp": "2022-01-20T00:25:19Z",
      "version": 1,
      "changeset": 116363271,
      "user": "D Monk",
      "uid": 14670514,
      "tags": {
        "addr:street": "Carrera 5",
        "name": "Mini super de barrio",
        "shop": "supermarket"
      }
    },
    {
      "type": "node",
      "id": 9436491617,
      "lat": 6.6068589,
      "lon": -73.0680037,
      "timestamp": "2022-01-21T10:40:50Z",
      "version": 1,
      "changeset": 116424427,
      "user": "D Monk",
      "uid": 14670514,
      "tags": {
        "addr:housenumber": "7-03",
        "addr:street": "Calle 9",
        "name": "Supermercado Carlos Meza",
        "opening_hours": "Mo-Su 07:00-19:00",
        "shop": "supermarket"
      }
    },
    {
      "type": "node",
      "id": 9438201117,
      "lat": 6.6060108,
      "lon": -73.0648374,
      "timestamp": "2022-01-21T22:28:25Z",
      "version": 1,
      "changeset": 116449834,
      "user": "D Monk",
      "uid": 14670514,
      "tags": {
        "name": "Cabañas Glamping Eco-dreamers",
        "phone": "+573016140400;+573015129602",
        "tourism": "alpine_hut"
      }
    },
    {
      "type": "node",
      "id": 9440634718,
      "lat": 6.5757694,
      "lon": -73.1048536,
      "timestamp": "2022-01-22T21:34:40Z",
      "version": 1,
      "changeset": 116481430,
      "user": "D Monk",
      "uid": 14670514,
      "tags": {
        "addr:street": "Troncal Central",
        "name": "Casa campestre",
        "phone": "+573138007062;+573145702663",
        "shop": "convenience"
      }
    },
    {
      "type": "node",
      "id": 9440635017,
      "lat": 6.5560566,
      "lon": -73.1235651,
      "timestamp": "2022-01-22T21:34:46Z",
      "version": 1,
      "changeset": 116481430,
      "user": "D Monk",
      "uid": 14670514,
      "tags": {
        "addr:housenumber": "2A",
        "addr:street": "Transversal 4",
        "name": "Tienda Doña Olinda",
        "shop": "convenience"
      }
    },
    {
      "type": "node",
      "id": 9442794172,
      "lat": 6.3289722,
      "lon": -72.5822778,
      "timestamp": "2022-04-14T00:56:08Z",
      "version": 2,
      "changeset": 119690003,
      "user": "JuanMelo",
      "uid": 12906384,
      "tags": {
        "condition": "Activa",
        "description": "Agrometeorológica",
        "display:analog": "yes",
        "man_made": "monitoring_station",
        "monitoring:weather": "yes",
        "name": "Boavita",
        "operator": "Instituto De Hidrologia Meteorologia Y Estudios Ambientales",
        "place": "village",
        "recording:manually": "yes",
        "ref": "24035330",
        "website": "http://www.boavita-boyaca.gov.co/"
      }
    },
    {
      "type": "node",
      "id": 9659220564,
      "lat": 6.328772,
      "lon": -72.585467,
      "timestamp": "2022-04-11T18:40:46Z",
      "version": 1,
      "changeset": 119591602,
      "user": "JuanMelo",
      "uid": 12906384,
      "tags": {
        "name": "Supervíveres GalCor",
        "shop": "supermarket"
      }
    },
    {
      "type": "node",
      "id": 9718581287,
      "lat": 6.500093,
      "lon": -72.7391217,
      "timestamp": "2022-05-05T17:00:33Z",
      "version": 1,
      "changeset": 120598285,
      "user": "javiersneider",
      "uid": 510843,
      "tags": {
        "name": "Merca centro",
        "shop": "supermarket"
      }
    },
    {
      "type": "way",
      "id": 232899619,
      "timestamp": "2013-08-09T15:38:02Z",
      "version": 1,
      "changeset": 17280730,
      "user": "fredw",
      "uid": 5269,
      "center": {
        "lat": 6.4669857,
        "lon": -72.7777454
      },
      "nodes": [],
      "tags": {
        "name": "EL Afiladero",
        "place": "hamlet",
        "source": "Bing"
      }
    },
    {
      "type": "way",
      "id": 232899620,
      "timestamp": "2013-08-09T15:38:03Z",
      "version": 1,
      "changeset": 17280730,
      "user": "fredw",
      "uid": 5269,
      "center": {
        "lat": 6.4699884,
        "lon": -72.7720664
      },
      "nodes": [],
      "tags": {
        "name": "Padua",
        "place": "hamlet",
        "source": "Bing"
      }
    },
    {
      "type": "way",
      "id": 238000250,
      "timestamp": "2021-05-27T01:04:41Z",
      "version": 3,
      "changeset": 105384473,
      "user": "HeKeIsDa",
      "uid": 13349801,
      "center": {
        "lat": 7.0125661,
        "lon": -73.0600039
      },
      "nodes": [],
      "tags": {
        "name": "Corregimiento de Tablanca",
        "place": "village",
        "residential": "country"
      }
    },
    {
      "type": "way",
      "id": 292586500,
      "timestamp": "2021-05-22T03:14:17Z",
      "version": 4,
      "changeset": 105116958,
      "user": "HeKeIsDa",
      "uid": 13349801,
      "center": {
        "lat": 6.8251961,
        "lon": -72.9998435
      },
      "nodes": [],
      "tags": {
        "landuse": "residential",
        "name": "Chicamocha Real",
        "place": "hamlet"
      }
    },
    {
      "type": "way",
      "id": 402501672,
      "timestamp": "2016-03-08T20:29:21Z",
      "version": 1,
      "changeset": 37694871,
      "user": "bastien59360",
      "uid": 273304,
      "center": {
        "lat": 6.914648,
        "lon": -73.0684332
      },
      "nodes": [],
      "tags": {
        "name": "Camping Salto del Mico",
        "tourism": "camp_site"
      }
    },
    {
      "type": "way",
      "id": 583372395,
      "timestamp": "2018-04-24T22:57:59Z",
      "version": 1,
      "changeset": 58391682,
      "user": "fredw",
      "uid": 5269,
      "center": {
        "lat": 6.5863518,
        "lon": -72.9639736
      },
      "nodes": [],
      "tags": {
        "comment": "convertido a OSM usando http://GaleNUx.com",
        "divipola": "68464",
        "fixme": "Revisar: este punto fue creado por importación directa",
        "is_in": "Colombia; Santander ; Mogotes",
        "landuse": "residential",
        "name": "Pitiguao",
        "note": "POBLACION, POBLACION, 5dd803766beaada8f5c903163bdfb0f6",
        "place": "village",
        "source": "Bing"
      }
    },
    {
      "type": "way",
      "id": 682172764,
      "timestamp": "2022-01-20T02:18:05Z",
      "version": 3,
      "changeset": 116364562,
      "user": "D Monk",
      "uid": 14670514,
      "center": {
        "lat": 6.6068652,
        "lon": -73.0684561
      },
      "nodes": [],
      "tags": {
        "addr:city": "Curití",
        "addr:housenumber": "8-44",
        "addr:street": "Calle 9",
        "building": "yes",
        "name": "Tienda Justo y Bueno",
        "opening_hours": "Mo-Su 07:00-21:00",
        "operator": "Publico",
        "shop": "supermarket"
      }
    },
    {
      "type": "way",
      "id": 682176842,
      "timestamp": "2022-01-03T20:39:50Z",
      "version": 2,
      "changeset": 115727806,
      "user": "Lolj",
      "uid": 14546644,
      "center": {
        "lat": 6.3435353,
        "lon": -72.8166846
      },
      "nodes": [],
      "tags": {
        "name": "Onzaga",
        "place": "hamlet",
        "population": "1220"
      }
    },
    {
      "type": "way",
      "id": 682709422,
      "timestamp": "2019-04-09T15:17:35Z",
      "version": 1,
      "changeset": 69050451,
      "user": "esmac",
      "uid": 9556838,
      "center": {
        "lat": 6.5131909,
        "lon": -72.5560546
      },
      "nodes": [],
      "tags": {
        "name": "Centro Poblado La Bricha",
        "place": "village"
      }
    },
    {
      "type": "way",
      "id": 684619148,
      "timestamp": "2019-04-18T16:12:04Z",
      "version": 1,
      "changeset": 69350961,
      "user": "YEISONRIVEROS",
      "uid": 9308364,
      "center": {
        "lat": 6.4166613,
        "lon": -72.6917399
      },
      "nodes": [],
      "tags": {
        "building": "yes",
        "name": "\"Tienda Millan\"",
        "shop": "convenience"
      }
    },
    {
      "type": "way",
      "id": 684628418,
      "timestamp": "2019-04-18T17:10:49Z",
      "version": 1,
      "changeset": 69352948,
      "user": "YEISONRIVEROS",
      "uid": 9308364,
      "center": {
        "lat": 6.420683,
        "lon": -72.6910624
      },
      "nodes": [],
      "tags": {
        "building": "yes",
        "name": "Tienda Multiservicios",
        "shop": "convenience"
      }
    },
    {
      "type": "way",
      "id": 686929716,
      "timestamp": "2022-04-11T18:41:11Z",
      "version": 3,
      "changeset": 119591602,
      "user": "JuanMelo",
      "uid": 12906384,
      "center": {
        "lat": 6.32926,
        "lon": -72.5841631
      },
      "nodes": [],
      "tags": {
        "building": "yes",
        "name": "Donde los precios bajos",
        "shop": "supermarket"
      }
    },
    {
      "type": "way",
      "id": 945654774,
      "timestamp": "2021-05-22T02:16:08Z",
      "version": 1,
      "changeset": 105116474,
      "user": "HeKeIsDa",
      "uid": 13349801,
      "center": {
        "lat": 6.9372724,
        "lon": -72.922227
      },
      "nodes": [],
      "tags": {
        "name": "Corregimiento de Labradas, Múmicipio de Umpalá",
        "place": "village",
        "population": "500"
      }
    },
    {
      "type": "way",
      "id": 945655406,
      "timestamp": "2021-05-22T02:23:54Z",
      "version": 1,
      "changeset": 105116544,
      "user": "HeKeIsDa",
      "uid": 13349801,
      "center": {
        "lat": 6.9413099,
        "lon": -72.924347
      },
      "nodes": [],
      "tags": {
        "name": "Caserio La Tahoma, Municipio de Umpalá",
        "place": "village",
        "population": "250"
      }
    },
    {
      "type": "way",
      "id": 945655430,
      "timestamp": "2021-05-22T02:26:40Z",
      "version": 1,
      "changeset": 105116565,
      "user": "HeKeIsDa",
      "uid": 13349801,
      "center": {
        "lat": 6.9031863,
        "lon": -72.9737449
      },
      "nodes": [],
      "tags": {
        "name": "Caserio Alto de Vacas, Municipio de Umpalá",
        "place": "village",
        "population": "400"
      }
    },
    {
      "type": "way",
      "id": 947536297,
      "timestamp": "2021-05-27T00:05:39Z",
      "version": 1,
      "changeset": 105383660,
      "user": "HeKeIsDa",
      "uid": 13349801,
      "center": {
        "lat": 6.7451646,
        "lon": -73.0058942
      },
      "nodes": [],
      "tags": {
        "name": "Corregimiento de Chiflas",
        "place": "village"
      }
    },
    {
      "type": "way",
      "id": 1018361876,
      "timestamp": "2022-01-04T20:21:01Z",
      "version": 1,
      "changeset": 115770280,
      "user": "Lolj",
      "uid": 14546644,
      "center": {
        "lat": 6.7324377,
        "lon": -73.0960685
      },
      "nodes": [],
      "tags": {
        "name": "Jordan Sube",
        "place": "hamlet",
        "population": "58"
      }
    }
  ]
}