{
  "osm3s": {
    "timestamp_osm_date": "2022-08-26T23:59:59Z",
    "timestamp_osm_base": "2022-08-27T04:53:35Z",
    "copyright": "The data included in this document is from www.openstreetmap.org. The data is made available under ODbL."
  },
  "elements": [
    {
      "type": "node",
      "id": 31024559,
      "lat": 50.0244558,
      "lon": -114.921826,
      "timestamp": "2021-09-02T21:58:59Z",
      "version": 6,
      "changeset": 110641459,
      "user": "joel56dt",
      "uid": 3794090,
      "tags": {
        "name": "Elkford",
        "place": "town",
        "wikidata": "Q338360",
        "wikipedia": "en:Elkford"
      }
    },
    {
      "type": "node",
      "id": 1643431812,
      "lat": 50.0252013,
      "lon": -114.9179184,
      "timestamp": "2012-02-24T20:06:45Z",
      "version": 2,
      "changeset": 10781440,
      "user": "7rxc",
      "uid": 609353,
      "tags": {
        "tourism": "camp_site"
      }
    },
    {
      "type": "node",
      "id": 2353021217,
      "lat": 50.0240002,
      "lon": -114.9201351,
      "timestamp": "2015-10-19T18:02:39Z",
      "version": 3,
      "changeset": 34740112,
      "user": "hpotter",
      "uid": 3320729,
      "tags": {
        "name": "Kootenay Market",
        "shop": "supermarket"
      }
    },
    {
      "type": "node",
      "id": 3385463635,
      "lat": 50.1844514,
      "lon": -115.2801394,
      "timestamp": "2015-03-06T04:21:31Z",
      "version": 1,
      "changeset": 29281893,
      "user": "alester",
      "uid": 307202,
      "tags": {
        "tourism": "camp_site"
      }
    },
    {
      "type": "node",
      "id": 3385463636,
      "lat": 50.1847016,
      "lon": -115.2837872,
      "timestamp": "2016-08-24T20:52:57Z",
      "version": 2,
      "changeset": 41673348,
      "user": "Alice  Kuzmina",
      "uid": 4461749,
      "tags": {
        "name:ru": "замечательное место для кэмпа",
        "tourism": "camp_site"
      }
    },
    {
      "type": "node",
      "id": 3393377697,
      "lat": 50.2588164,
      "lon": -114.9735348,
      "timestamp": "2015-03-11T05:20:11Z",
      "version": 1,
      "changeset": 29397566,
      "user": "alester",
      "uid": 307202,
      "tags": {
        "tourism": "camp_site"
      }
    },
    {
      "type": "node",
      "id": 3396293373,
      "lat": 50.2776819,
      "lon": -115.2005745,
      "timestamp": "2015-03-13T02:55:38Z",
      "version": 1,
      "changeset": 29440231,
      "user": "alester",
      "uid": 307202,
      "tags": {
        "tourism": "camp_site"
      }
    },
    {
      "type": "node",
      "id": 4363428036,
      "lat": 49.9693787,
      "lon": -114.8984122,
      "timestamp": "2016-08-23T19:20:34Z",
      "version": 1,
      "changeset": 41645889,
      "user": "Alice  Kuzmina",
      "uid": 4461749,
      "tags": {
        "name:en": "Fording Mountain Sulphur Warm Springs",
        "name:ru": "тёплые источники",
        "natural": "spring"
      }
    },
    {
      "type": "node",
      "id": 4639110056,
      "lat": 49.9218426,
      "lon": -114.6878342,
      "timestamp": "2019-12-12T20:45:35Z",
      "version": 2,
      "changeset": 78337600,
      "user": "Viajero Perdido",
      "uid": 2365330,
      "tags": {
        "name": "North Fork Pass",
        "natural": "saddle",
        "source": "NRCan-CanVec-10.0"
      }
    },
    {
      "type": "node",
      "id": 4639110059,
      "lat": 49.9677979,
      "lon": -114.671961,
      "timestamp": "2019-12-12T20:45:35Z",
      "version": 2,
      "changeset": 78337600,
      "user": "Viajero Perdido",
      "uid": 2365330,
      "tags": {
        "name": "Tornado Pass",
        "natural": "saddle",
        "source": "NRCan-CanVec-10.0"
      }
    },
    {
      "type": "node",
      "id": 5691668652,
      "lat": 50.1991393,
      "lon": -114.9382739,
      "timestamp": "2018-06-14T20:48:12Z",
      "version": 1,
      "changeset": 59859061,
      "user": "Alan Trick",
      "uid": 1722904,
      "tags": {
        "amenity": "shelter",
        "name": "Greenhill Peak Lookout"
      }
    },
    {
      "type": "node",
      "id": 9248777470,
      "lat": 49.8895317,
      "lon": -115.1381403,
      "timestamp": "2021-11-13T18:22:40Z",
      "version": 1,
      "changeset": 113740825,
      "user": "MuddyHikers",
      "uid": 577328,
      "tags": {
        "capacity": "2",
        "caravans": "yes",
        "name": "Norboe Creek Recreation Site",
        "tents": "yes",
        "tourism": "camp_site"
      }
    },
    {
      "type": "node",
      "id": 9248821476,
      "lat": 50.1371641,
      "lon": -115.1025099,
      "timestamp": "2021-11-13T18:10:27Z",
      "version": 1,
      "changeset": 113740487,
      "user": "MuddyHikers",
      "uid": 577328,
      "tags": {
        "capacity": "3",
        "caravans": "yes",
        "name": "Munroe Lake Recreation Site",
        "tents": "yes",
        "tourism": "camp_site"
      }
    },
    {
      "type": "node",
      "id": 9248836133,
      "lat": 50.104561,
      "lon": -114.9390775,
      "timestamp": "2021-11-13T18:17:39Z",
      "version": 1,
      "changeset": 113740717,
      "user": "MuddyHikers",
      "uid": 577328,
      "tags": {
        "capacity": "3",
        "caravans": "yes",
        "name": "Krivensky Farm Recreation Site",
        "tents": "yes",
        "tourism": "camp_site"
      }
    },
    {
      "type": "way",
      "id": 168088860,
      "timestamp": "2012-06-19T04:04:46Z",
      "version": 1,
      "changeset": 11943817,
      "user": "alester_imports",
      "uid": 699288,
      "center": {
        "lat": 50.187369,
        "lon": -114.9858928
      },
      "nodes": [],
      "tags": {
        "name": "Blue Lake Recreation Site",
        "ref:FFID": "REC2037",
        "source": "DataBC - Recreation Polygon",
        "tourism": "camp_site"
      }
    },
    {
      "type": "way",
      "id": 542995271,
      "timestamp": "2017-11-26T21:11:41Z",
      "version": 1,
      "changeset": 54105636,
      "user": "Rps333",
      "uid": 596047,
      "center": {
        "lat": 50.0219955,
        "lon": -114.9173516
      },
      "nodes": [],
      "tags": {
        "addr:city": "Elkford",
        "addr:housenumber": "60",
        "addr:postcode": "V0B 1H0",
        "addr:street": "Alpine Way",
        "amenity": "fuel",
        "building": "commercial",
        "name": "Fas Gas",
        "phone": "+1-250-865-2415",
        "shop": "convenience"
      }
    }
  ]
}