{
  "osm3s": {
    "timestamp_osm_date": "2021-09-08T23:59:59Z",
    "timestamp_osm_base": "2021-09-09T04:06:46Z",
    "copyright": "The data included in this document is from www.openstreetmap.org. The data is made available under ODbL."
  },
  "elements": [
    {
      "type": "node",
      "id": 32316581,
      "lat": 28.027022,
      "lon": -16.5490737,
      "timestamp": "2020-03-26T10:16:21Z",
      "version": 8,
      "changeset": 82654116,
      "user": "Emilio Gomez",
      "uid": 2904,
      "tags": {
        "ele": "171",
        "name": "Montaña Roja",
        "natural": "peak",
        "source": "yahoo; survey",
        "tourism": "viewpoint",
        "wheelchair": "no",
        "wikidata": "Q23979792"
      }
    },
    {
      "type": "node",
      "id": 32317282,
      "lat": 28.0526298,
      "lon": -16.717,
      "timestamp": "2019-07-16T22:30:54Z",
      "version": 9,
      "changeset": 72324990,
      "user": "Juan_Carlos_G_F-imports",
      "uid": 2802925,
      "tags": {
        "ele": "43",
        "name": "Los Cristianos",
        "place": "town",
        "population": "19383",
        "population:date": "2009",
        "ref:ine": "38006000500",
        "source": "Instituto Geográfico Nacional",
        "source:date": "2011-06",
        "source:ele": "MDT5",
        "source:file": "http://centrodedescargas.cnig.es/CentroDescargas/equipamiento/BD_Municipios-Entidades.zip",
        "source:name": "Nomenclátor Geográfico de Municipios y Entidades de Población",
        "wikidata": "Q2720320",
        "wikipedia": "es:Los Cristianos"
      }
    },
    {
      "type": "node",
      "id": 32317529,
      "lat": 28.1590955,
      "lon": -16.6365089,
      "timestamp": "2019-07-16T22:30:54Z",
      "version": 13,
      "changeset": 72324990,
      "user": "Juan_Carlos_G_F-imports",
      "uid": 2802925,
      "tags": {
        "admin_level": "8",
        "capital": "8",
        "ele": "1390",
        "name": "Vilaflor de Chasna",
        "name:es": "Vilaflor",
        "name:ru": "Вилафлор",
        "name:uk": "Вілафлор",
        "name:zh": "比拉夫洛尔",
        "place": "village",
        "population": "1069",
        "population:date": "2009",
        "ref:ine": "38052000400",
        "source": "Instituto Geográfico Nacional",
        "source:date": "2011-06",
        "source:ele": "MDT5",
        "source:file": "http://centrodedescargas.cnig.es/CentroDescargas/equipamiento/BD_Municipios-Entidades.zip",
        "source:name": "Nomenclátor Geográfico de Municipios y Entidades de Población",
        "wikidata": "Q23977910",
        "wikipedia": "es:Vilaflor (capital municipal)"
      }
    },
    {
      "type": "node",
      "id": 241704611,
      "lat": 28.2101368,
      "lon": -16.7787271,
      "timestamp": "2019-07-16T22:30:54Z",
      "version": 10,
      "changeset": 72324990,
      "user": "Juan_Carlos_G_F-imports",
      "uid": 2802925,
      "tags": {
        "admin_level": "8",
        "capital": "8",
        "ele": "551",
        "heritage": "3",
        "heritage:operator": "Gobierno de Canarias",
        "name": "Guía de Isora",
        "place": "town",
        "population": "6976",
        "population:date": "2009",
        "ref:ine": "38019000800",
        "source": "Instituto Geográfico Nacional",
        "source:date": "2011-06",
        "source:ele": "MDT5",
        "source:file": "http://centrodedescargas.cnig.es/CentroDescargas/equipamiento/BD_Municipios-Entidades.zip",
        "source:name": "Nomenclátor Geográfico de Municipios y Entidades de Población",
        "wikidata": "Q24014655",
        "wikipedia": "es:Guía de Isora (capital municipal)"
      }
    },
    {
      "type": "node",
      "id": 262205937,
      "lat": 28.1219416,
      "lon": -16.7241893,
      "timestamp": "2019-07-16T22:30:54Z",
      "version": 14,
      "changeset": 72324990,
      "user": "Juan_Carlos_G_F-imports",
      "uid": 2802925,
      "tags": {
        "admin_level": "8",
        "capital": "8",
        "ele": "251",
        "name": "Adeje",
        "name:uk": "Адехе",
        "name:zh": "阿德赫",
        "place": "town",
        "population": "15391",
        "population:date": "2009",
        "ref:ine": "38001000100",
        "source": "Instituto Geográfico Nacional",
        "source:date": "2011-06",
        "source:ele": "MDT5",
        "source:file": "http://centrodedescargas.cnig.es/CentroDescargas/equipamiento/BD_Municipios-Entidades.zip",
        "source:name": "Nomenclátor Geográfico de Municipios y Entidades de Población",
        "wikidata": "Q353618",
        "wikipedia": "es:Adeje (casco)"
      }
    },
    {
      "type": "node",
      "id": 263716148,
      "lat": 28.2957363,
      "lon": -16.8144779,
      "timestamp": "2019-07-16T22:30:54Z",
      "version": 8,
      "changeset": 72324990,
      "user": "Juan_Carlos_G_F-imports",
      "uid": 2802925,
      "tags": {
        "admin_level": "8",
        "ele": "938",
        "name": "Santiago del Teide",
        "name:ru": "Сантъяго-дель-Тейде",
        "name:uk": "Сантьяго-дель-Тейде",
        "name:zh": "桑蒂亚戈德尔泰德",
        "place": "town",
        "population": "428",
        "population:date": "2014",
        "ref:ine": "38040000600",
        "source": "Instituto Geográfico Nacional",
        "source:date": "2011-06",
        "source:ele": "MDT5",
        "source:file": "http://centrodedescargas.cnig.es/CentroDescargas/equipamiento/BD_Municipios-Entidades.zip",
        "source:name": "Nomenclátor Geográfico de Municipios y Entidades de Población"
      }
    },
    {
      "type": "node",
      "id": 263739787,
      "lat": 28.1221408,
      "lon": -16.5766728,
      "timestamp": "2019-07-16T22:30:54Z",
      "version": 11,
      "changeset": 72324990,
      "user": "Juan_Carlos_G_F-imports",
      "uid": 2802925,
      "tags": {
        "admin_level": "8",
        "capital": "8",
        "ele": "647",
        "name": "Granadilla de Abona",
        "place": "town",
        "population": "5912",
        "population:date": "2009",
        "ref:ine": "38017001200",
        "source": "Instituto Geográfico Nacional",
        "source:date": "2011-06",
        "source:ele": "MDT5",
        "source:file": "http://centrodedescargas.cnig.es/CentroDescargas/equipamiento/BD_Municipios-Entidades.zip",
        "source:name": "Nomenclátor Geográfico de Municipios y Entidades de Población",
        "wikidata": "Q24014657",
        "wikipedia": "es:Granadilla de Abona (capital municipal)"
      }
    },
    {
      "type": "node",
      "id": 263740181,
      "lat": 28.0992051,
      "lon": -16.6167914,
      "timestamp": "2019-07-16T22:30:54Z",
      "version": 6,
      "changeset": 72324990,
      "user": "Juan_Carlos_G_F-imports",
      "uid": 2802925,
      "tags": {
        "admin_level": "8",
        "capital": "8",
        "ele": "623",
        "loc_name": "San Miguel",
        "name": "San Miguel de Abona",
        "place": "town",
        "population": "2562",
        "population:date": "2009",
        "ref:ine": "38035000500",
        "source": "Instituto Geográfico Nacional",
        "source:date": "2011-06",
        "source:ele": "MDT5",
        "source:file": "http://centrodedescargas.cnig.es/CentroDescargas/equipamiento/BD_Municipios-Entidades.zip",
        "source:name": "Nomenclátor Geográfico de Municipios y Entidades de Población"
      }
    },
    {
      "type": "node",
      "id": 264014008,
      "lat": 28.1674562,
      "lon": -16.4297623,
      "timestamp": "2019-07-16T22:30:54Z",
      "version": 6,
      "changeset": 72324990,
      "user": "Juan_Carlos_G_F-imports",
      "uid": 2802925,
      "tags": {
        "name": "Urbanización Casablanca",
        "place": "hamlet"
      }
    },
    {
      "type": "node",
      "id": 277914646,
      "lat": 28.1460047,
      "lon": -16.5472767,
      "timestamp": "2017-09-11T04:02:27Z",
      "version": 7,
      "changeset": 51925709,
      "user": "nyuriks",
      "uid": 339581,
      "tags": {
        "ele": "670",
        "name": "Las Vegas",
        "place": "hamlet",
        "wikidata": "Q5970805",
        "wikipedia": "es:Las Vegas (Granadilla de Abona)"
      }
    },
    {
      "type": "node",
      "id": 282718113,
      "lat": 28.1348676,
      "lon": -16.6899543,
      "timestamp": "2019-07-16T22:30:54Z",
      "version": 4,
      "changeset": 72324990,
      "user": "Juan_Carlos_G_F-imports",
      "uid": 2802925,
      "tags": {
        "name": "Ifonche",
        "place": "hamlet",
        "population": "33",
        "population:date": "2009",
        "ref:ine": "38001001000",
        "source": "Instituto Geográfico Nacional",
        "source:date": "2011-06",
        "source:file": "http://centrodedescargas.cnig.es/CentroDescargas/equipamiento/BD_Municipios-Entidades.zip",
        "source:name": "Nomenclátor Geográfico de Municipios y Entidades de Población"
      }
    },
    {
      "type": "node",
      "id": 296391176,
      "lat": 28.2169934,
      "lon": -16.6122932,
      "timestamp": "2017-09-11T04:02:28Z",
      "version": 8,
      "changeset": 51925709,
      "user": "nyuriks",
      "uid": 339581,
      "tags": {
        "ele": "2718",
        "name": "Guajara",
        "natural": "peak",
        "wikidata": "Q5494685",
        "wikipedia": "es:Alto de Guajara"
      }
    },
    {
      "type": "node",
      "id": 298559548,
      "lat": 28.0905629,
      "lon": -16.7343516,
      "timestamp": "2018-03-09T11:42:48Z",
      "version": 6,
      "changeset": 57029748,
      "user": "kuloe",
      "uid": 7342010,
      "tags": {
        "name": "Hiper Dino Express",
        "opening_hours": "Mo-Su 09:00-22:00",
        "shop": "supermarket",
        "website": "http://www.hiperdino.es/"
      }
    },
    {
      "type": "node",
      "id": 312544364,
      "lat": 28.0627347,
      "lon": -16.7265686,
      "timestamp": "2008-11-16T17:01:40Z",
      "version": 1,
      "changeset": 756492,
      "user": "ivansanchez",
      "uid": 5265,
      "tags": {
        "name": "Cost Cutter",
        "shop": "convenience"
      }
    },
    {
      "type": "node",
      "id": 312547633,
      "lat": 28.0623551,
      "lon": -16.7301013,
      "timestamp": "2014-10-26T00:11:37Z",
      "version": 2,
      "changeset": 26332543,
      "user": "EinKonstanzer",
      "uid": 128720,
      "tags": {
        "name": "Wilson",
        "shop": "convenience"
      }
    },
    {
      "type": "node",
      "id": 312547641,
      "lat": 28.0624041,
      "lon": -16.7303878,
      "timestamp": "2008-11-16T17:13:55Z",
      "version": 1,
      "changeset": 756492,
      "user": "ivansanchez",
      "uid": 5265,
      "tags": {
        "name": "Miguel Ángel",
        "shop": "supermarket"
      }
    },
    {
      "type": "node",
      "id": 312547819,
      "lat": 28.0632273,
      "lon": -16.7305912,
      "timestamp": "2012-05-09T15:54:46Z",
      "version": 2,
      "changeset": 11550421,
      "user": "tiger",
      "uid": 338866,
      "tags": {
        "name": "Bazar las Américas",
        "shop": "convenience"
      }
    },
    {
      "type": "node",
      "id": 312550135,
      "lat": 28.0642715,
      "lon": -16.7307119,
      "timestamp": "2014-10-26T00:11:37Z",
      "version": 2,
      "changeset": 26332543,
      "user": "EinKonstanzer",
      "uid": 128720,
      "tags": {
        "name": "Vane Vinia",
        "shop": "convenience"
      }
    },
    {
      "type": "node",
      "id": 312550170,
      "lat": 28.0640852,
      "lon": -16.7309362,
      "timestamp": "2008-11-16T17:23:39Z",
      "version": 1,
      "changeset": 756492,
      "user": "ivansanchez",
      "uid": 5265,
      "tags": {
        "name": "Sol",
        "shop": "supermarket"
      }
    },
    {
      "type": "node",
      "id": 312552893,
      "lat": 28.0653427,
      "lon": -16.7305036,
      "timestamp": "2019-10-02T19:40:32Z",
      "version": 3,
      "changeset": 75200442,
      "user": "mor",
      "uid": 220932,
      "tags": {
        "name": "Dialprix",
        "old_name": "Beach Bar",
        "shop": "supermarket"
      }
    },
    {
      "type": "node",
      "id": 312555465,
      "lat": 28.0659061,
      "lon": -16.729011,
      "timestamp": "2014-10-26T00:11:36Z",
      "version": 2,
      "changeset": 26332543,
      "user": "EinKonstanzer",
      "uid": 128720,
      "tags": {
        "name": "Gon-Gon",
        "shop": "convenience"
      }
    },
    {
      "type": "node",
      "id": 312555520,
      "lat": 28.0658149,
      "lon": -16.7285258,
      "timestamp": "2008-11-16T17:50:12Z",
      "version": 1,
      "changeset": 756492,
      "user": "ivansanchez",
      "uid": 5265,
      "tags": {
        "name": "Playazul",
        "shop": "convenience"
      }
    },
    {
      "type": "node",
      "id": 312555528,
      "lat": 28.0657241,
      "lon": -16.7280268,
      "timestamp": "2014-10-26T00:11:35Z",
      "version": 2,
      "changeset": 26332543,
      "user": "EinKonstanzer",
      "uid": 128720,
      "tags": {
        "name": "Bazar Gacha Sáhara",
        "shop": "convenience"
      }
    },
    {
      "type": "node",
      "id": 313038499,
      "lat": 28.0514822,
      "lon": -16.55307,
      "timestamp": "2017-09-11T04:02:30Z",
      "version": 7,
      "changeset": 51925709,
      "user": "nyuriks",
      "uid": 339581,
      "tags": {
        "amenity": "place_of_worship",
        "denomination": "catholic",
        "name": "Cueva del Santo Hermano Pedro",
        "natural": "cave_entrance",
        "religion": "christian",
        "wheelchair": "limited",
        "wikidata": "Q3699208",
        "wikipedia": "es:Cueva del Santo Hermano Pedro"
      }
    },
    {
      "type": "node",
      "id": 313358351,
      "lat": 28.0996248,
      "lon": -16.6809103,
      "timestamp": "2019-07-16T22:30:54Z",
      "version": 10,
      "changeset": 72324990,
      "user": "Juan_Carlos_G_F-imports",
      "uid": 2802925,
      "tags": {
        "admin_level": "8",
        "capital": "8",
        "ele": "621",
        "heritage": "3",
        "heritage:operator": "Gobierno de Canarias",
        "name": "Arona",
        "place": "town",
        "population": "2737",
        "population:date": "2009",
        "ref:ine": "38006000100",
        "source": "Instituto Geográfico Nacional",
        "source:date": "2011-06",
        "source:ele": "MDT5",
        "source:file": "http://centrodedescargas.cnig.es/CentroDescargas/equipamiento/BD_Municipios-Entidades.zip",
        "source:name": "Nomenclátor Geográfico de Municipios y Entidades de Población",
        "wikidata": "Q5705046",
        "wikipedia": "es:Arona (capital municipal)"
      }
    },
    {
      "type": "node",
      "id": 361345383,
      "lat": 28.2962965,
      "lon": -16.3744906,
      "timestamp": "2020-03-26T10:16:58Z",
      "version": 7,
      "changeset": 82654116,
      "user": "Emilio Gomez",
      "uid": 2904,
      "tags": {
        "ele": "5",
        "name": "Puertito de Güímar",
        "place": "village",
        "population": "3819",
        "population:date": "2017",
        "ref:ine": "38020001000",
        "source": "Instituto Geográfico Nacional",
        "source:date": "2011-06",
        "source:ele": "MDT5",
        "source:file": "http://centrodedescargas.cnig.es/CentroDescargas/equipamiento/BD_Municipios-Entidades.zip",
        "source:name": "Nomenclátor Geográfico de Municipios y Entidades de Población",
        "wikidata": "Q65552686"
      }
    },
    {
      "type": "node",
      "id": 425703197,
      "lat": 28.2639235,
      "lon": -16.6646799,
      "timestamp": "2019-10-17T20:05:43Z",
      "version": 10,
      "changeset": 75860951,
      "user": "dr_grijando",
      "uid": 548834,
      "tags": {
        "alt_name": "Montaña Chahorra",
        "ele": "3134",
        "name": "Pico Viejo",
        "name:ru": "Пико-Вьехо",
        "name:uk": "Піко В'єхо",
        "natural": "volcano",
        "wikidata": "Q2092383",
        "wikipedia": "es:Pico Viejo"
      }
    },
    {
      "type": "node",
      "id": 426898028,
      "lat": 28.0873993,
      "lon": -16.725455,
      "timestamp": "2020-01-19T18:48:58Z",
      "version": 5,
      "changeset": 79762581,
      "user": "Jonas Hansen",
      "uid": 30930,
      "tags": {
        "name": "HiperDino",
        "phone": "+34 922 71 56 123",
        "shop": "supermarket",
        "website": "https://www.hiperdino.es/"
      }
    },
    {
      "type": "node",
      "id": 426907407,
      "lat": 28.2722875,
      "lon": -16.7355512,
      "timestamp": "2011-04-25T19:52:46Z",
      "version": 2,
      "changeset": 7968116,
      "user": "Javier Sanchez",
      "uid": 47882,
      "tags": {
        "ele": "1759.0847168",
        "name": "Cueva de Samara",
        "natural": "cave_entrance"
      }
    },
    {
      "type": "node",
      "id": 512655517,
      "lat": 28.2689588,
      "lon": -16.6140374,
      "timestamp": "2021-08-10T09:15:38Z",
      "version": 12,
      "changeset": 109446636,
      "user": "Imain",
      "uid": 3498572,
      "tags": {
        "ele": "2748",
        "name": "Montaña Blanca",
        "natural": "peak",
        "wheelchair": "no",
        "wikidata": "Q6022239",
        "wikipedia": "es:Montaña Blanca"
      }
    },
    {
      "type": "node",
      "id": 512676509,
      "lat": 28.1435765,
      "lon": -16.5229901,
      "timestamp": "2019-07-16T22:30:54Z",
      "version": 7,
      "changeset": 72324990,
      "user": "Juan_Carlos_G_F-imports",
      "uid": 2802925,
      "tags": {
        "ele": "486.549316",
        "name": "El Río",
        "place": "village",
        "population": "759",
        "population:date": "2017",
        "ref:ine": "38005001600",
        "source": "Instituto Geográfico Nacional",
        "source:date": "2011-06",
        "source:file": "http://centrodedescargas.cnig.es/CentroDescargas/equipamiento/BD_Municipios-Entidades.zip",
        "source:name": "Nomenclátor Geográfico de Municipios y Entidades de Población"
      }
    },
    {
      "type": "node",
      "id": 513220989,
      "lat": 28.1323392,
      "lon": -16.5915861,
      "timestamp": "2019-07-16T22:30:54Z",
      "version": 8,
      "changeset": 72324990,
      "user": "Juan_Carlos_G_F-imports",
      "uid": 2802925,
      "tags": {
        "ele": "890.000000",
        "name": "Cruz de Tea",
        "place": "hamlet",
        "population": "318",
        "population:date": "2009",
        "ref:ine": "38017000600",
        "source": "Instituto Geográfico Nacional",
        "source:date": "2011-06",
        "source:file": "http://centrodedescargas.cnig.es/CentroDescargas/equipamiento/BD_Municipios-Entidades.zip",
        "source:name": "Nomenclátor Geográfico de Municipios y Entidades de Población",
        "wikidata": "Q5792449",
        "wikipedia": "es:Cruz de Tea",
        "wpt_description": "Carretera Autonomica 3º - Carretera Autonomica 3º"
      }
    },
    {
      "type": "node",
      "id": 564665125,
      "lat": 28.1010293,
      "lon": -16.6874524,
      "timestamp": "2009-11-15T11:51:32Z",
      "version": 1,
      "changeset": 3120988,
      "user": "StefanT",
      "uid": 68997,
      "tags": {
        "name": "Vento",
        "place": "hamlet"
      }
    },
    {
      "type": "node",
      "id": 564670120,
      "lat": 28.1042891,
      "lon": -16.6985115,
      "timestamp": "2019-05-12T16:53:06Z",
      "version": 6,
      "changeset": 70165418,
      "user": "bebbi",
      "uid": 565471,
      "tags": {
        "alt_name": "Ichasagua",
        "ele": "1001",
        "name": "Roque del Conde",
        "natural": "peak",
        "wikidata": "Q6112102",
        "wikipedia": "es:Roque del Conde"
      }
    },
    {
      "type": "node",
      "id": 581990522,
      "lat": 28.1786368,
      "lon": -16.6174348,
      "timestamp": "2013-11-24T23:11:42Z",
      "version": 2,
      "changeset": 19101267,
      "user": "Javier Sanchez",
      "uid": 47882,
      "tags": {
        "amenity": "shelter",
        "shelter_type": "rock_shelter"
      }
    },
    {
      "type": "node",
      "id": 588091304,
      "lat": 28.2955011,
      "lon": -16.5661913,
      "timestamp": "2019-07-16T22:30:55Z",
      "version": 6,
      "changeset": 72324990,
      "user": "Juan_Carlos_G_F-imports",
      "uid": 2802925,
      "tags": {
        "ele": "2133",
        "name": "Portillo Alto",
        "place": "hamlet",
        "population": "1",
        "population:date": "2009",
        "ref:ine": "38026000700",
        "source": "Instituto Geográfico Nacional",
        "source:date": "2011-06",
        "source:ele": "MDT5",
        "source:file": "http://centrodedescargas.cnig.es/CentroDescargas/equipamiento/BD_Municipios-Entidades.zip",
        "source:name": "Nomenclátor Geográfico de Municipios y Entidades de Población"
      }
    },
    {
      "type": "node",
      "id": 592647699,
      "lat": 28.2338527,
      "lon": -16.6072317,
      "timestamp": "2010-03-19T22:17:47Z",
      "version": 2,
      "changeset": 4174923,
      "user": "ottokar55",
      "uid": 101355,
      "tags": {
        "ele": "2209.900000",
        "name": "Sanatorio",
        "place": "hamlet"
      }
    },
    {
      "type": "node",
      "id": 609076872,
      "lat": 28.2566743,
      "lon": -16.768302,
      "timestamp": "2018-02-11T01:03:49Z",
      "version": 4,
      "changeset": 56253328,
      "user": "wicking",
      "uid": 102755,
      "tags": {
        "natural": "cave_entrance",
        "note": "the cave is 20 meters long"
      }
    },
    {
      "type": "node",
      "id": 639594194,
      "lat": 28.2635898,
      "lon": -16.4277952,
      "timestamp": "2019-07-16T22:30:55Z",
      "version": 10,
      "changeset": 72324990,
      "user": "Juan_Carlos_G_F-imports",
      "uid": 2802925,
      "tags": {
        "ele": "493",
        "name": "El Escobonal",
        "place": "village",
        "population": "877",
        "population:date": "2009",
        "ref:ine": "38020000500",
        "source": "Instituto Geográfico Nacional",
        "source:date": "2011-06",
        "source:ele": "MDT5",
        "source:file": "http://centrodedescargas.cnig.es/CentroDescargas/equipamiento/BD_Municipios-Entidades.zip",
        "source:name": "Nomenclátor Geográfico de Municipios y Entidades de Población",
        "wikidata": "Q5821854",
        "wikipedia": "es:El Escobonal"
      }
    },
    {
      "type": "node",
      "id": 639595759,
      "lat": 28.2800714,
      "lon": -16.4092487,
      "timestamp": "2019-07-16T22:30:55Z",
      "version": 4,
      "changeset": 72324990,
      "user": "Juan_Carlos_G_F-imports",
      "uid": 2802925,
      "tags": {
        "ele": "492",
        "name": "La Medida",
        "place": "hamlet",
        "population": "271",
        "population:date": "2017",
        "ref:ine": "38020000800",
        "source": "Instituto Geográfico Nacional",
        "source:date": "2011-06",
        "source:ele": "MDT5",
        "source:file": "http://centrodedescargas.cnig.es/CentroDescargas/equipamiento/BD_Municipios-Entidades.zip",
        "source:name": "Nomenclátor Geográfico de Municipios y Entidades de Población"
      }
    },
    {
      "type": "node",
      "id": 639597643,
      "lat": 28.2356006,
      "lon": -16.4393504,
      "timestamp": "2019-07-16T22:30:55Z",
      "version": 10,
      "changeset": 72324990,
      "user": "Juan_Carlos_G_F-imports",
      "uid": 2802925,
      "tags": {
        "admin_level": "8",
        "capital": "8",
        "ele": "454",
        "name": "Fasnia",
        "place": "village",
        "population": "1299",
        "population:date": "2017",
        "ref:ine": "38012000300",
        "source": "Instituto Geográfico Nacional",
        "source:date": "2011-06",
        "source:ele": "MDT5",
        "source:file": "http://centrodedescargas.cnig.es/CentroDescargas/equipamiento/BD_Municipios-Entidades.zip",
        "source:name": "Nomenclátor Geográfico de Municipios y Entidades de Población",
        "wikidata": "Q524431",
        "wikipedia": "es:Fasnia"
      }
    },
    {
      "type": "node",
      "id": 639606691,
      "lat": 28.2218636,
      "lon": -16.4583868,
      "timestamp": "2019-07-16T22:30:55Z",
      "version": 4,
      "changeset": 72324990,
      "user": "Juan_Carlos_G_F-imports",
      "uid": 2802925,
      "tags": {
        "ele": "522",
        "name": "La Sombrera",
        "place": "hamlet",
        "population": "132",
        "population:date": "2017",
        "ref:ine": "38012000600",
        "source": "Instituto Geográfico Nacional",
        "source:date": "2011-06",
        "source:ele": "MDT5",
        "source:file": "http://centrodedescargas.cnig.es/CentroDescargas/equipamiento/BD_Municipios-Entidades.zip",
        "source:name": "Nomenclátor Geográfico de Municipios y Entidades de Población"
      }
    },
    {
      "type": "node",
      "id": 639620544,
      "lat": 28.2044017,
      "lon": -16.455887,
      "timestamp": "2019-07-16T22:30:55Z",
      "version": 7,
      "changeset": 72324990,
      "user": "Juan_Carlos_G_F-imports",
      "uid": 2802925,
      "tags": {
        "description": "Ruinas caserío tradicional canario",
        "ele": "336",
        "historic": "ruins",
        "name": "Icor",
        "place": "village",
        "population": "497",
        "population:date": "2017",
        "ref:ine": "38005001200",
        "source": "Instituto Geográfico Nacional",
        "source:date": "2011-06",
        "source:ele": "MDT5",
        "source:file": "http://centrodedescargas.cnig.es/CentroDescargas/equipamiento/BD_Municipios-Entidades.zip",
        "source:name": "Nomenclátor Geográfico de Municipios y Entidades de Población"
      }
    },
    {
      "type": "node",
      "id": 639636483,
      "lat": 28.1825227,
      "lon": -16.4797981,
      "timestamp": "2018-04-11T13:53:19Z",
      "version": 7,
      "changeset": 58004389,
      "user": "Javier Sanchez",
      "uid": 47882,
      "tags": {
        "ele": "361",
        "name": "Arico Viejo",
        "place": "village",
        "population": "998",
        "population:date": "2017",
        "ref:ine": "38005000300",
        "source": "Instituto Geográfico Nacional",
        "source:date": "2011-06",
        "source:ele": "MDT5",
        "source:file": "http://centrodedescargas.cnig.es/CentroDescargas/equipamiento/BD_Municipios-Entidades.zip",
        "source:name": "Nomenclátor Geográfico de Municipios y Entidades de Población",
        "wikidata": "Q18170809",
        "wikipedia": "es:Arico Viejo"
      }
    },
    {
      "type": "node",
      "id": 639637121,
      "lat": 28.1780947,
      "lon": -16.4797479,
      "timestamp": "2019-07-16T22:30:55Z",
      "version": 5,
      "changeset": 72324990,
      "user": "Juan_Carlos_G_F-imports",
      "uid": 2802925,
      "tags": {
        "ele": "364",
        "name": "Arico el Nuevo",
        "place": "hamlet",
        "population": "125",
        "population:date": "2017",
        "ref:ine": "38005000100",
        "source": "Instituto Geográfico Nacional",
        "source:date": "2011-06",
        "source:ele": "MDT5",
        "source:file": "http://centrodedescargas.cnig.es/CentroDescargas/equipamiento/BD_Municipios-Entidades.zip",
        "source:name": "Nomenclátor Geográfico de Municipios y Entidades de Población"
      }
    },
    {
      "type": "node",
      "id": 639637321,
      "lat": 28.1665942,
      "lon": -16.5016992,
      "timestamp": "2019-07-16T22:30:55Z",
      "version": 15,
      "changeset": 72324990,
      "user": "Juan_Carlos_G_F-imports",
      "uid": 2802925,
      "tags": {
        "admin_level": "8",
        "alt_name": "El Lomo",
        "capital": "8",
        "ele": "550",
        "name": "Villa de Arico",
        "name:ru": "Арико",
        "name:uk": "Аріко",
        "place": "village",
        "population": "593",
        "population:date": "2017",
        "ref:ine": "38005000200",
        "source": "Instituto Geográfico Nacional",
        "source:date": "2011-06",
        "source:ele": "MDT5",
        "source:file": "http://centrodedescargas.cnig.es/CentroDescargas/equipamiento/BD_Municipios-Entidades.zip",
        "source:name": "Nomenclátor Geográfico de Municipios y Entidades de Población",
        "wikidata": "Q6162455",
        "wikipedia": "es:Villa de Arico"
      }
    },
    {
      "type": "node",
      "id": 639702455,
      "lat": 28.1612027,
      "lon": -16.5047354,
      "timestamp": "2019-07-16T22:30:55Z",
      "version": 8,
      "changeset": 72324990,
      "user": "Juan_Carlos_G_F-imports",
      "uid": 2802925,
      "tags": {
        "ele": "581",
        "name": "La Cisnera",
        "place": "village",
        "population": "628",
        "population:date": "2017",
        "ref:ine": "38005000500",
        "source": "Instituto Geográfico Nacional",
        "source:date": "2011-06",
        "source:ele": "MDT5",
        "source:file": "http://centrodedescargas.cnig.es/CentroDescargas/equipamiento/BD_Municipios-Entidades.zip",
        "source:name": "Nomenclátor Geográfico de Municipios y Entidades de Población",
        "wikidata": "Q5962904",
        "wikipedia": "es:La Cisnera"
      }
    },
    {
      "type": "node",
      "id": 640411635,
      "lat": 28.2360569,
      "lon": -16.4555889,
      "timestamp": "2019-07-16T22:30:55Z",
      "version": 8,
      "changeset": 72324990,
      "user": "Juan_Carlos_G_F-imports",
      "uid": 2802925,
      "tags": {
        "ele": "667",
        "name": "La Zarza",
        "place": "hamlet",
        "population": "403",
        "population:date": "2017",
        "ref:ine": "38012000700",
        "source": "Instituto Geográfico Nacional",
        "source:date": "2011-06",
        "source:ele": "MDT5",
        "source:file": "http://centrodedescargas.cnig.es/CentroDescargas/equipamiento/BD_Municipios-Entidades.zip",
        "source:name": "Nomenclátor Geográfico de Municipios y Entidades de Población",
        "wikidata": "Q5965622",
        "wikipedia": "es:La Zarza (Fasnia)"
      }
    },
    {
      "type": "node",
      "id": 647897317,
      "lat": 28.2935846,
      "lon": -16.7913901,
      "timestamp": "2020-03-26T10:16:37Z",
      "version": 2,
      "changeset": 82654116,
      "user": "Emilio Gomez",
      "uid": 2904,
      "tags": {
        "ele": "1370",
        "name": "Montaña Bilma",
        "natural": "peak",
        "wikidata": "Q23987881"
      }
    },
    {
      "type": "node",
      "id": 652405702,
      "lat": 28.2656969,
      "lon": -16.6999679,
      "timestamp": "2020-03-26T10:16:21Z",
      "version": 4,
      "changeset": 82654116,
      "user": "Emilio Gomez",
      "uid": 2904,
      "tags": {
        "ele": "2231",
        "name": "Montaña Reventada",
        "natural": "peak",
        "wikidata": "Q23979597"
      }
    },
    {
      "type": "node",
      "id": 652615322,
      "lat": 28.2697952,
      "lon": -16.5976078,
      "timestamp": "2020-03-26T10:16:25Z",
      "version": 4,
      "changeset": 82654116,
      "user": "Emilio Gomez",
      "uid": 2904,
      "tags": {
        "ele": "2506",
        "name": "Montaña Rajada",
        "natural": "peak",
        "wikidata": "Q23983097"
      }
    },
    {
      "type": "node",
      "id": 652962091,
      "lat": 28.0548795,
      "lon": -16.7115448,
      "timestamp": "2015-05-02T23:29:55Z",
      "version": 3,
      "changeset": 30734877,
      "user": "itamas80",
      "uid": 1719518,
      "tags": {
        "name": "SuperDino Apolo 1",
        "opening_hours": "Mo-Su 08:30-22:00",
        "shop": "supermarket",
        "website": "http://www.hiperdino.es/"
      }
    },
    {
      "type": "node",
      "id": 652962114,
      "lat": 28.052804,
      "lon": -16.7070224,
      "timestamp": "2019-03-19T04:04:24Z",
      "version": 5,
      "changeset": 68280091,
      "user": "b-jazz-bot",
      "uid": 9451067,
      "tags": {
        "addr:housename": "C.c. Pasarela Oasis",
        "name": "Dialprix",
        "shop": "supermarket",
        "website": "https://www.spar.es/",
        "wheelchair": "yes"
      }
    },
    {
      "type": "node",
      "id": 653268725,
      "lat": 28.1093429,
      "lon": -16.5965193,
      "timestamp": "2010-02-25T11:50:43Z",
      "version": 1,
      "changeset": 3970397,
      "user": "Javier Sanchez",
      "uid": 47882,
      "tags": {
        "name": "Chiñama",
        "place": "hamlet"
      }
    },
    {
      "type": "node",
      "id": 653576439,
      "lat": 28.2267734,
      "lon": -16.6999661,
      "timestamp": "2010-02-25T17:18:40Z",
      "version": 1,
      "changeset": 3973520,
      "user": "Javier Sanchez",
      "uid": 47882,
      "tags": {
        "name": "Fuente del Cedro",
        "natural": "spring"
      }
    },
    {
      "type": "node",
      "id": 653615119,
      "lat": 28.2184981,
      "lon": -16.7014649,
      "timestamp": "2012-07-01T19:59:35Z",
      "version": 3,
      "changeset": 12080508,
      "user": "Javier Sanchez",
      "uid": 47882,
      "tags": {
        "amenity": "drinking_water",
        "name": "Fuente de Chavao",
        "natural": "spring"
      }
    },
    {
      "type": "node",
      "id": 653675129,
      "lat": 28.1936095,
      "lon": -16.7426118,
      "timestamp": "2010-02-28T23:04:47Z",
      "version": 3,
      "changeset": 4004484,
      "user": "Javier Sanchez",
      "uid": 47882,
      "tags": {
        "historic": "ruins",
        "name": "Caserío de las Fuentes",
        "note": "Bien de Interés Cultural. BOC Nº 179. Lunes 15 de Septiembre de 2003 - 3473",
        "place": "hamlet"
      }
    },
    {
      "type": "node",
      "id": 653691258,
      "lat": 28.1948837,
      "lon": -16.7355859,
      "timestamp": "2010-02-25T18:19:44Z",
      "version": 2,
      "changeset": 3973520,
      "user": "Javier Sanchez",
      "uid": 47882,
      "tags": {
        "amenity": "drinking_water",
        "source": "Yahoo"
      }
    },
    {
      "type": "node",
      "id": 654510749,
      "lat": 28.1760074,
      "lon": -16.6969558,
      "timestamp": "2020-03-26T10:16:20Z",
      "version": 2,
      "changeset": 82654116,
      "user": "Emilio Gomez",
      "uid": 2904,
      "tags": {
        "name": "Montaña Teresme",
        "natural": "peak",
        "wikidata": "Q23978824"
      }
    },
    {
      "type": "node",
      "id": 661452538,
      "lat": 28.0851458,
      "lon": -16.6318971,
      "timestamp": "2010-03-06T20:57:30Z",
      "version": 2,
      "changeset": 4054430,
      "user": "Javier Sanchez",
      "uid": 47882,
      "tags": {
        "name": "Caserío de la Hoya",
        "place": "hamlet"
      }
    },
    {
      "type": "node",
      "id": 663881882,
      "lat": 28.3028277,
      "lon": -16.837141,
      "timestamp": "2010-03-10T22:59:30Z",
      "version": 1,
      "changeset": 4094177,
      "user": "Javier Sanchez",
      "uid": 47882,
      "tags": {
        "name": "Lomo de Masca",
        "place": "hamlet"
      }
    },
    {
      "type": "node",
      "id": 668644916,
      "lat": 28.1477567,
      "lon": -16.6750625,
      "timestamp": "2010-03-18T10:08:33Z",
      "version": 1,
      "changeset": 4159916,
      "user": "bonifac",
      "uid": 235481,
      "tags": {
        "name": "Guayero",
        "place": "hamlet"
      }
    },
    {
      "type": "node",
      "id": 697503350,
      "lat": 28.2979749,
      "lon": -16.8280024,
      "timestamp": "2010-12-03T12:54:22Z",
      "version": 2,
      "changeset": 6525941,
      "user": "StefanT",
      "uid": 68997,
      "tags": {
        "name": "Casas de Araza",
        "place": "hamlet",
        "source": "Yahoo"
      }
    },
    {
      "type": "node",
      "id": 717873812,
      "lat": 28.2193599,
      "lon": -16.7109303,
      "timestamp": "2010-05-02T21:41:30Z",
      "version": 1,
      "changeset": 4589081,
      "user": "Javier Sanchez",
      "uid": 47882,
      "tags": {
        "amenity": "drinking_water"
      }
    },
    {
      "type": "node",
      "id": 811209866,
      "lat": 28.2583348,
      "lon": -16.7695886,
      "timestamp": "2018-02-11T01:03:49Z",
      "version": 2,
      "changeset": 56253328,
      "user": "wicking",
      "uid": 102755,
      "tags": {
        "name": "Cueva de los Pajaros",
        "natural": "cave_entrance"
      }
    },
    {
      "type": "node",
      "id": 854357832,
      "lat": 28.1947179,
      "lon": -16.4229327,
      "timestamp": "2019-07-16T22:30:55Z",
      "version": 8,
      "changeset": 72324990,
      "user": "Juan_Carlos_G_F-imports",
      "uid": 2802925,
      "tags": {
        "ele": "14",
        "name": "Las Eras",
        "place": "hamlet",
        "population": "313",
        "population:date": "2017",
        "ref:ine": "38012000200",
        "source": "Instituto Geográfico Nacional",
        "source:date": "2011-06",
        "source:ele": "MDT5",
        "source:file": "http://centrodedescargas.cnig.es/CentroDescargas/equipamiento/BD_Municipios-Entidades.zip",
        "source:name": "Nomenclátor Geográfico de Municipios y Entidades de Población",
        "wikidata": "Q5970405",
        "wikipedia": "es:Las Eras (Fasnia)"
      }
    },
    {
      "type": "node",
      "id": 854373789,
      "lat": 28.2200849,
      "lon": -16.4143282,
      "timestamp": "2019-07-16T22:30:55Z",
      "version": 4,
      "changeset": 72324990,
      "user": "Juan_Carlos_G_F-imports",
      "uid": 2802925,
      "tags": {
        "ele": "21",
        "name": "Los Roques",
        "place": "hamlet",
        "population": "228",
        "population:date": "2017",
        "ref:ine": "38012000400",
        "source": "Instituto Geográfico Nacional",
        "source:date": "2011-06",
        "source:ele": "MDT5",
        "source:file": "http://centrodedescargas.cnig.es/CentroDescargas/equipamiento/BD_Municipios-Entidades.zip",
        "source:name": "Nomenclátor Geográfico de Municipios y Entidades de Población"
      }
    },
    {
      "type": "node",
      "id": 854380640,
      "lat": 28.24072,
      "lon": -16.402859,
      "timestamp": "2019-07-16T22:30:55Z",
      "version": 7,
      "changeset": 72324990,
      "user": "Juan_Carlos_G_F-imports",
      "uid": 2802925,
      "tags": {
        "ele": "3",
        "name": "El Tablado",
        "place": "hamlet",
        "population": "237",
        "population:date": "2017",
        "ref:ine": "38020001400",
        "source": "Instituto Geográfico Nacional",
        "source:date": "2011-06",
        "source:ele": "MDT5",
        "source:file": "http://centrodedescargas.cnig.es/CentroDescargas/equipamiento/BD_Municipios-Entidades.zip",
        "source:name": "Nomenclátor Geográfico de Municipios y Entidades de Población",
        "wikidata": "Q5823459",
        "wikipedia": "es:El Tablado (Güímar)"
      }
    },
    {
      "type": "node",
      "id": 854386170,
      "lat": 28.2735882,
      "lon": -16.3847488,
      "timestamp": "2019-07-16T22:30:55Z",
      "version": 5,
      "changeset": 72324990,
      "user": "Juan_Carlos_G_F-imports",
      "uid": 2802925,
      "tags": {
        "ele": "16",
        "name": "La Caleta",
        "place": "hamlet",
        "population": "262",
        "population:date": "2017",
        "ref:ine": "38020000300",
        "source": "Instituto Geográfico Nacional",
        "source:date": "2011-06",
        "source:ele": "MDT5",
        "source:file": "http://centrodedescargas.cnig.es/CentroDescargas/equipamiento/BD_Municipios-Entidades.zip",
        "source:name": "Nomenclátor Geográfico de Municipios y Entidades de Población"
      }
    },
    {
      "type": "node",
      "id": 854391020,
      "lat": 28.2647248,
      "lon": -16.3877528,
      "timestamp": "2019-07-16T22:30:55Z",
      "version": 4,
      "changeset": 72324990,
      "user": "Juan_Carlos_G_F-imports",
      "uid": 2802925,
      "tags": {
        "ele": "21",
        "name": "Punta Prieta",
        "place": "hamlet",
        "population": "139",
        "population:date": "2017",
        "ref:ine": "38020001200",
        "source": "Instituto Geográfico Nacional",
        "source:date": "2011-06",
        "source:ele": "MDT5",
        "source:file": "http://centrodedescargas.cnig.es/CentroDescargas/equipamiento/BD_Municipios-Entidades.zip",
        "source:name": "Nomenclátor Geográfico de Municipios y Entidades de Población"
      }
    },
    {
      "type": "node",
      "id": 854393672,
      "lat": 28.2843782,
      "lon": -16.4054554,
      "timestamp": "2019-07-16T22:30:55Z",
      "version": 5,
      "changeset": 72324990,
      "user": "Juan_Carlos_G_F-imports",
      "uid": 2802925,
      "tags": {
        "ele": "418",
        "name": "Pájara",
        "place": "hamlet",
        "population": "141",
        "population:date": "2017",
        "ref:ine": "38020000900",
        "source": "Instituto Geográfico Nacional",
        "source:date": "2011-06",
        "source:ele": "MDT5",
        "source:file": "http://centrodedescargas.cnig.es/CentroDescargas/equipamiento/BD_Municipios-Entidades.zip",
        "source:name": "Nomenclátor Geográfico de Municipios y Entidades de Población"
      }
    },
    {
      "type": "node",
      "id": 854403738,
      "lat": 28.2716417,
      "lon": -16.418609,
      "timestamp": "2019-07-16T22:30:55Z",
      "version": 4,
      "changeset": 72324990,
      "user": "Juan_Carlos_G_F-imports",
      "uid": 2802925,
      "tags": {
        "ele": "502",
        "name": "Lomo de Mena",
        "place": "hamlet",
        "population": "268",
        "population:date": "2017",
        "ref:ine": "38020000700",
        "source": "Instituto Geográfico Nacional",
        "source:date": "2011-06",
        "source:ele": "MDT5",
        "source:file": "http://centrodedescargas.cnig.es/CentroDescargas/equipamiento/BD_Municipios-Entidades.zip",
        "source:name": "Nomenclátor Geográfico de Municipios y Entidades de Población"
      }
    },
    {
      "type": "node",
      "id": 863062438,
      "lat": 28.0924503,
      "lon": -16.7358108,
      "timestamp": "2021-07-06T15:53:46Z",
      "version": 3,
      "changeset": 107507675,
      "user": "ceever",
      "uid": 5592573,
      "tags": {
        "name": "Hiperdino Express",
        "shop": "supermarket"
      }
    },
    {
      "type": "node",
      "id": 868278413,
      "lat": 28.16408,
      "lon": -16.4325783,
      "timestamp": "2019-07-16T22:30:55Z",
      "version": 9,
      "changeset": 72324990,
      "user": "Juan_Carlos_G_F-imports",
      "uid": 2802925,
      "tags": {
        "ele": "15",
        "name": "Porís de Abona",
        "place": "village",
        "population": "1990",
        "population:date": "2017",
        "ref:ine": "38005001500",
        "source": "Instituto Geográfico Nacional",
        "source:date": "2011-06",
        "source:ele": "MDT5",
        "source:file": "http://centrodedescargas.cnig.es/CentroDescargas/equipamiento/BD_Municipios-Entidades.zip",
        "source:name": "Nomenclátor Geográfico de Municipios y Entidades de Población",
        "wikidata": "Q5822915",
        "wikipedia": "es:Porís de Abona"
      }
    },
    {
      "type": "node",
      "id": 868284963,
      "lat": 28.1440024,
      "lon": -16.4421484,
      "timestamp": "2019-07-16T22:30:55Z",
      "version": 9,
      "changeset": 72324990,
      "user": "Juan_Carlos_G_F-imports",
      "uid": 2802925,
      "tags": {
        "name": "Abades",
        "place": "hamlet",
        "wikidata": "Q946316",
        "wikipedia": "es:Abades (Tenerife)"
      }
    },
    {
      "type": "node",
      "id": 868296252,
      "lat": 28.1227571,
      "lon": -16.4611921,
      "timestamp": "2019-07-16T22:30:55Z",
      "version": 4,
      "changeset": 72324990,
      "user": "Juan_Carlos_G_F-imports",
      "uid": 2802925,
      "tags": {
        "name": "Las Listadas",
        "place": "hamlet",
        "population": "268",
        "population:date": "2017",
        "ref:ine": "38005001805"
      }
    },
    {
      "type": "node",
      "id": 868307134,
      "lat": 28.1024967,
      "lon": -16.4766524,
      "timestamp": "2019-07-16T22:30:55Z",
      "version": 9,
      "changeset": 72324990,
      "user": "Juan_Carlos_G_F-imports",
      "uid": 2802925,
      "tags": {
        "name": "La Caleta",
        "place": "hamlet",
        "population": "282",
        "population:date": "2017",
        "ref:ine": "38005001804",
        "wikidata": "Q2111719",
        "wikipedia": "es:La Caleta (Adeje)"
      }
    },
    {
      "type": "node",
      "id": 868307587,
      "lat": 28.1096228,
      "lon": -16.4707086,
      "timestamp": "2019-07-16T22:30:55Z",
      "version": 6,
      "changeset": 72324990,
      "user": "Juan_Carlos_G_F-imports",
      "uid": 2802925,
      "tags": {
        "ele": "6",
        "loc_name": "Tabaibarril",
        "name": "San Miguel de Tajao",
        "place": "village",
        "population": "1777",
        "population:date": "2017",
        "ref:ine": "38005001800",
        "source": "Instituto Geográfico Nacional",
        "source:date": "2011-06",
        "source:ele": "MDT5",
        "source:file": "http://centrodedescargas.cnig.es/CentroDescargas/equipamiento/BD_Municipios-Entidades.zip",
        "source:name": "Nomenclátor Geográfico de Municipios y Entidades de Población"
      }
    },
    {
      "type": "node",
      "id": 868319492,
      "lat": 28.1802374,
      "lon": -16.4962494,
      "timestamp": "2019-07-16T22:30:55Z",
      "version": 5,
      "changeset": 72324990,
      "user": "Juan_Carlos_G_F-imports",
      "uid": 2802925,
      "tags": {
        "name": "La Sabinita",
        "place": "hamlet",
        "population": "191",
        "population:date": "2017",
        "ref:ine": "38005000303"
      }
    },
    {
      "type": "node",
      "id": 885629414,
      "lat": 28.2002664,
      "lon": -16.5720776,
      "timestamp": "2010-08-28T22:34:15Z",
      "version": 1,
      "changeset": 5620649,
      "user": "Javier Sanchez",
      "uid": 47882,
      "tags": {
        "amenity": "drinking_water"
      }
    },
    {
      "type": "node",
      "id": 903016232,
      "lat": 28.2971928,
      "lon": -16.8164645,
      "timestamp": "2011-01-04T07:09:29Z",
      "version": 2,
      "changeset": 6857695,
      "user": "tiger",
      "uid": 338866,
      "tags": {
        "name": "El Valle",
        "shop": "convenience"
      }
    },
    {
      "type": "node",
      "id": 903016283,
      "lat": 28.0502449,
      "lon": -16.5287196,
      "timestamp": "2019-08-21T07:53:30Z",
      "version": 6,
      "changeset": 73567493,
      "user": "sanchi",
      "uid": 170106,
      "tags": {
        "addr:city": "El Médano",
        "addr:country": "ES",
        "addr:housenumber": "2",
        "addr:postcode": "38612",
        "addr:street": "Avenida Europa",
        "name": "quick stop",
        "opening_hours": "Mo-Su 09:00-21:00",
        "phone": "+34 922 179830",
        "shop": "convenience"
      }
    },
    {
      "type": "node",
      "id": 903016316,
      "lat": 28.0467426,
      "lon": -16.5374221,
      "timestamp": "2017-05-31T13:18:02Z",
      "version": 4,
      "changeset": 49135901,
      "user": "Pooh01",
      "uid": 199701,
      "tags": {
        "name": "HiperDino",
        "opening_hours": "Mo-Sa 09:00-22:00; Su 10:00-21:00",
        "shop": "supermarket",
        "wheelchair": "yes"
      }
    },
    {
      "type": "node",
      "id": 903016669,
      "lat": 28.0447231,
      "lon": -16.5348521,
      "timestamp": "2013-04-10T19:22:16Z",
      "version": 2,
      "changeset": 15681924,
      "user": "Markus59",
      "uid": 39457,
      "tags": {
        "name": "Amazonas",
        "shop": "convenience"
      }
    },
    {
      "type": "node",
      "id": 903016888,
      "lat": 28.213679,
      "lon": -16.7833984,
      "timestamp": "2015-08-05T21:22:33Z",
      "version": 5,
      "changeset": 33141323,
      "user": "Javier Sanchez",
      "uid": 47882,
      "tags": {
        "name": "Alteza",
        "shop": "supermarket"
      }
    },
    {
      "type": "node",
      "id": 903016993,
      "lat": 28.2094819,
      "lon": -16.7805297,
      "timestamp": "2017-01-08T21:01:28Z",
      "version": 4,
      "changeset": 45011863,
      "user": "polkillas",
      "uid": 42055,
      "tags": {
        "name": "Dialprix",
        "shop": "supermarket"
      }
    },
    {
      "type": "node",
      "id": 903017004,
      "lat": 28.0568177,
      "lon": -16.7120019,
      "timestamp": "2017-03-12T12:39:29Z",
      "version": 4,
      "changeset": 46783795,
      "user": "khbritish",
      "uid": 4445529,
      "tags": {
        "name": "Hiper Trebol",
        "shop": "supermarket",
        "wheelchair": "yes"
      }
    },
    {
      "type": "node",
      "id": 903017079,
      "lat": 28.0445325,
      "lon": -16.5372897,
      "timestamp": "2010-09-08T17:02:25Z",
      "version": 1,
      "changeset": 5725585,
      "user": "tiger",
      "uid": 338866,
      "tags": {
        "name": "La Tiendita Minimarket",
        "shop": "convenience"
      }
    },
    {
      "type": "node",
      "id": 903017091,
      "lat": 28.163411,
      "lon": -16.4331866,
      "timestamp": "2010-09-08T17:02:25Z",
      "version": 1,
      "changeset": 5725585,
      "user": "tiger",
      "uid": 338866,
      "tags": {
        "name": "Udaco",
        "shop": "supermarket",
        "source": "survey"
      }
    },
    {
      "type": "node",
      "id": 903017094,
      "lat": 28.0504714,
      "lon": -16.6164339,
      "timestamp": "2016-03-13T09:47:52Z",
      "version": 2,
      "changeset": 37796635,
      "user": "JPaulW",
      "uid": 1237610,
      "tags": {
        "name": "HiperDino",
        "opening_hours": "Mo-Sa 09:00-22:00",
        "shop": "supermarket"
      }
    },
    {
      "type": "node",
      "id": 903017320,
      "lat": 28.0992936,
      "lon": -16.6171326,
      "timestamp": "2017-10-08T16:48:38Z",
      "version": 2,
      "changeset": 52736001,
      "user": "DirkWausD",
      "uid": 2983538,
      "tags": {
        "name": "Guai",
        "opening_hours": "Mo-Su 8:30-21:30",
        "shop": "supermarket"
      }
    },
    {
      "type": "node",
      "id": 903017443,
      "lat": 28.2673349,
      "lon": -16.80813,
      "timestamp": "2015-10-14T07:31:41Z",
      "version": 2,
      "changeset": 34627282,
      "user": "catastro_santa_cruz_de_tenerife",
      "uid": 617065,
      "tags": {
        "name": "La Despensa",
        "shop": "supermarket"
      }
    },
    {
      "type": "node",
      "id": 913616060,
      "lat": 28.0874183,
      "lon": -16.7280507,
      "timestamp": "2020-05-18T17:55:34Z",
      "version": 7,
      "changeset": 85396825,
      "user": "Hugoren Martinako",
      "uid": 3392826,
      "tags": {
        "addr:postcode": "38660",
        "addr:street": "Playa Fañabe",
        "brand": "Mercadona",
        "brand:wikidata": "Q377705",
        "brand:wikipedia": "en:Mercadona",
        "level": "-1",
        "name": "Mercadona",
        "opening_hours": "mo-sa 09:00-21:30",
        "phone": "+34922714716",
        "shop": "supermarket",
        "source:opening_hours": "https://www.mercadona.es/list_prov.php?id_prov=38&nidioma=",
        "website": "https://www.mercadona.es/"
      }
    },
    {
      "type": "node",
      "id": 924277814,
      "lat": 28.1871694,
      "lon": -16.765474,
      "timestamp": "2010-09-24T16:55:31Z",
      "version": 1,
      "changeset": 5864519,
      "user": "tiger",
      "uid": 338866,
      "tags": {
        "name": "Elimany",
        "shop": "convenience"
      }
    },
    {
      "type": "node",
      "id": 938615703,
      "lat": 28.2124624,
      "lon": -16.7810018,
      "timestamp": "2015-09-01T21:12:54Z",
      "version": 2,
      "changeset": 33739148,
      "user": "catastro_santa_cruz_de_tenerife",
      "uid": 617065,
      "tags": {
        "name": "Isora",
        "shop": "convenience"
      }
    },
    {
      "type": "node",
      "id": 944697310,
      "lat": 28.1739472,
      "lon": -16.7177804,
      "timestamp": "2015-08-05T21:14:27Z",
      "version": 4,
      "changeset": 33141093,
      "user": "Javier Sanchez",
      "uid": 47882,
      "tags": {
        "amenity": "drinking_water",
        "tourism": "picnic_site"
      }
    },
    {
      "type": "node",
      "id": 947003158,
      "lat": 28.2384886,
      "lon": -16.8448166,
      "timestamp": "2015-10-15T19:49:21Z",
      "version": 6,
      "changeset": 34662734,
      "user": "catastro_santa_cruz_de_tenerife",
      "uid": 617065,
      "tags": {
        "name": "HiperDino",
        "shop": "supermarket"
      }
    },
    {
      "type": "node",
      "id": 958147738,
      "lat": 28.1291387,
      "lon": -16.5278353,
      "timestamp": "2019-07-16T22:30:56Z",
      "version": 6,
      "changeset": 72324990,
      "user": "Juan_Carlos_G_F-imports",
      "uid": 2802925,
      "tags": {
        "ele": "398",
        "name": "Chimiche",
        "place": "hamlet",
        "population": "814",
        "population:date": "2009",
        "ref:ine": "38017000900",
        "source": "Instituto Geográfico Nacional",
        "source:date": "2011-06",
        "source:ele": "MDT5",
        "source:file": "http://centrodedescargas.cnig.es/CentroDescargas/equipamiento/BD_Municipios-Entidades.zip",
        "source:name": "Nomenclátor Geográfico de Municipios y Entidades de Población",
        "wikidata": "Q5766496",
        "wikipedia": "es:Chimiche"
      }
    },
    {
      "type": "node",
      "id": 958188293,
      "lat": 28.0995046,
      "lon": -16.6676612,
      "timestamp": "2019-07-16T22:30:56Z",
      "version": 2,
      "changeset": 72324990,
      "user": "Juan_Carlos_G_F-imports",
      "uid": 2802925,
      "tags": {
        "name": "Túnez",
        "place": "hamlet"
      }
    },
    {
      "type": "node",
      "id": 958239922,
      "lat": 28.2356641,
      "lon": -16.8407818,
      "timestamp": "2015-10-16T10:55:53Z",
      "version": 6,
      "changeset": 34672864,
      "user": "catastro_santa_cruz_de_tenerife",
      "uid": 617065,
      "tags": {
        "name": "SuperDino",
        "shop": "supermarket"
      }
    },
    {
      "type": "node",
      "id": 990019001,
      "lat": 28.0728277,
      "lon": -16.7306577,
      "timestamp": "2020-05-17T18:46:46Z",
      "version": 5,
      "changeset": 85344984,
      "user": "Hugoren Martinako",
      "uid": 3392826,
      "tags": {
        "addr:postcode": "38660",
        "addr:street": "Calle Cuba",
        "brand": "Covirán",
        "brand:wikidata": "Q61070539",
        "brand:wikipedia": "eu:Covirán",
        "name": "Covirán",
        "name:pt": "Coviran",
        "shop": "supermarket",
        "website": "https://www.coviran.es/"
      }
    },
    {
      "type": "node",
      "id": 1013120789,
      "lat": 28.2036915,
      "lon": -16.6180332,
      "timestamp": "2021-07-06T15:53:51Z",
      "version": 3,
      "changeset": 107507675,
      "user": "ceever",
      "uid": 5592573,
      "tags": {
        "access": "yes",
        "amenity": "drinking_water",
        "description": "Still uf as o 2021. This a great place, even though no major hiking trail goes through here. Do not wash anything in the sink, since this is the drinking water. Take the water out and wash away from the spring. 👍",
        "fee": "no",
        "note": "Small hut with covered spring / pool where you can get water (for hiking). Water is piped from the surrounding Gallerias. OK as of Dec '18."
      }
    },
    {
      "type": "node",
      "id": 1013807134,
      "lat": 28.0555355,
      "lon": -16.7253489,
      "timestamp": "2019-06-13T15:40:06Z",
      "version": 4,
      "changeset": 71223180,
      "user": "mapman44",
      "uid": 2888253,
      "tags": {
        "brand": "Mercadona",
        "brand:wikidata": "Q377705",
        "brand:wikipedia": "en:Mercadona",
        "name": "Mercadona",
        "opening_hours": "Mo-Sa 09:00-21:30",
        "shop": "supermarket",
        "source:opening_hours": "https://www.mercadona.es/list_prov.php?id_prov=38&nidioma=",
        "wheelchair": "yes"
      }
    },
    {
      "type": "node",
      "id": 1081614131,
      "lat": 28.0616276,
      "lon": -16.7291858,
      "timestamp": "2011-01-04T07:08:51Z",
      "version": 1,
      "changeset": 6857695,
      "user": "tiger",
      "uid": 338866,
      "tags": {
        "name": "Felipe",
        "shop": "convenience"
      }
    },
    {
      "type": "node",
      "id": 1081614147,
      "lat": 28.2258959,
      "lon": -16.8382599,
      "timestamp": "2013-11-15T13:57:31Z",
      "version": 2,
      "changeset": 18914759,
      "user": "tiger",
      "uid": 338866,
      "tags": {
        "name": "HiperDino Express",
        "shop": "convenience"
      }
    },
    {
      "type": "node",
      "id": 1097743369,
      "lat": 28.0817521,
      "lon": -16.7265754,
      "timestamp": "2019-07-29T14:04:07Z",
      "version": 3,
      "changeset": 72772446,
      "user": "Jonas Hansen",
      "uid": 30930,
      "tags": {
        "amenity": "bar",
        "name": "The Pirate",
        "shop": "convenience"
      }
    },
    {
      "type": "node",
      "id": 1097743412,
      "lat": 28.0791531,
      "lon": -16.7276619,
      "timestamp": "2019-07-22T18:02:16Z",
      "version": 3,
      "changeset": 72526842,
      "user": "Jonas Hansen",
      "uid": 30930,
      "tags": {
        "name": "Dialprix",
        "phone": "+34 922 72 45 77",
        "shop": "supermarket",
        "website": "https://kanali.es/divisiones/alimentacion/"
      }
    },
    {
      "type": "node",
      "id": 1107013429,
      "lat": 28.0853218,
      "lon": -16.6338386,
      "timestamp": "2011-01-17T01:12:31Z",
      "version": 1,
      "changeset": 6995609,
      "user": "CLC-ES-06",
      "uid": 391600,
      "tags": {
        "name": "Fuente de La Hoya",
        "natural": "spring"
      }
    },
    {
      "type": "node",
      "id": 1107013577,
      "lat": 28.086444,
      "lon": -16.6283117,
      "timestamp": "2011-01-17T01:12:39Z",
      "version": 1,
      "changeset": 6995609,
      "user": "CLC-ES-06",
      "uid": 391600,
      "tags": {
        "name": "Fuente de Tamaide",
        "natural": "spring"
      }
    },
    {
      "type": "node",
      "id": 1153744362,
      "lat": 28.0735631,
      "lon": -16.5570337,
      "timestamp": "2019-03-22T11:13:15Z",
      "version": 2,
      "changeset": 68404771,
      "user": "Separis",
      "uid": 699437,
      "tags": {
        "name": "Hiperdino",
        "shop": "supermarket"
      }
    },
    {
      "type": "node",
      "id": 1158944252,
      "lat": 28.0460625,
      "lon": -16.7091725,
      "timestamp": "2015-04-03T17:56:11Z",
      "version": 5,
      "changeset": 29957113,
      "user": "itamas80",
      "uid": 1719518,
      "tags": {
        "name": "SuperDino Los Cristianos",
        "opening_hours": "Mo-Su 8:30-22:00",
        "shop": "supermarket",
        "website": "http://www.hiperdino.es/",
        "wheelchair": "limited"
      }
    },
    {
      "type": "node",
      "id": 1164538031,
      "lat": 28.0900681,
      "lon": -16.6603356,
      "timestamp": "2011-02-21T01:11:49Z",
      "version": 1,
      "changeset": 7349712,
      "user": "ottokar55",
      "uid": 101355,
      "tags": {
        "name": "Maxcoop",
        "opening_hours": "Mo-Sa 8:30-21:00",
        "shop": "supermarket"
      }
    },
    {
      "type": "node",
      "id": 1198831238,
      "lat": 28.0771428,
      "lon": -16.7314168,
      "timestamp": "2020-05-18T17:55:34Z",
      "version": 9,
      "changeset": 85396825,
      "user": "Hugoren Martinako",
      "uid": 3392826,
      "tags": {
        "addr:street": "Calle Gran Bretaña",
        "brand": "Mercadona",
        "brand:wikidata": "Q377705",
        "brand:wikipedia": "en:Mercadona",
        "name": "Mercadona",
        "opening_hours": "Mo-Sa 09:00-21:30",
        "phone": "+34922715150",
        "shop": "supermarket"
      }
    },
    {
      "type": "node",
      "id": 1230347200,
      "lat": 28.2441555,
      "lon": -16.8411211,
      "timestamp": "2011-04-03T08:39:57Z",
      "version": 1,
      "changeset": 7751376,
      "user": "tiger",
      "uid": 338866,
      "tags": {
        "name": "Las Flores",
        "shop": "convenience"
      }
    },
    {
      "type": "node",
      "id": 1230347250,
      "lat": 28.2447221,
      "lon": -16.840668,
      "timestamp": "2017-03-08T16:01:31Z",
      "version": 3,
      "changeset": 46684011,
      "user": "matx17",
      "uid": 602634,
      "tags": {
        "name": "Los Gigantes",
        "shop": "convenience"
      }
    },
    {
      "type": "node",
      "id": 1230356216,
      "lat": 28.2466988,
      "lon": -16.8419454,
      "timestamp": "2020-12-22T22:10:08Z",
      "version": 2,
      "changeset": 96282640,
      "user": "alkino",
      "uid": 510085,
      "tags": {
        "name": "HyperDino Express",
        "opening_hours": "Mo-Su 08:00-22:00",
        "shop": "convenience"
      }
    },
    {
      "type": "node",
      "id": 1230363329,
      "lat": 28.2404141,
      "lon": -16.8391667,
      "timestamp": "2017-11-12T16:53:10Z",
      "version": 2,
      "changeset": 53718038,
      "user": "andys1979",
      "uid": 2436402,
      "tags": {
        "name": "Superdino",
        "shop": "supermarket"
      }
    },
    {
      "type": "node",
      "id": 1237193269,
      "lat": 28.2678948,
      "lon": -16.8184998,
      "timestamp": "2011-04-08T12:59:09Z",
      "version": 1,
      "changeset": 7803893,
      "user": "tiger",
      "uid": 338866,
      "tags": {
        "name": "Santa Ana",
        "shop": "convenience"
      }
    },
    {
      "type": "node",
      "id": 1240260134,
      "lat": 28.2389682,
      "lon": -16.8443913,
      "timestamp": "2018-03-10T15:06:17Z",
      "version": 2,
      "changeset": 57060125,
      "user": "Mac_01",
      "uid": 2722257,
      "tags": {
        "name": "Delfin",
        "shop": "supermarket"
      }
    },
    {
      "type": "node",
      "id": 1258904165,
      "lat": 28.250444,
      "lon": -16.7766302,
      "timestamp": "2011-08-09T21:07:41Z",
      "version": 2,
      "changeset": 8971531,
      "user": "Javier Sanchez",
      "uid": 47882,
      "tags": {
        "access": "no",
        "alt_name": "Cueva de los Pájaros",
        "barrier": "fence",
        "name": "Cueva Grande de Chío",
        "natural": "cave_entrance",
        "note:es": "Acceso a tubo volcánico de grandes dimesiones cortado por la carretera. Cerrado con verja.",
        "source": "GPS"
      }
    },
    {
      "type": "node",
      "id": 1258907564,
      "lat": 28.2506695,
      "lon": -16.776517,
      "timestamp": "2011-08-09T21:07:39Z",
      "version": 2,
      "changeset": 8971531,
      "user": "Javier Sanchez",
      "uid": 47882,
      "tags": {
        "access": "no",
        "barrier": "fence",
        "name": "Cueva Grande de Chío",
        "natural": "cave_entrance",
        "note:es": "Acceso a continuación del tubo volcánico cortado por la carretera. Menor desarrollo que la parte inferior. Cerrado con verja.",
        "source": "GPS"
      }
    },
    {
      "type": "node",
      "id": 1261424450,
      "lat": 28.1917068,
      "lon": -16.7541041,
      "timestamp": "2011-08-09T21:07:41Z",
      "version": 2,
      "changeset": 8971531,
      "user": "Javier Sanchez",
      "uid": 47882,
      "tags": {
        "alt_name": "El Bufadero",
        "name": "Sima de Tejina",
        "natural": "cave_entrance",
        "note:es": "Sima de unos 10 metros de profundidad",
        "source": "GPS"
      }
    },
    {
      "type": "node",
      "id": 1280357094,
      "lat": 28.1999669,
      "lon": -16.8266548,
      "timestamp": "2015-06-08T17:04:26Z",
      "version": 2,
      "changeset": 31821736,
      "user": "catastro_santa_cruz_de_tenerife",
      "uid": 617065,
      "tags": {
        "name": "Torres",
        "shop": "convenience"
      }
    },
    {
      "type": "node",
      "id": 1287574746,
      "lat": 28.2355299,
      "lon": -16.8337127,
      "timestamp": "2019-02-12T23:56:37Z",
      "version": 4,
      "changeset": 67147133,
      "user": "frauzack",
      "uid": 1172645,
      "tags": {
        "name": "Superdino",
        "opening_hours": "Mo-Su,PH 08:30-22:00",
        "shop": "supermarket"
      }
    },
    {
      "type": "node",
      "id": 1288281323,
      "lat": 28.1537246,
      "lon": -16.5962408,
      "timestamp": "2011-05-16T21:41:45Z",
      "version": 1,
      "changeset": 8167058,
      "user": "Javier Sanchez",
      "uid": 47882,
      "tags": {
        "name": "El Pinar",
        "place": "hamlet"
      }
    },
    {
      "type": "node",
      "id": 1288281582,
      "lat": 28.1399354,
      "lon": -16.5931285,
      "timestamp": "2011-05-16T21:41:53Z",
      "version": 1,
      "changeset": 8167058,
      "user": "Javier Sanchez",
      "uid": 47882,
      "tags": {
        "name": "Las Canales Altas",
        "place": "hamlet"
      }
    },
    {
      "type": "node",
      "id": 1288282103,
      "lat": 28.099637,
      "lon": -16.4816195,
      "timestamp": "2019-07-16T22:31:00Z",
      "version": 3,
      "changeset": 72324990,
      "user": "Juan_Carlos_G_F-imports",
      "uid": 2802925,
      "tags": {
        "alt_name": "Barranco del Río",
        "name": "Las Maretas",
        "place": "hamlet",
        "ref:ine": "38005001803"
      }
    },
    {
      "type": "node",
      "id": 1288845367,
      "lat": 28.1819964,
      "lon": -16.5952593,
      "timestamp": "2019-02-07T22:40:27Z",
      "version": 2,
      "changeset": 67009165,
      "user": "eKickbike",
      "uid": 7531185,
      "tags": {
        "amenity": "drinking_water"
      }
    },
    {
      "type": "node",
      "id": 1290091170,
      "lat": 28.1627494,
      "lon": -16.5744264,
      "timestamp": "2012-10-14T08:09:41Z",
      "version": 2,
      "changeset": 13488497,
      "user": "Javier Sanchez",
      "uid": 47882,
      "tags": {
        "amenity": "shelter",
        "note:es": "Refugio",
        "shelter_type": "rock_shelter"
      }
    },
    {
      "type": "node",
      "id": 1290091356,
      "lat": 28.1560021,
      "lon": -16.5863639,
      "timestamp": "2012-10-13T17:41:22Z",
      "version": 2,
      "changeset": 13482058,
      "user": "Javier Sanchez",
      "uid": 47882,
      "tags": {
        "amenity": "shelter",
        "note:es": "Refugio",
        "shelter_type": "rock_shelter"
      }
    },
    {
      "type": "node",
      "id": 1290091379,
      "lat": 28.1557675,
      "lon": -16.5878207,
      "timestamp": "2012-10-13T17:41:22Z",
      "version": 2,
      "changeset": 13482058,
      "user": "Javier Sanchez",
      "uid": 47882,
      "tags": {
        "amenity": "shelter",
        "note:es": "Refugio vivienda",
        "shelter_type": "rock_shelter"
      }
    },
    {
      "type": "node",
      "id": 1298215360,
      "lat": 28.215614,
      "lon": -16.6012551,
      "timestamp": "2012-06-29T10:52:04Z",
      "version": 2,
      "changeset": 12055158,
      "user": "Javier Sanchez",
      "uid": 47882,
      "tags": {
        "name": "Fuente de la Pimentera",
        "natural": "spring"
      }
    },
    {
      "type": "node",
      "id": 1305338183,
      "lat": 28.1814583,
      "lon": -16.4845785,
      "timestamp": "2019-07-16T22:31:00Z",
      "version": 4,
      "changeset": 72324990,
      "user": "Juan_Carlos_G_F-imports",
      "uid": 2802925,
      "tags": {
        "name": "La Degollada",
        "place": "hamlet",
        "population": "139",
        "population:date": "2017",
        "ref:ine": "38005000302"
      }
    },
    {
      "type": "node",
      "id": 1331430763,
      "lat": 28.156362,
      "lon": -16.7661324,
      "timestamp": "2019-07-16T22:31:00Z",
      "version": 2,
      "changeset": 72324990,
      "user": "Juan_Carlos_G_F-imports",
      "uid": 2802925,
      "tags": {
        "alt_name": "La Hoya",
        "name": "Hoya Grande",
        "place": "hamlet"
      }
    },
    {
      "type": "node",
      "id": 1338470278,
      "lat": 28.2621296,
      "lon": -16.4245796,
      "timestamp": "2011-06-25T15:11:40Z",
      "version": 1,
      "changeset": 8543407,
      "user": "Javier Sanchez",
      "uid": 47882,
      "tags": {
        "name": "El Salto del Camino Real",
        "place": "hamlet"
      }
    },
    {
      "type": "node",
      "id": 1348707682,
      "lat": 28.1597774,
      "lon": -16.771902,
      "timestamp": "2011-07-03T22:25:24Z",
      "version": 1,
      "changeset": 8624691,
      "user": "Javier Sanchez",
      "uid": 47882,
      "tags": {
        "name": "Pasos Largos",
        "place": "hamlet"
      }
    },
    {
      "type": "node",
      "id": 1390171373,
      "lat": 28.17082,
      "lon": -16.7446782,
      "timestamp": "2011-08-09T21:07:40Z",
      "version": 2,
      "changeset": 8971531,
      "user": "Javier Sanchez",
      "uid": 47882,
      "tags": {
        "name": "Cueva del Cajón",
        "natural": "cave_entrance",
        "note:es": "Pequeña cavidad en la que se guardaba el ataud comunitario para llevar los muertos del pueblo de Vera de Erques al cementerio de Guía.",
        "source": "GPS"
      }
    },
    {
      "type": "node",
      "id": 1390573764,
      "lat": 28.1774676,
      "lon": -16.7440785,
      "timestamp": "2019-07-16T22:31:00Z",
      "version": 3,
      "changeset": 72324990,
      "user": "Juan_Carlos_G_F-imports",
      "uid": 2802925,
      "tags": {
        "name": "La Vista",
        "place": "hamlet",
        "source": "GRAFCAN OrtoExpress Urbana 2009"
      }
    },
    {
      "type": "node",
      "id": 1391684353,
      "lat": 28.1604878,
      "lon": -16.7659082,
      "timestamp": "2011-08-08T23:59:14Z",
      "version": 1,
      "changeset": 8962809,
      "user": "Javier Sanchez",
      "uid": 47882,
      "tags": {
        "name": "Mini Market Tijoco Bajo",
        "shop": "convenience"
      }
    },
    {
      "type": "node",
      "id": 1393015925,
      "lat": 28.1790999,
      "lon": -16.8119221,
      "timestamp": "2018-09-24T16:22:21Z",
      "version": 2,
      "changeset": 62886453,
      "user": "Rutas de Tenerife",
      "uid": 4228995,
      "tags": {
        "access": "no",
        "barrier": "wall",
        "name": "Cueva del Burro",
        "natural": "cave_entrance",
        "note:es": "Tubo volcánico grande"
      }
    },
    {
      "type": "node",
      "id": 1400818140,
      "lat": 28.0945453,
      "lon": -16.7293313,
      "timestamp": "2011-11-22T22:03:30Z",
      "version": 3,
      "changeset": 9914451,
      "user": "Sergey Astakhov",
      "uid": 143266,
      "tags": {
        "name": "Fruteria",
        "shop": "convenience"
      }
    },
    {
      "type": "node",
      "id": 1423480823,
      "lat": 28.1704236,
      "lon": -16.7257567,
      "timestamp": "2018-03-15T23:31:55Z",
      "version": 2,
      "changeset": 57227433,
      "user": "gamma2007",
      "uid": 7471284,
      "tags": {
        "amenity": "drinking_water",
        "name": "No funciona",
        "name:en": "Not working",
        "name:ru": "Не работает"
      }
    },
    {
      "type": "node",
      "id": 1437107925,
      "lat": 28.3002955,
      "lon": -16.3879244,
      "timestamp": "2020-03-26T10:16:26Z",
      "version": 3,
      "changeset": 82654116,
      "user": "Emilio Gomez",
      "uid": 2904,
      "tags": {
        "name": "Montaña de los Guirres",
        "natural": "peak",
        "source": "GRAFCAN OrtoExpress Urbana 2009",
        "wikidata": "Q23984365"
      }
    },
    {
      "type": "node",
      "id": 1437814542,
      "lat": 28.2308201,
      "lon": -16.4560822,
      "timestamp": "2019-07-16T22:31:00Z",
      "version": 3,
      "changeset": 72324990,
      "user": "Juan_Carlos_G_F-imports",
      "uid": 2802925,
      "tags": {
        "name": "Sabina Alta",
        "place": "hamlet",
        "population": "129",
        "population:date": "2017",
        "ref:ine": "38012000500",
        "source": "Instituto Geográfico Nacional",
        "source:date": "2011-06",
        "source:file": "http://centrodedescargas.cnig.es/CentroDescargas/equipamiento/BD_Municipios-Entidades.zip",
        "source:name": "Nomenclátor Geográfico de Municipios y Entidades de Población"
      }
    },
    {
      "type": "node",
      "id": 1437814560,
      "lat": 28.2200566,
      "lon": -16.4491294,
      "timestamp": "2019-07-16T22:31:00Z",
      "version": 3,
      "changeset": 72324990,
      "user": "Juan_Carlos_G_F-imports",
      "uid": 2802925,
      "tags": {
        "ele": "383",
        "name": "Cruz del Roque",
        "place": "hamlet",
        "population": "239",
        "population:date": "2017",
        "ref:ine": "38012000100",
        "source": "Instituto Geográfico Nacional",
        "source:date": "2011-06",
        "source:ele": "MDT5",
        "source:file": "http://centrodedescargas.cnig.es/CentroDescargas/equipamiento/BD_Municipios-Entidades.zip",
        "source:name": "Nomenclátor Geográfico de Municipios y Entidades de Población"
      }
    },
    {
      "type": "node",
      "id": 1437814647,
      "lat": 28.2493733,
      "lon": -16.3986654,
      "timestamp": "2019-07-16T22:31:00Z",
      "version": 3,
      "changeset": 72324990,
      "user": "Juan_Carlos_G_F-imports",
      "uid": 2802925,
      "tags": {
        "ele": "13",
        "name": "La Puente",
        "place": "hamlet",
        "population": "114",
        "population:date": "2017",
        "ref:ine": "38020001100",
        "source": "Instituto Geográfico Nacional",
        "source:date": "2011-06",
        "source:ele": "MDT5",
        "source:file": "http://centrodedescargas.cnig.es/CentroDescargas/equipamiento/BD_Municipios-Entidades.zip",
        "source:name": "Nomenclátor Geográfico de Municipios y Entidades de Población"
      }
    },
    {
      "type": "node",
      "id": 1437814676,
      "lat": 28.1726018,
      "lon": -16.4976828,
      "timestamp": "2019-07-16T22:31:00Z",
      "version": 3,
      "changeset": 72324990,
      "user": "Juan_Carlos_G_F-imports",
      "uid": 2802925,
      "tags": {
        "ele": "509",
        "name": "Los Gavilanes",
        "place": "hamlet",
        "population": "227",
        "population:date": "2017",
        "ref:ine": "38005001100",
        "source": "Instituto Geográfico Nacional",
        "source:date": "2011-06",
        "source:ele": "MDT5",
        "source:file": "http://centrodedescargas.cnig.es/CentroDescargas/equipamiento/BD_Municipios-Entidades.zip",
        "source:name": "Nomenclátor Geográfico de Municipios y Entidades de Población"
      }
    },
    {
      "type": "node",
      "id": 1437814724,
      "lat": 28.1367106,
      "lon": -16.6521433,
      "timestamp": "2019-07-16T22:31:00Z",
      "version": 5,
      "changeset": 72324990,
      "user": "Juan_Carlos_G_F-imports",
      "uid": 2802925,
      "tags": {
        "ele": "1236",
        "name": "Trevejos",
        "place": "hamlet",
        "population": "41",
        "population:date": "2009",
        "ref:ine": "38052000300",
        "source": "Instituto Geográfico Nacional",
        "source:date": "2011-06",
        "source:ele": "MDT5",
        "source:file": "http://centrodedescargas.cnig.es/CentroDescargas/equipamiento/BD_Municipios-Entidades.zip",
        "source:name": "Nomenclátor Geográfico de Municipios y Entidades de Población",
        "wikidata": "Q6152272",
        "wikipedia": "es:Trevejos"
      }
    },
    {
      "type": "node",
      "id": 1437814750,
      "lat": 28.2602638,
      "lon": -16.3927934,
      "timestamp": "2019-07-16T22:31:00Z",
      "version": 3,
      "changeset": 72324990,
      "user": "Juan_Carlos_G_F-imports",
      "uid": 2802925,
      "tags": {
        "ele": "4",
        "name": "Los Barrancos",
        "place": "hamlet",
        "population": "77",
        "population:date": "2017",
        "ref:ine": "38020000200",
        "source": "Instituto Geográfico Nacional",
        "source:date": "2011-06",
        "source:ele": "MDT5",
        "source:file": "http://centrodedescargas.cnig.es/CentroDescargas/equipamiento/BD_Municipios-Entidades.zip",
        "source:name": "Nomenclátor Geográfico de Municipios y Entidades de Población"
      }
    },
    {
      "type": "node",
      "id": 1437814751,
      "lat": 28.1109921,
      "lon": -16.6458348,
      "timestamp": "2019-07-16T22:31:00Z",
      "version": 5,
      "changeset": 72324990,
      "user": "Juan_Carlos_G_F-imports",
      "uid": 2802925,
      "tags": {
        "ele": "850",
        "name": "Jama",
        "place": "hamlet",
        "population": "129",
        "population:date": "2009",
        "ref:ine": "38052000200",
        "source": "Instituto Geográfico Nacional",
        "source:date": "2011-06",
        "source:ele": "MDT5",
        "source:file": "http://centrodedescargas.cnig.es/CentroDescargas/equipamiento/BD_Municipios-Entidades.zip",
        "source:name": "Nomenclátor Geográfico de Municipios y Entidades de Población",
        "wikidata": "Q5925629",
        "wikipedia": "es:Jama (Vilaflor)"
      }
    },
    {
      "type": "node",
      "id": 1437816615,
      "lat": 28.2480974,
      "lon": -16.3998718,
      "timestamp": "2019-07-16T22:31:00Z",
      "version": 3,
      "changeset": 72324990,
      "user": "Juan_Carlos_G_F-imports",
      "uid": 2802925,
      "tags": {
        "ele": "20",
        "name": "Chimaje",
        "place": "hamlet",
        "population": "33",
        "population:date": "2017",
        "ref:ine": "38020000400",
        "source": "Instituto Geográfico Nacional",
        "source:date": "2011-06",
        "source:ele": "MDT5",
        "source:file": "http://centrodedescargas.cnig.es/CentroDescargas/equipamiento/BD_Municipios-Entidades.zip",
        "source:name": "Nomenclátor Geográfico de Municipios y Entidades de Población"
      }
    },
    {
      "type": "node",
      "id": 1437816691,
      "lat": 28.0727381,
      "lon": -16.7174615,
      "timestamp": "2019-07-16T22:31:00Z",
      "version": 3,
      "changeset": 72324990,
      "user": "Juan_Carlos_G_F-imports",
      "uid": 2802925,
      "tags": {
        "name": "La Caldera",
        "place": "hamlet",
        "population": "63",
        "population:date": "2009",
        "ref:ine": "38001000400",
        "source": "Instituto Geográfico Nacional",
        "source:date": "2011-06",
        "source:file": "http://centrodedescargas.cnig.es/CentroDescargas/equipamiento/BD_Municipios-Entidades.zip",
        "source:name": "Nomenclátor Geográfico de Municipios y Entidades de Población"
      }
    },
    {
      "type": "node",
      "id": 1447160147,
      "lat": 28.0687142,
      "lon": -16.7316971,
      "timestamp": "2014-10-03T15:07:37Z",
      "version": 2,
      "changeset": 25832658,
      "user": "EinKonstanzer",
      "uid": 128720,
      "tags": {
        "name": "Palm Beach",
        "shop": "convenience"
      }
    },
    {
      "type": "node",
      "id": 1447906609,
      "lat": 28.087801,
      "lon": -16.726397,
      "timestamp": "2011-11-28T18:50:09Z",
      "version": 2,
      "changeset": 9980765,
      "user": "Sergey Astakhov",
      "uid": 143266,
      "tags": {
        "name": "Mini Market",
        "opening_hours": "09:00-17:00",
        "shop": "convenience"
      }
    },
    {
      "type": "node",
      "id": 1450817599,
      "lat": 28.0846455,
      "lon": -16.7319197,
      "timestamp": "2011-11-21T20:53:22Z",
      "version": 2,
      "changeset": 9901782,
      "user": "Sergey Astakhov",
      "uid": 143266,
      "tags": {
        "name": "Rio",
        "shop": "supermarket"
      }
    },
    {
      "type": "node",
      "id": 1465465972,
      "lat": 28.1714353,
      "lon": -16.4884689,
      "timestamp": "2011-10-13T17:27:49Z",
      "version": 1,
      "changeset": 9549143,
      "user": "Javier Sanchez",
      "uid": 47882,
      "tags": {
        "name": "El Viso",
        "place": "hamlet"
      }
    },
    {
      "type": "node",
      "id": 1470041891,
      "lat": 28.167011,
      "lon": -16.4926625,
      "timestamp": "2018-04-11T12:04:05Z",
      "version": 2,
      "changeset": 58001100,
      "user": "Javier Sanchez",
      "uid": 47882,
      "tags": {
        "name": "Teguedite",
        "place": "hamlet",
        "population": "84",
        "population:date": "2017",
        "ref:ine": "38005001102"
      }
    },
    {
      "type": "node",
      "id": 1470042165,
      "lat": 28.1678026,
      "lon": -16.5027574,
      "timestamp": "2013-11-27T09:35:06Z",
      "version": 2,
      "changeset": 19140733,
      "user": "Javier Sanchez",
      "uid": 47882,
      "tags": {
        "amenity": "drinking_water",
        "disused": "yes",
        "start_date": "1964"
      }
    },
    {
      "type": "node",
      "id": 1470889408,
      "lat": 28.220365,
      "lon": -16.5727154,
      "timestamp": "2011-10-17T16:35:36Z",
      "version": 1,
      "changeset": 9583618,
      "user": "Javier Sanchez",
      "uid": 47882,
      "tags": {
        "fixme": "refine position",
        "name": "Fuente la Piedra",
        "natural": "spring",
        "source": "local_knowledge"
      }
    },
    {
      "type": "node",
      "id": 1505366279,
      "lat": 28.0246149,
      "lon": -16.6088433,
      "timestamp": "2013-01-30T15:18:55Z",
      "version": 3,
      "changeset": 14848834,
      "user": "tiger",
      "uid": 338866,
      "tags": {
        "name": "Best Buys",
        "opening_hours": "Mo-Su 08:00-21:00",
        "shop": "convenience"
      }
    },
    {
      "type": "node",
      "id": 1505366340,
      "lat": 28.0283627,
      "lon": -16.6007351,
      "timestamp": "2019-12-21T17:07:46Z",
      "version": 3,
      "changeset": 78717225,
      "user": "jaakkoh",
      "uid": 24440,
      "tags": {
        "name": "HiperDino Express",
        "opening_hours": "Mo-Su 08:00-22:00",
        "phone": "+34 922 73 86 55",
        "shop": "supermarket",
        "website": "https://hiperdinoexpress.com/"
      }
    },
    {
      "type": "node",
      "id": 1505366342,
      "lat": 28.0274701,
      "lon": -16.6064116,
      "timestamp": "2017-09-20T08:52:57Z",
      "version": 2,
      "changeset": 52203869,
      "user": "PriNova",
      "uid": 5121604,
      "tags": {
        "name": "Now",
        "shop": "convenience"
      }
    },
    {
      "type": "node",
      "id": 1505366417,
      "lat": 28.0290826,
      "lon": -16.6107378,
      "timestamp": "2021-01-24T13:57:19Z",
      "version": 3,
      "changeset": 98058153,
      "user": "sanchi",
      "uid": 170106,
      "tags": {
        "name": "Dialprix supermarket",
        "old_name": "Price Rite",
        "opening_hours": "Mo-Su 08:30-21:00",
        "phone": "+34 900 10 7010",
        "shop": "convenience"
      }
    },
    {
      "type": "node",
      "id": 1505366799,
      "lat": 28.0279696,
      "lon": -16.6109209,
      "timestamp": "2019-12-23T09:16:18Z",
      "version": 2,
      "changeset": 78764481,
      "user": "jaakkoh",
      "uid": 24440,
      "tags": {
        "name": "Supermarket Pirineos",
        "shop": "convenience"
      }
    },
    {
      "type": "node",
      "id": 1509917377,
      "lat": 28.0864502,
      "lon": -16.7345474,
      "timestamp": "2019-05-11T10:04:04Z",
      "version": 3,
      "changeset": 70133627,
      "user": "Ingvar 13",
      "uid": 3996175,
      "tags": {
        "addr:postcode": "38660",
        "addr:street": "Calle Londres",
        "name": "HiperDino Express",
        "opening_hours": "Mo-Su 08:00-22:00",
        "shop": "supermarket",
        "website": "http://hiperdinoexpress.es"
      }
    },
    {
      "type": "node",
      "id": 1509917384,
      "lat": 28.0856109,
      "lon": -16.7345773,
      "timestamp": "2019-11-06T10:23:14Z",
      "version": 2,
      "changeset": 76690767,
      "user": "joihoin",
      "uid": 10431041,
      "tags": {
        "name": "Supermarket",
        "shop": "supermarket"
      }
    },
    {
      "type": "node",
      "id": 1516964674,
      "lat": 28.0866148,
      "lon": -16.7356646,
      "timestamp": "2011-11-25T21:19:34Z",
      "version": 1,
      "changeset": 9948822,
      "user": "Sergey Astakhov",
      "uid": 143266,
      "tags": {
        "name": "Fanabe",
        "opening_hours": "24/7",
        "shop": "supermarket"
      }
    },
    {
      "type": "node",
      "id": 1519337950,
      "lat": 28.0863687,
      "lon": -16.7369092,
      "timestamp": "2011-11-27T11:22:12Z",
      "version": 1,
      "changeset": 9965391,
      "user": "Sergey Astakhov",
      "uid": 143266,
      "tags": {
        "name": "Bazar Vistas",
        "shop": "convenience"
      }
    },
    {
      "type": "node",
      "id": 1519338991,
      "lat": 28.0863119,
      "lon": -16.736877,
      "timestamp": "2019-06-02T11:58:37Z",
      "version": 2,
      "changeset": 70855040,
      "user": "Alex Ship",
      "uid": 8819820,
      "tags": {
        "name": "HiperDino Express",
        "opening_hours": "09:00-21:00",
        "shop": "supermarket"
      }
    },
    {
      "type": "node",
      "id": 1526460234,
      "lat": 28.0817968,
      "lon": -16.7331862,
      "timestamp": "2019-07-01T21:15:08Z",
      "version": 4,
      "changeset": 71800048,
      "user": "Ingvar 13",
      "uid": 3996175,
      "tags": {
        "addr:postcode": "38660",
        "addr:street": "Avenida de España",
        "name": "HiperDino Express",
        "opening_hours": "Mo-Su 08:00-23:00",
        "phone": "+34922718072",
        "shop": "supermarket",
        "website": "http://www.hipetdinoexpress.es"
      }
    },
    {
      "type": "node",
      "id": 1528344708,
      "lat": 28.0874477,
      "lon": -16.7377353,
      "timestamp": "2011-12-02T13:56:15Z",
      "version": 1,
      "changeset": 10016853,
      "user": "Sergey Astakhov",
      "uid": 143266,
      "tags": {
        "name": "Simran",
        "shop": "convenience"
      }
    },
    {
      "type": "node",
      "id": 1528381651,
      "lat": 28.0911586,
      "lon": -16.741532,
      "timestamp": "2020-06-06T17:19:18Z",
      "version": 5,
      "changeset": 86285861,
      "user": "Hugoren Martinako",
      "uid": 3392826,
      "tags": {
        "brand": "Spar",
        "brand:wikidata": "Q610492",
        "brand:wikipedia": "en:Spar (retailer)",
        "name": "Spar",
        "shop": "supermarket"
      }
    },
    {
      "type": "node",
      "id": 1535145291,
      "lat": 28.0870975,
      "lon": -16.7326713,
      "timestamp": "2011-12-07T11:13:07Z",
      "version": 1,
      "changeset": 10056826,
      "user": "Sergey Astakhov",
      "uid": 143266,
      "tags": {
        "name": "Spanish Style",
        "shop": "convenience"
      }
    },
    {
      "type": "node",
      "id": 1541240819,
      "lat": 28.0861509,
      "lon": -16.7305172,
      "timestamp": "2020-01-23T10:15:10Z",
      "version": 2,
      "changeset": 79967769,
      "user": "Jonas Hansen",
      "uid": 30930,
      "tags": {
        "name": "Supermarket Playa Olid",
        "shop": "convenience"
      }
    },
    {
      "type": "node",
      "id": 1611060599,
      "lat": 28.1217981,
      "lon": -16.4624534,
      "timestamp": "2019-07-16T22:31:01Z",
      "version": 8,
      "changeset": 72324990,
      "user": "Juan_Carlos_G_F-imports",
      "uid": 2802925,
      "tags": {
        "name": "La Jaca",
        "place": "hamlet",
        "population": "398",
        "population:date": "2017",
        "ref:ine": "38005001806",
        "wikidata": "Q5963922",
        "wikipedia": "es:La Jaca"
      }
    },
    {
      "type": "node",
      "id": 1611060600,
      "lat": 28.1056454,
      "lon": -16.4735152,
      "timestamp": "2019-07-16T22:31:01Z",
      "version": 4,
      "changeset": 72324990,
      "user": "Juan_Carlos_G_F-imports",
      "uid": 2802925,
      "tags": {
        "name": "Las Arenas",
        "place": "hamlet",
        "population": "106",
        "population:date": "2017",
        "ref:ine": "38005001802"
      }
    },
    {
      "type": "node",
      "id": 1644510404,
      "lat": 28.1734942,
      "lon": -16.7387221,
      "timestamp": "2019-11-19T18:58:45Z",
      "version": 2,
      "changeset": 77287893,
      "user": "TommiG",
      "uid": 6096256,
      "tags": {
        "description": "basaltic rock shelter",
        "name": "Cueva Fría",
        "natural": "cave_entrance",
        "wheelchair": "no"
      }
    },
    {
      "type": "node",
      "id": 1644510408,
      "lat": 28.1753784,
      "lon": -16.7328118,
      "timestamp": "2012-02-23T18:04:54Z",
      "version": 1,
      "changeset": 10770634,
      "user": "Javier Sanchez",
      "uid": 47882,
      "tags": {
        "name": "El Dornajito",
        "natural": "spring",
        "source": "GPS"
      }
    },
    {
      "type": "node",
      "id": 1644510413,
      "lat": 28.175397,
      "lon": -16.7334631,
      "timestamp": "2012-02-23T18:04:54Z",
      "version": 1,
      "changeset": 10770634,
      "user": "Javier Sanchez",
      "uid": 47882,
      "tags": {
        "intermittent": "yes",
        "name": "Fuente de Tío Arístides",
        "natural": "spring",
        "source": "GPS"
      }
    },
    {
      "type": "node",
      "id": 1644510418,
      "lat": 28.1758576,
      "lon": -16.7287801,
      "timestamp": "2012-02-23T18:04:54Z",
      "version": 1,
      "changeset": 10770634,
      "user": "Javier Sanchez",
      "uid": 47882,
      "tags": {
        "fixme": "position",
        "name": "Las Goteras",
        "natural": "spring",
        "source": "knowledge"
      }
    },
    {
      "type": "node",
      "id": 1650947743,
      "lat": 28.2109518,
      "lon": -16.6925115,
      "timestamp": "2020-03-26T10:16:30Z",
      "version": 4,
      "changeset": 82654116,
      "user": "Emilio Gomez",
      "uid": 2904,
      "tags": {
        "alt_name": "Los Colorados",
        "ele": "2192",
        "name": "Montaña Gangarro",
        "natural": "peak",
        "wikidata": "Q23986074"
      }
    },
    {
      "type": "node",
      "id": 1652264354,
      "lat": 28.2098433,
      "lon": -16.777933,
      "timestamp": "2012-02-28T23:24:59Z",
      "version": 1,
      "changeset": 10823838,
      "user": "Javier Sanchez",
      "uid": 47882,
      "tags": {
        "amenity": "drinking_water",
        "historic": "yes",
        "name": "Los Chorros"
      }
    },
    {
      "type": "node",
      "id": 1684992578,
      "lat": 28.1063076,
      "lon": -16.6919909,
      "timestamp": "2021-04-26T13:58:26Z",
      "version": 2,
      "changeset": 103642281,
      "user": "Javier Sanchez",
      "uid": 47882,
      "tags": {
        "natural": "cave_entrance"
      }
    },
    {
      "type": "node",
      "id": 1701806534,
      "lat": 28.1085853,
      "lon": -16.6512368,
      "timestamp": "2013-11-09T07:48:03Z",
      "version": 3,
      "changeset": 18794915,
      "user": "Javier Sanchez",
      "uid": 47882,
      "tags": {
        "name": "Casas Altas",
        "place": "hamlet"
      }
    },
    {
      "type": "node",
      "id": 1701806555,
      "lat": 28.176061,
      "lon": -16.7442494,
      "timestamp": "2019-07-16T22:31:01Z",
      "version": 2,
      "changeset": 72324990,
      "user": "Juan_Carlos_G_F-imports",
      "uid": 2802925,
      "tags": {
        "name": "Cho Babín",
        "place": "hamlet"
      }
    },
    {
      "type": "node",
      "id": 1701806577,
      "lat": 28.1733525,
      "lon": -16.7446386,
      "timestamp": "2019-07-16T22:31:01Z",
      "version": 3,
      "changeset": 72324990,
      "user": "Juan_Carlos_G_F-imports",
      "uid": 2802925,
      "tags": {
        "name": "El Hoyo",
        "place": "hamlet"
      }
    },
    {
      "type": "node",
      "id": 1701806597,
      "lat": 28.1755125,
      "lon": -16.7431563,
      "timestamp": "2019-07-16T22:31:01Z",
      "version": 2,
      "changeset": 72324990,
      "user": "Juan_Carlos_G_F-imports",
      "uid": 2802925,
      "tags": {
        "name": "La Casa Quemada",
        "place": "hamlet"
      }
    },
    {
      "type": "node",
      "id": 1701806601,
      "lat": 28.1770658,
      "lon": -16.7512442,
      "timestamp": "2019-07-16T22:31:01Z",
      "version": 2,
      "changeset": 72324990,
      "user": "Juan_Carlos_G_F-imports",
      "uid": 2802925,
      "tags": {
        "alt_name": "La Cueva de la Teja",
        "name": "La Colateja",
        "place": "hamlet"
      }
    },
    {
      "type": "node",
      "id": 1701806613,
      "lat": 28.1757091,
      "lon": -16.7457277,
      "timestamp": "2019-07-16T22:31:01Z",
      "version": 2,
      "changeset": 72324990,
      "user": "Juan_Carlos_G_F-imports",
      "uid": 2802925,
      "tags": {
        "name": "La Era",
        "place": "hamlet"
      }
    },
    {
      "type": "node",
      "id": 1701806615,
      "lat": 28.172853,
      "lon": -16.7424797,
      "timestamp": "2019-07-16T22:31:01Z",
      "version": 2,
      "changeset": 72324990,
      "user": "Juan_Carlos_G_F-imports",
      "uid": 2802925,
      "tags": {
        "name": "La Morra",
        "place": "hamlet"
      }
    },
    {
      "type": "node",
      "id": 1701806616,
      "lat": 28.1746193,
      "lon": -16.7455512,
      "timestamp": "2019-07-16T22:31:01Z",
      "version": 5,
      "changeset": 72324990,
      "user": "Juan_Carlos_G_F-imports",
      "uid": 2802925,
      "tags": {
        "name": "La Parepino",
        "place": "hamlet",
        "wikidata": "Q6160488",
        "wikipedia": "es:Vera de Erques"
      }
    },
    {
      "type": "node",
      "id": 1701806657,
      "lat": 28.1739567,
      "lon": -16.7415571,
      "timestamp": "2019-07-16T22:31:01Z",
      "version": 2,
      "changeset": 72324990,
      "user": "Juan_Carlos_G_F-imports",
      "uid": 2802925,
      "tags": {
        "name": "Llano el Pino",
        "place": "hamlet"
      }
    },
    {
      "type": "node",
      "id": 1701806659,
      "lat": 28.1736143,
      "lon": -16.7437794,
      "timestamp": "2019-07-16T22:31:01Z",
      "version": 2,
      "changeset": 72324990,
      "user": "Juan_Carlos_G_F-imports",
      "uid": 2802925,
      "tags": {
        "name": "Lomo Arriba",
        "place": "hamlet"
      }
    },
    {
      "type": "node",
      "id": 1701806675,
      "lat": 28.1744373,
      "lon": -16.7426922,
      "timestamp": "2019-07-16T22:31:01Z",
      "version": 2,
      "changeset": 72324990,
      "user": "Juan_Carlos_G_F-imports",
      "uid": 2802925,
      "tags": {
        "name": "Los Morros",
        "place": "hamlet"
      }
    },
    {
      "type": "node",
      "id": 1707666976,
      "lat": 28.1653438,
      "lon": -16.7370508,
      "timestamp": "2012-04-08T21:36:15Z",
      "version": 2,
      "changeset": 11231179,
      "user": "Javier Sanchez",
      "uid": 47882,
      "tags": {
        "name": "Cercado el Pino",
        "place": "hamlet"
      }
    },
    {
      "type": "node",
      "id": 1707666984,
      "lat": 28.1768406,
      "lon": -16.7467238,
      "timestamp": "2019-07-16T22:31:01Z",
      "version": 2,
      "changeset": 72324990,
      "user": "Juan_Carlos_G_F-imports",
      "uid": 2802925,
      "tags": {
        "name": "El Portillo",
        "place": "hamlet"
      }
    },
    {
      "type": "node",
      "id": 1707666985,
      "lat": 28.1711784,
      "lon": -16.7283332,
      "timestamp": "2012-04-08T21:04:07Z",
      "version": 1,
      "changeset": 11230859,
      "user": "Javier Sanchez",
      "uid": 47882,
      "tags": {
        "name": "Fuente Tijoco Arriba",
        "natural": "spring"
      }
    },
    {
      "type": "node",
      "id": 1707667008,
      "lat": 28.1615541,
      "lon": -16.7353652,
      "timestamp": "2012-04-08T21:04:09Z",
      "version": 1,
      "changeset": 11230859,
      "user": "Javier Sanchez",
      "uid": 47882,
      "tags": {
        "name": "Yé",
        "place": "hamlet"
      }
    },
    {
      "type": "node",
      "id": 1707693034,
      "lat": 28.1514382,
      "lon": -16.7545193,
      "timestamp": "2012-04-08T21:36:10Z",
      "version": 1,
      "changeset": 11231179,
      "user": "Javier Sanchez",
      "uid": 47882,
      "tags": {
        "name": "La Curte",
        "place": "hamlet"
      }
    },
    {
      "type": "node",
      "id": 1712608170,
      "lat": 28.0830092,
      "lon": -16.7262778,
      "timestamp": "2020-05-01T15:11:26Z",
      "version": 2,
      "changeset": 84478064,
      "user": "Nathan Hobbs",
      "uid": 11112522,
      "tags": {
        "name": "Pay Less II",
        "opening_hours:covid19": "off",
        "shop": "convenience"
      }
    },
    {
      "type": "node",
      "id": 1722097123,
      "lat": 28.2434756,
      "lon": -16.711507,
      "timestamp": "2020-03-26T10:16:33Z",
      "version": 3,
      "changeset": 82654116,
      "user": "Emilio Gomez",
      "uid": 2904,
      "tags": {
        "ele": "2023",
        "name": "Montaña de Chasogo",
        "natural": "peak",
        "wikidata": "Q23986879"
      }
    },
    {
      "type": "node",
      "id": 1739016447,
      "lat": 28.099388,
      "lon": -16.5930351,
      "timestamp": "2012-05-03T08:25:53Z",
      "version": 1,
      "changeset": 11486594,
      "user": "Javier Sanchez",
      "uid": 47882,
      "tags": {
        "name": "El Barrero",
        "place": "hamlet"
      }
    },
    {
      "type": "node",
      "id": 1739016456,
      "lat": 28.1343866,
      "lon": -16.5309331,
      "timestamp": "2018-04-09T09:44:04Z",
      "version": 2,
      "changeset": 57935565,
      "user": "Jesús Gómez",
      "uid": 6389,
      "tags": {
        "name": "Minimarket Marisol",
        "shop": "convenience"
      }
    },
    {
      "type": "node",
      "id": 1768147006,
      "lat": 28.1299307,
      "lon": -16.7810301,
      "timestamp": "2019-12-15T17:17:23Z",
      "version": 4,
      "changeset": 78435228,
      "user": "JonasCz",
      "uid": 9382746,
      "tags": {
        "name": "SUPERguai",
        "shop": "supermarket"
      }
    },
    {
      "type": "node",
      "id": 1777099394,
      "lat": 28.1635456,
      "lon": -16.4332298,
      "timestamp": "2012-06-05T13:51:08Z",
      "version": 1,
      "changeset": 11806329,
      "user": "tiger",
      "uid": 338866,
      "tags": {
        "name": "Gama",
        "shop": "convenience"
      }
    },
    {
      "type": "node",
      "id": 1780451433,
      "lat": 28.271285,
      "lon": -16.8185032,
      "timestamp": "2012-06-08T14:57:17Z",
      "version": 1,
      "changeset": 11835811,
      "user": "tiger",
      "uid": 338866,
      "tags": {
        "name": "Cristina",
        "shop": "supermarket"
      }
    },
    {
      "type": "node",
      "id": 1780848489,
      "lat": 28.2713011,
      "lon": -16.54926,
      "timestamp": "2012-06-08T21:15:43Z",
      "version": 1,
      "changeset": 11839636,
      "user": "adayper",
      "uid": 237491,
      "tags": {
        "name": "Cueva de Diego Hernández",
        "natural": "cave_entrance"
      }
    },
    {
      "type": "node",
      "id": 1838018947,
      "lat": 28.1067487,
      "lon": -16.7309908,
      "timestamp": "2012-07-25T19:34:26Z",
      "version": 1,
      "changeset": 12490728,
      "user": "taitog",
      "uid": 716254,
      "tags": {
        "name": "HiperDino CC",
        "shop": "supermarket"
      }
    },