{
  "osm3s": {
    "timestamp_osm_date": "2022-01-19T23:59:59Z",
    "timestamp_osm_base": "2022-01-20T01:28:10Z",
    "copyright": "The data included in this document is from www.openstreetmap.org. The data is made available under ODbL."
  },
  "elements": [
    {
      "type": "node",
      "id": 55196051,
      "lat": -38.1511747,
      "lon": 146.7878527,
      "timestamp": "2007-09-20T14:03:14Z",
      "version": 1,
      "changeset": 479278,
      "user": "mlenser",
      "uid": 12254,
      "tags": {
        "created_by": "JOSM",
        "name": "Rosedale",
        "place": "village"
      }
    },
    {
      "type": "node",
      "id": 55196056,
      "lat": -38.168808,
      "lon": 146.6952701,
      "timestamp": "2007-09-20T14:03:14Z",
      "version": 1,
      "changeset": 479278,
      "user": "mlenser",
      "uid": 12254,
      "tags": {
        "created_by": "JOSM",
        "name": "Flynn",
        "place": "hamlet"
      }
    },
    {
      "type": "node",
      "id": 55196068,
      "lat": -38.2365734,
      "lon": 146.3993983,
      "timestamp": "2017-09-10T04:58:37Z",
      "version": 8,
      "changeset": 51897225,
      "user": "nyuriks",
      "uid": 339581,
      "tags": {
        "is_in:country": "Australia",
        "is_in:country_code": "AU",
        "name": "Morwell",
        "place": "town",
        "wikidata": "Q72337",
        "wikipedia": "en:Morwell, Victoria"
      }
    },
    {
      "type": "node",
      "id": 56921985,
      "lat": -38.1775203,
      "lon": 146.2618944,
      "timestamp": "2017-01-13T10:53:45Z",
      "version": 10,
      "changeset": 45129892,
      "user": "krealm",
      "uid": 3472625,
      "tags": {
        "is_in:country": "Australia",
        "is_in:country_code": "AU",
        "name": "Moe",
        "name:ru": "Моэ",
        "place": "town",
        "wikidata": "Q1420012",
        "wikipedia": "en:Moe, Victoria"
      }
    },
    {
      "type": "node",
      "id": 59653740,
      "lat": -38.1259365,
      "lon": 146.5729685,
      "timestamp": "2022-01-09T10:12:09Z",
      "version": 3,
      "changeset": 115935662,
      "user": "Ewen Hill",
      "uid": 935037,
      "tags": {
        "name": "Glengarry",
        "place": "village"
      }
    },
    {
      "type": "node",
      "id": 59653742,
      "lat": -38.1486996,
      "lon": 146.4802622,
      "timestamp": "2019-02-08T11:42:58Z",
      "version": 4,
      "changeset": 67022685,
      "user": "Omegaville",
      "uid": 416301,
      "tags": {
        "name": "Tyers",
        "place": "hamlet"
      }
    },
    {
      "type": "node",
      "id": 59728919,
      "lat": -37.9816865,
      "lon": 146.7847464,
      "timestamp": "2019-04-17T15:49:17Z",
      "version": 4,
      "changeset": 69314801,
      "user": "Edward",
      "uid": 364,
      "tags": {
        "name": "Heyfield",
        "place": "town",
        "wikidata": "Q1616962"
      }
    },
    {
      "type": "node",
      "id": 59728920,
      "lat": -38.0594199,
      "lon": 146.6238386,
      "timestamp": "2007-09-25T11:25:38Z",
      "version": 1,
      "changeset": 516653,
      "user": "mlenser",
      "uid": 12254,
      "tags": {
        "created_by": "JOSM",
        "name": "Toongabbie",
        "place": "village"
      }
    },
    {
      "type": "node",
      "id": 171095775,
      "lat": -37.9759814,
      "lon": 146.3733338,
      "timestamp": "2020-07-24T01:53:56Z",
      "version": 4,
      "changeset": 88430060,
      "user": "Supt_of_Printing",
      "uid": 206929,
      "tags": {
        "name": "Erica",
        "place": "village"
      }
    },
    {
      "type": "node",
      "id": 171095813,
      "lat": -37.9568186,
      "lon": 146.3996667,
      "timestamp": "2018-03-10T04:04:23Z",
      "version": 5,
      "changeset": 57049890,
      "user": "BalancingBean",
      "uid": 1466296,
      "tags": {
        "is_in": "Victoria, Australia",
        "name": "Rawson",
        "place": "village"
      }
    },
    {
      "type": "node",
      "id": 262269716,
      "lat": -38.1830393,
      "lon": 146.2905163,
      "timestamp": "2017-09-10T04:58:38Z",
      "version": 7,
      "changeset": 51897225,
      "user": "nyuriks",
      "uid": 339581,
      "tags": {
        "is_in:country": "Australia",
        "is_in:country_code": "AU",
        "name": "Newborough",
        "place": "village",
        "wikidata": "Q7017029",
        "wikipedia": "en:Newborough, Victoria"
      }
    },
    {
      "type": "node",
      "id": 275198703,
      "lat": -38.0140074,
      "lon": 146.6964831,
      "timestamp": "2008-07-01T11:33:08Z",
      "version": 1,
      "changeset": 359039,
      "user": "mlenser",
      "uid": 12254,
      "tags": {
        "name": "Cowwarr",
        "place": "hamlet"
      }
    },
    {
      "type": "node",
      "id": 316597040,
      "lat": -38.0234326,
      "lon": 146.3397575,
      "timestamp": "2021-12-06T04:39:39Z",
      "version": 5,
      "changeset": 114602007,
      "user": "Supt_of_Printing",
      "uid": 206929,
      "tags": {
        "name": "Seninis Campground - Moondarra State Park",
        "tourism": "camp_site"
      }
    },
    {
      "type": "node",
      "id": 316597059,
      "lat": -38.1419086,
      "lon": 146.7918979,
      "timestamp": "2013-04-27T12:21:46Z",
      "version": 4,
      "changeset": 15883025,
      "user": "modellerau",
      "uid": 78837,
      "tags": {
        "name": "Willow Park",
        "tourism": "camp_site"
      }
    },
    {
      "type": "node",
      "id": 534489409,
      "lat": -37.9493031,
      "lon": 146.4504705,
      "timestamp": "2021-10-24T04:36:59Z",
      "version": 2,
      "changeset": 112892893,
      "user": "Supt_of_Printing",
      "uid": 206929,
      "tags": {
        "amenity": "shelter",
        "information": "board",
        "tourism": "information"
      }
    },
    {
      "type": "node",
      "id": 534502629,
      "lat": -37.9430785,
      "lon": 146.4494478,
      "timestamp": "2009-10-18T03:18:40Z",
      "version": 1,
      "changeset": 2879395,
      "user": "Rhubarb",
      "uid": 69319,
      "tags": {
        "amenity": "shelter",
        "board_type": "board",
        "description": "Information and map board",
        "information": "board",
        "name": "Australian Alps Walking Track",
        "source": "survey",
        "tourism": "information"
      }
    },
    {
      "type": "node",
      "id": 534502636,
      "lat": -37.9414894,
      "lon": 146.4518281,
      "timestamp": "2021-10-24T05:33:27Z",
      "version": 7,
      "changeset": 112893601,
      "user": "Supt_of_Printing",
      "uid": 206929,
      "tags": {
        "amenity": "shelter",
        "bin": "no",
        "description": "Start/end of the Australian Alps Walking Track.",
        "heritage": "yes",
        "historic": "bandstand",
        "name": "Walhalla Bandstand",
        "shelter_type": "gazebo",
        "source": "survey",
        "tourism": "viewpoint",
        "wheelchair": "no",
        "year_of_construction": "1896"
      }
    },
    {
      "type": "node",
      "id": 702322193,
      "lat": -37.8395353,
      "lon": 146.2758765,
      "timestamp": "2021-11-21T09:05:12Z",
      "version": 3,
      "changeset": 114049841,
      "user": "breno-au",
      "uid": 859676,
      "tags": {
        "ele": "1567",
        "name": "Mount Baw Baw",
        "natural": "peak",
        "source": "Vicmap Lite (data.vic.gov.au)",
        "source:ele": "Wikipedia",
        "wikidata": "Q1162079"
      }
    },
    {
      "type": "node",
      "id": 1221088334,
      "lat": -38.2368061,
      "lon": 146.4294341,
      "timestamp": "2019-06-07T02:30:34Z",
      "version": 4,
      "changeset": 71007831,
      "user": "CloCkWeRX",
      "uid": 172061,
      "tags": {
        "brand": "Woolworths",
        "brand:wikidata": "Q3249145",
        "brand:wikipedia": "en:Woolworths Supermarkets",
        "name": "Woolworths",
        "shop": "supermarket",
        "website": "https://www.woolworths.com.au/"
      }
    },
    {
      "type": "node",
      "id": 1222247271,
      "lat": -38.1939842,
      "lon": 146.5398932,
      "timestamp": "2019-06-07T02:32:08Z",
      "version": 5,
      "changeset": 71007852,
      "user": "CloCkWeRX",
      "uid": 172061,
      "tags": {
        "brand": "Coles",
        "brand:wikidata": "Q1108172",
        "brand:wikipedia": "en:Coles Supermarkets",
        "name": "Coles",
        "shop": "supermarket",
        "website": "https://www.coles.com.au/",
        "wheelchair": "yes"
      }
    },
    {
      "type": "node",
      "id": 1298312458,
      "lat": -37.8534013,
      "lon": 146.4318355,
      "timestamp": "2013-04-28T12:50:43Z",
      "version": 4,
      "changeset": 15895341,
      "user": "gdal",
      "uid": 709684,
      "tags": {
        "name": "Aberfeldy River Campground",
        "tourism": "camp_site"
      }
    },
    {
      "type": "node",
      "id": 1369673207,
      "lat": -37.9623924,
      "lon": 146.8912933,
      "timestamp": "2011-07-22T06:24:51Z",
      "version": 1,
      "changeset": 8794748,
      "user": "stevage",
      "uid": 201443,
      "tags": {
        "name": "Tinamba",
        "place": "village"
      }
    },
    {
      "type": "node",
      "id": 1604746406,
      "lat": -38.1607015,
      "lon": 146.3628955,
      "timestamp": "2012-01-25T10:40:42Z",
      "version": 1,
      "changeset": 10492204,
      "user": "melb_guy",
      "uid": 11111,
      "tags": {
        "name": "Yallourn North",
        "place": "village"
      }
    },
    {
      "type": "node",
      "id": 1661795387,
      "lat": -37.8938553,
      "lon": 146.7843668,
      "timestamp": "2013-09-02T01:08:18Z",
      "version": 2,
      "changeset": 17628342,
      "user": "stevage",
      "uid": 201443,
      "tags": {
        "name": "Coongulla",
        "place": "village"
      }
    },
    {
      "type": "node",
      "id": 1783462879,
      "lat": -37.9798174,
      "lon": 146.3720423,
      "timestamp": "2012-06-14T10:29:39Z",
      "version": 2,
      "changeset": 11893528,
      "user": "steve91",
      "uid": 637652,
      "tags": {
        "amenity": "shelter",
        "source": "survey"
      }
    },
    {
      "type": "node",
      "id": 1789820047,
      "lat": -37.8108138,
      "lon": 146.8542482,
      "timestamp": "2019-06-02T10:55:42Z",
      "version": 4,
      "changeset": 70853905,
      "user": "robmack08",
      "uid": 426969,
      "tags": {
        "name": "Huggetts Crossing Campground",
        "tourism": "camp_site"
      }
    },
    {
      "type": "node",
      "id": 1789888847,
      "lat": -37.8162321,
      "lon": 146.4270611,
      "timestamp": "2012-06-16T12:34:34Z",
      "version": 1,
      "changeset": 11913932,
      "user": "Angyork",
      "uid": 633429,
      "tags": {
        "tourism": "camp_site"
      }
    },
    {
      "type": "node",
      "id": 1789888882,
      "lat": -37.8315353,
      "lon": 146.4208357,
      "timestamp": "2012-06-16T12:34:35Z",
      "version": 1,
      "changeset": 11913932,
      "user": "Angyork",
      "uid": 633429,
      "tags": {
        "tourism": "camp_site"
      }
    },
    {
      "type": "node",
      "id": 1801309580,
      "lat": -37.9061933,
      "lon": 146.801491,
      "timestamp": "2012-06-25T05:18:23Z",
      "version": 1,
      "changeset": 12007026,
      "user": "Angyork",
      "uid": 633429,
      "tags": {
        "amenity": "shelter"
      }
    },
    {
      "type": "node",
      "id": 1808391723,
      "lat": -38.155,
      "lon": 146.765,
      "timestamp": "2013-03-12T04:45:46Z",
      "version": 2,
      "changeset": 15335793,
      "user": "Angyork",
      "uid": 633429,
      "tags": {
        "name": "Blind Joes Creek Rest Area",
        "source": "local knowledge",
        "tourism": "camp_site"
      }
    },
    {
      "type": "node",
      "id": 1808391762,
      "lat": -37.96,
      "lon": 146.33389,
      "timestamp": "2012-07-01T04:20:32Z",
      "version": 1,
      "changeset": 12071859,
      "user": "gdal",
      "uid": 709684,
      "tags": {
        "name": "Caringal Scout Camp",
        "tourism": "camp_site"
      }
    },
    {
      "type": "node",
      "id": 1808391773,
      "lat": -37.7625072,
      "lon": 146.6698608,
      "timestamp": "2012-12-22T05:33:43Z",
      "version": 2,
      "changeset": 14362467,
      "user": "steve91",
      "uid": 637652,
      "tags": {
        "name": "Cheynes Bridge",
        "tourism": "camp_site"
      }
    },
    {
      "type": "node",
      "id": 1808391786,
      "lat": -37.9808609,
      "lon": 146.4243132,
      "timestamp": "2013-04-28T13:18:44Z",
      "version": 3,
      "changeset": 15895677,
      "user": "gdal",
      "uid": 709684,
      "tags": {
        "name": "Coopers Creek Campground",
        "tourism": "camp_site"
      }
    },
    {
      "type": "node",
      "id": 1808391871,
      "lat": -38.20861,
      "lon": 146.84583,
      "timestamp": "2012-07-01T04:20:41Z",
      "version": 1,
      "changeset": 12071859,
      "user": "gdal",
      "uid": 709684,
      "tags": {
        "name": "Harriers Swamp Campground",
        "tourism": "camp_site"
      }
    },
    {
      "type": "node",
      "id": 1808392757,
      "lat": -37.99694,
      "lon": 146.65944,
      "timestamp": "2012-07-01T04:25:12Z",
      "version": 1,
      "changeset": 12071867,
      "user": "gdal",
      "uid": 709684,
      "tags": {
        "name": "Cowwarr Weir",
        "tourism": "camp_site"
      }
    },
    {
      "type": "node",
      "id": 1808394530,
      "lat": -38.17028,
      "lon": 146.49194,
      "timestamp": "2012-07-03T08:02:25Z",
      "version": 2,
      "changeset": 12097364,
      "user": "modellerau",
      "uid": 78837,
      "tags": {
        "name": "Sandbanks Reserve",
        "source": "www.campsaustraliawide.com",
        "tourism": "camp_site"
      }
    },
    {
      "type": "node",
      "id": 1808687856,
      "lat": -38.2390054,
      "lon": 146.3983912,
      "timestamp": "2019-06-07T02:31:13Z",
      "version": 7,
      "changeset": 71007841,
      "user": "CloCkWeRX",
      "uid": 172061,
      "tags": {
        "addr:housenumber": "82",
        "addr:street": "George Street",
        "brand": "Coles",
        "brand:wikidata": "Q1108172",
        "brand:wikipedia": "en:Coles Supermarkets",
        "name": "Coles",
        "shop": "supermarket",
        "source": "local knowledge",
        "website": "https://www.coles.com.au/"
      }
    },
    {
      "type": "node",
      "id": 1872572959,
      "lat": -37.9990344,
      "lon": 146.4716683,
      "timestamp": "2012-08-19T12:07:59Z",
      "version": 1,
      "changeset": 12782592,
      "user": "Angyork",
      "uid": 633429,
      "tags": {
        "tourism": "camp_site"
      }
    },
    {
      "type": "node",
      "id": 1872576614,
      "lat": -37.9995163,
      "lon": 146.4729182,
      "timestamp": "2012-08-19T12:10:27Z",
      "version": 1,
      "changeset": 12782592,
      "user": "Angyork",
      "uid": 633429,
      "tags": {
        "tourism": "camp_site"
      }
    },
    {
      "type": "node",
      "id": 1875326012,
      "lat": -38.1041021,
      "lon": 146.912655,
      "timestamp": "2014-08-29T02:35:24Z",
      "version": 2,
      "changeset": 25086669,
      "user": "B 67",
      "uid": 2295763,
      "tags": {
        "name": "Kilmany",
        "place": "village"
      }
    },
    {
      "type": "node",
      "id": 1934504143,
      "lat": -37.7579784,
      "lon": 146.4018459,
      "timestamp": "2015-01-14T04:26:55Z",
      "version": 3,
      "changeset": 28127396,
      "user": "stevage",
      "uid": 201443,
      "tags": {
        "name": "Junction Hut",
        "tourism": "wilderness_hut"
      }
    },
    {
      "type": "node",
      "id": 1967781389,
      "lat": -37.9673985,
      "lon": 146.4463769,
      "timestamp": "2012-10-16T02:26:51Z",
      "version": 1,
      "changeset": 13513534,
      "user": "nickbarker",
      "uid": 288568,
      "tags": {
        "name": "Happy Go Lucky",
        "place": "hamlet"
      }
    },
    {
      "type": "node",
      "id": 1969289692,
      "lat": -37.9807237,
      "lon": 146.7865174,
      "timestamp": "2020-10-27T10:49:03Z",
      "version": 2,
      "changeset": 93114821,
      "user": "Leon K",
      "uid": 46482,
      "tags": {
        "brand": "IGA",
        "brand:wikidata": "Q3146662",
        "brand:wikipedia": "en:IGA (supermarkets)",
        "name": "IGA",
        "shop": "supermarket"
      }
    },
    {
      "type": "node",
      "id": 1969761698,
      "lat": -37.7232622,
      "lon": 146.7923373,
      "timestamp": "2021-08-22T06:13:36Z",
      "version": 3,
      "changeset": 110048519,
      "user": "breno-au",
      "uid": 859676,
      "tags": {
        "fixme": "Approx location",
        "name": "Golden Point Hut",
        "tourism": "wilderness_hut"
      }
    },
    {
      "type": "node",
      "id": 1993077611,
      "lat": -38.0138706,
      "lon": 146.6955751,
      "timestamp": "2012-11-01T22:32:37Z",
      "version": 1,
      "changeset": 13716398,
      "user": "Angyork",
      "uid": 633429,
      "tags": {
        "name": "Cowwarr General Store",
        "shop": "convenience"
      }
    },
    {
      "type": "node",
      "id": 2035760366,
      "lat": -37.9248045,
      "lon": 146.3846357,
      "timestamp": "2021-05-09T04:41:56Z",
      "version": 5,
      "changeset": 104384029,
      "user": "breno-au",
      "uid": 859676,
      "tags": {
        "alt_name": "O'Sheas Mill Site",
        "fee": "no",
        "name": "Eastern Tyers Camping Area",
        "operator": "Parks Victoria",
        "tourism": "camp_site",
        "website": "https://www.parks.vic.gov.au/places-to-see/sites/eastern-tyers-camping-area"
      }
    },
    {
      "type": "node",
      "id": 2035761196,
      "lat": -37.9572688,
      "lon": 146.4200114,
      "timestamp": "2021-05-09T04:38:14Z",
      "version": 2,
      "changeset": 104383995,
      "user": "breno-au",
      "uid": 859676,
      "tags": {
        "name": "Thompson Bridge Campground",
        "tourism": "camp_site"
      }
    },
    {
      "type": "node",
      "id": 2037291888,
      "lat": -38.1517212,
      "lon": 146.7882204,
      "timestamp": "2012-11-27T22:27:28Z",
      "version": 1,
      "changeset": 14065591,
      "user": "Angyork",
      "uid": 633429,
      "tags": {
        "name": "Rosedale IGA",
        "shop": "supermarket"
      }
    },
    {
      "type": "node",
      "id": 2059104668,
      "lat": -38.1966787,
      "lon": 146.5449976,
      "timestamp": "2012-12-09T23:46:56Z",
      "version": 1,
      "changeset": 14220384,
      "user": "Angyork",
      "uid": 633429,
      "tags": {
        "amenity": "shelter"
      }
    },
    {
      "type": "node",
      "id": 2121908543,
      "lat": -37.9779687,
      "lon": 146.7844879,
      "timestamp": "2013-01-20T23:22:11Z",
      "version": 2,
      "changeset": 14728049,
      "user": "Angyork",
      "uid": 633429,
      "tags": {
        "addr:housenumber": "1",
        "addr:postcode": "3858",
        "addr:street": "Tyson Road",
        "name": "Timberline General Store",
        "shop": "convenience",
        "website": "http://tline.net.au"
      }
    },
    {
      "type": "node",
      "id": 2151189283,
      "lat": -37.9990028,
      "lon": 146.4716754,
      "timestamp": "2013-07-02T03:50:17Z",
      "version": 2,
      "changeset": 16785991,
      "user": "stevage",
      "uid": 201443,
      "tags": {
        "tourism": "camp_site"
      }
    },
    {
      "type": "node",
      "id": 2151453624,
      "lat": -37.9436638,
      "lon": 146.307667,
      "timestamp": "2019-04-17T15:49:45Z",
      "version": 2,
      "changeset": 69314801,
      "user": "Edward",
      "uid": 364,
      "tags": {
        "name": "Western Tyers",
        "place": "locality",
        "tourism": "camp_site",
        "wikidata": "Q7988397"
      }
    },
    {
      "type": "node",
      "id": 2243245758,
      "lat": -37.9801131,
      "lon": 146.7843601,
      "timestamp": "2013-04-01T23:31:21Z",
      "version": 1,
      "changeset": 15575600,
      "user": "Angyork",
      "uid": 633429,
      "tags": {
        "amenity": "shelter",
        "source": "survey"
      }
    },
    {
      "type": "node",
      "id": 2243245760,
      "lat": -37.979953,
      "lon": 146.7842423,
      "timestamp": "2013-04-01T23:31:21Z",
      "version": 1,
      "changeset": 15575600,
      "user": "Angyork",
      "uid": 633429,
      "tags": {
        "amenity": "shelter",
        "source": "survey"
      }
    },
    {
      "type": "node",
      "id": 2243362447,
      "lat": -37.923416,
      "lon": 146.8905576,
      "timestamp": "2013-04-02T00:26:20Z",
      "version": 1,
      "changeset": 15575819,
      "user": "Angyork",
      "uid": 633429,
      "tags": {
        "name": "Newry General Store",
        "shop": "convenience",
        "source": "local knowledge"
      }
    },
    {
      "type": "node",
      "id": 2324019453,
      "lat": -38.1946441,
      "lon": 146.5382327,
      "timestamp": "2019-10-28T13:58:54Z",
      "version": 8,
      "changeset": 76301285,
      "user": "natg3844",
      "uid": 10417479,
      "tags": {
        "is_in:country": "Australia",
        "is_in:country_code": "AU",
        "name": "Traralgon",
        "name:en": "Traralgon",
        "name:ja": "トララルゴン",
        "name:ru": "Траралгон",
        "place": "city",
        "population": "24590",
        "wikidata": "Q249022",
        "wikipedia": "en:Traralgon"
      }
    },
    {
      "type": "node",
      "id": 2346828295,
      "lat": -37.8406205,
      "lon": 146.2648804,
      "timestamp": "2021-03-23T07:41:56Z",
      "version": 3,
      "changeset": 101553532,
      "user": "Julien THIERY",
      "uid": 3782157,
      "tags": {
        "addr:street": "Currawong Road",
        "name": "Mount Baw Baw Alpine Resort",
        "place": "village"
      }
    },
    {
      "type": "node",
      "id": 2389374419,
      "lat": -38.1512909,
      "lon": 146.2512414,
      "timestamp": "2013-07-19T10:36:51Z",
      "version": 1,
      "changeset": 17009255,
      "user": "goldfishxyz",
      "uid": 168136,
      "tags": {
        "name": "Westbury",
        "place": "hamlet"
      }
    },
    {
      "type": "node",
      "id": 2441163649,
      "lat": -37.7365434,
      "lon": 146.6269351,
      "timestamp": "2013-09-01T08:37:13Z",
      "version": 1,
      "changeset": 17614849,
      "user": "steve91",
      "uid": 637652,
      "tags": {
        "source": "survey",
        "tourism": "camp_site"
      }
    },
    {
      "type": "node",
      "id": 2490527783,
      "lat": -38.011891,
      "lon": 146.8094603,
      "timestamp": "2013-10-10T02:00:16Z",
      "version": 1,
      "changeset": 18274202,
      "user": "nickbarker",
      "uid": 288568,
      "tags": {
        "name": "Denison",
        "place": "hamlet"
      }
    },
    {
      "type": "node",
      "id": 2762887032,
      "lat": -37.8326391,
      "lon": 146.3113033,
      "timestamp": "2019-04-17T15:49:08Z",
      "version": 5,
      "changeset": 69314801,
      "user": "Edward",
      "uid": 364,
      "tags": {
        "ele": "1509",
        "name": "Mount Saint Gwinear",
        "natural": "peak",
        "wikidata": "Q691412"
      }
    },
    {
      "type": "node",
      "id": 2939016806,
      "lat": -37.9423065,
      "lon": 146.4511388,
      "timestamp": "2021-04-18T03:30:12Z",
      "version": 2,
      "changeset": 103122887,
      "user": "Supt_of_Printing",
      "uid": 206929,
      "tags": {
        "name": "Walhalla",
        "place": "village"
      }
    },
    {
      "type": "node",
      "id": 2966932393,
      "lat": -37.7491377,
      "lon": 146.4553388,
      "timestamp": "2014-07-28T00:57:00Z",
      "version": 3,
      "changeset": 24394064,
      "user": "nickbarker",
      "uid": 288568,
      "tags": {
        "name": "Site of Goonans Hut",
        "tourism": "alpine_hut"
      }
    },
    {
      "type": "node",
      "id": 2967035348,
      "lat": -37.7557353,
      "lon": 146.5024664,
      "timestamp": "2014-07-17T03:27:58Z",
      "version": 2,
      "changeset": 24193110,
      "user": "nickbarker",
      "uid": 288568,
      "tags": {
        "name": "Store Point Hut",
        "tourism": "alpine_hut"
      }
    },
    {
      "type": "node",
      "id": 2967047830,
      "lat": -37.7540281,
      "lon": 146.5010957,
      "timestamp": "2014-07-17T03:27:55Z",
      "version": 1,
      "changeset": 24193110,
      "user": "nickbarker",
      "uid": 288568,
      "tags": {
        "name": "Lloyds Hut",
        "tourism": "alpine_hut"
      }
    },
    {
      "type": "node",
      "id": 2983959864,
      "lat": -37.7483031,
      "lon": 146.4425216,
      "timestamp": "2014-07-28T00:47:42Z",
      "version": 1,
      "changeset": 24394064,
      "user": "nickbarker",
      "uid": 288568,
      "tags": {
        "name": "4x4 Earth Hut",
        "tourism": "alpine_hut"
      }
    },
    {
      "type": "node",
      "id": 3008339538,
      "lat": -37.85262,
      "lon": 146.2871,
      "timestamp": "2019-04-17T15:49:48Z",
      "version": 2,
      "changeset": 69314801,
      "user": "Edward",
      "uid": 364,
      "tags": {
        "ele": "1451",
        "name": "Mount Mueller",
        "natural": "peak",
        "wikidata": "Q16895519"
      }
    },
    {
      "type": "node",
      "id": 3068360720,
      "lat": -37.90693,
      "lon": 146.39635,
      "timestamp": "2014-09-09T14:12:29Z",
      "version": 1,
      "changeset": 25328969,
      "user": "dhx1",
      "uid": 1187510,
      "tags": {
        "name": "The Narrows",
        "natural": "saddle"
      }
    },
    {
      "type": "node",
      "id": 3105253530,
      "lat": -38.2328852,
      "lon": 146.8930217,
      "timestamp": "2014-10-01T10:36:23Z",
      "version": 1,
      "changeset": 25786956,
      "user": "p3et",
      "uid": 2369126,
      "tags": {
        "name": "Harriers Swamp Campingground",
        "tourism": "camp_site"
      }
    },
    {
      "type": "node",
      "id": 3105253533,
      "lat": -37.7624095,
      "lon": 146.6686708,
      "timestamp": "2014-10-01T10:36:23Z",
      "version": 1,
      "changeset": 25786956,
      "user": "p3et",
      "uid": 2369126,
      "tags": {
        "name": "Macalister River Campingground",
        "tourism": "camp_site"
      }
    },
    {
      "type": "node",
      "id": 3507944229,
      "lat": -38.1886721,
      "lon": 146.2502187,
      "timestamp": "2015-05-10T03:54:45Z",
      "version": 1,
      "changeset": 30953212,
      "user": "Angyork",
      "uid": 633429,
      "tags": {
        "name": "IGA Moe",
        "shop": "supermarket"
      }
    },
    {
      "type": "node",
      "id": 4143767489,
      "lat": -38.2294596,
      "lon": 146.3787988,
      "timestamp": "2016-04-24T01:03:13Z",
      "version": 1,
      "changeset": 38823974,
      "user": "philipp91",
      "uid": 3803961,
      "tags": {
        "name": "Morwell Resterea",
        "tourism": "camp_site"
      }
    },
    {
      "type": "node",
      "id": 4396897461,
      "lat": -38.1258028,
      "lon": 146.5732949,
      "timestamp": "2022-01-09T10:12:09Z",
      "version": 2,
      "changeset": 115935662,
      "user": "Ewen Hill",
      "uid": 935037,
      "tags": {
        "brand": "IGA",
        "brand:wikidata": "Q5970945",
        "brand:wikipedia": "en:IGA (Australian supermarket group)",
        "name": "IGA",
        "operator": "IGA",
        "shop": "supermarket"
      }
    },
    {
      "type": "node",
      "id": 5301440743,
      "lat": -38.1255191,
      "lon": 146.574418,
      "timestamp": "2017-12-23T23:56:52Z",
      "version": 1,
      "changeset": 54875737,
      "user": "philam48",
      "uid": 2506908,
      "tags": {
        "amenity": "drinking_water"
      }
    },
    {
      "type": "node",
      "id": 5425700522,
      "lat": -38.235635,
      "lon": 146.3938706,
      "timestamp": "2018-02-21T00:17:20Z",
      "version": 1,
      "changeset": 56535722,
      "user": "Pakenhamin",
      "uid": 566314,
      "tags": {
        "amenity": "drinking_water"
      }
    },
    {
      "type": "node",
      "id": 5430801903,
      "lat": -38.1961733,
      "lon": 146.5447987,
      "timestamp": "2018-02-23T07:50:46Z",
      "version": 1,
      "changeset": 56601002,
      "user": "Pakenhamin",
      "uid": 566314,
      "tags": {
        "amenity": "drinking_water"
      }
    },
    {
      "type": "node",
      "id": 5521312690,
      "lat": -37.8406297,
      "lon": 146.266479,
      "timestamp": "2018-04-01T23:26:08Z",
      "version": 2,
      "changeset": 57724730,
      "user": "Scott97",
      "uid": 6468823,
      "tags": {
        "beds": "23",
        "building": "yes",
        "building:levels": "2",
        "email": "enquiry@dunordskiclub.com.au",
        "name": "Du Nord",
        "rooms": "8",
        "smoking": "no",
        "tourism": "alpine_hut",
        "website": "https://www.dunordskiclub.com.au",
        "wheelchair": "no"
      }
    },
    {
      "type": "node",
      "id": 5940421912,
      "lat": -38.178702,
      "lon": 146.3397697,
      "timestamp": "2018-09-30T10:27:11Z",
      "version": 1,
      "changeset": 63059344,
      "user": "Mander",
      "uid": 20974,
      "tags": {
        "amenity": "shelter",
        "shelter_type": "picnic_shelter"
      }
    },
    {
      "type": "node",
      "id": 6253152043,
      "lat": -37.8866398,
      "lon": 146.355966,
      "timestamp": "2019-02-02T07:09:18Z",
      "version": 2,
      "changeset": 66850312,
      "user": "Peaceandcarrots",
      "uid": 3175307,
      "tags": {
        "access": "private",
        "fee": "no",
        "name": "J W McMahon Ski Lodge",
        "operator": "Scouts Australia",
        "tourism": "wilderness_hut"
      }
    },
    {
      "type": "node",
      "id": 6501527445,
      "lat": -37.807745,
      "lon": 146.9206349,
      "timestamp": "2019-05-26T07:30:28Z",
      "version": 1,
      "changeset": 70625715,
      "user": "rmawx",
      "uid": 1115571,
      "tags": {
        "tourism": "camp_site"
      }
    },
    {
      "type": "node",
      "id": 6501527865,
      "lat": -37.8000578,
      "lon": 146.9294569,
      "timestamp": "2019-05-26T07:34:03Z",
      "version": 1,
      "changeset": 70625775,
      "user": "rmawx",
      "uid": 1115571,
      "tags": {
        "tourism": "camp_site"
      }
    },
    {
      "type": "node",
      "id": 6536747345,
      "lat": -37.8853711,
      "lon": 146.3549512,
      "timestamp": "2019-06-10T10:18:02Z",
      "version": 1,
      "changeset": 71096218,
      "user": "breno-au",
      "uid": 859676,
      "tags": {
        "name": "Overhanging Rock",
        "natural": "cave_entrance"
      }
    },
    {
      "type": "node",
      "id": 7092613484,
      "lat": -37.8364604,
      "lon": 146.3020965,
      "timestamp": "2020-06-08T04:17:39Z",
      "version": 3,
      "changeset": 86327118,
      "user": "breno-au",
      "uid": 859676,
      "tags": {
        "backcountry": "yes",
        "description": "Camping possible around the rock shelter. Flat dirt ground. Water available a short distance down the St Gwinear trail.",
        "name": "Rock Shelter",
        "openfire": "no",
        "tourism": "camp_site"
      }
    },
    {
      "type": "node",
      "id": 7092633031,
      "lat": -37.8344249,
      "lon": 146.3032366,
      "timestamp": "2020-06-08T04:17:39Z",
      "version": 2,
      "changeset": 86327118,
      "user": "breno-au",
      "uid": 859676,
      "tags": {
        "description": "Wide, flat, grassy area with space for maybe 10 tents. Water generally available nearby.",
        "openfire": "no",
        "source": "survey",
        "tourism": "camp_site"
      }
    },
    {
      "type": "node",
      "id": 7092684785,
      "lat": -37.8292707,
      "lon": 146.2916522,
      "timestamp": "2020-11-10T03:35:11Z",
      "version": 4,
      "changeset": 93828689,
      "user": "breno-au",
      "uid": 859676,
      "tags": {
        "backcountry": "yes",
        "description": "Large, flat grassy area with good views.",
        "name": "Saint Phillack Saddle",
        "openfire": "no",
        "tourism": "camp_site"
      }
    },
    {
      "type": "node",
      "id": 7147313738,
      "lat": -38.23635,
      "lon": 146.3916026,
      "timestamp": "2020-01-20T20:42:37Z",
      "version": 1,
      "changeset": 79816940,
      "user": "Ewen Hill",
      "uid": 935037,
      "tags": {
        "amenity": "shelter"
      }
    },
    {
      "type": "node",
      "id": 7147888837,
      "lat": -38.1954485,
      "lon": 146.5423698,
      "timestamp": "2020-01-21T05:05:26Z",
      "version": 1,
      "changeset": 79830470,
      "user": "Ewen Hill",
      "uid": 935037,
      "tags": {
        "amenity": "shelter"
      }
    },
    {
      "type": "node",
      "id": 7161472479,
      "lat": -38.1952583,
      "lon": 146.5379104,
      "timestamp": "2020-01-27T01:31:43Z",
      "version": 1,
      "changeset": 80112556,
      "user": "Ewen Hill",
      "uid": 935037,
      "tags": {
        "amenity": "drinking_water"
      }
    },
    {
      "type": "node",
      "id": 7161600414,
      "lat": -38.2385919,
      "lon": 146.4024859,
      "timestamp": "2020-01-27T03:36:50Z",
      "version": 1,
      "changeset": 80115794,
      "user": "Ewen Hill",
      "uid": 935037,
      "tags": {
        "amenity": "drinking_water"
      }
    },
    {
      "type": "node",
      "id": 7161744572,
      "lat": -37.8306306,
      "lon": 146.2939439,
      "timestamp": "2020-06-08T04:17:39Z",
      "version": 2,
      "changeset": 86327118,
      "user": "breno-au",
      "uid": 859676,
      "tags": {
        "backcountry": "yes",
        "fee": "no",
        "openfire": "no",
        "tourism": "camp_site"
      }
    },
    {
      "type": "node",
      "id": 7161778732,
      "lat": -37.8364286,
      "lon": 146.3020388,
      "timestamp": "2020-01-27T06:20:37Z",
      "version": 1,
      "changeset": 80121831,
      "user": "breno-au",
      "uid": 859676,
      "tags": {
        "natural": "cave_entrance"
      }
    },
    {
      "type": "node",
      "id": 7161778738,
      "lat": -37.8714641,
      "lon": 146.3455254,
      "timestamp": "2020-01-27T06:20:37Z",
      "version": 1,
      "changeset": 80121831,
      "user": "breno-au",
      "uid": 859676,
      "tags": {
        "backcountry": "yes",
        "tourism": "camp_site"
      }
    },
    {
      "type": "node",
      "id": 7161778739,
      "lat": -37.8401721,
      "lon": 146.3073697,
      "timestamp": "2020-01-27T06:20:37Z",
      "version": 1,
      "changeset": 80121831,
      "user": "breno-au",
      "uid": 859676,
      "tags": {
        "backcountry": "yes",
        "tourism": "camp_site"
      }
    },
    {
      "type": "node",
      "id": 7252330935,
      "lat": -38.2109112,
      "lon": 146.5299095,
      "timestamp": "2020-02-29T08:55:03Z",
      "version": 1,
      "changeset": 81615253,
      "user": "Traveler77",
      "uid": 9560506,
      "tags": {
        "amenity": "shelter",
        "bench": "yes",
        "name": "information shelter"
      }
    },
    {
      "type": "node",
      "id": 7252330943,
      "lat": -38.2093442,
      "lon": 146.5295203,
      "timestamp": "2020-02-29T08:55:03Z",
      "version": 1,
      "changeset": 81615253,
      "user": "Traveler77",
      "uid": 9560506,
      "tags": {
        "amenity": "shelter",
        "name": "bird hide"
      }
    },
    {
      "type": "node",
      "id": 7279098288,
      "lat": -38.1876821,
      "lon": 146.2647912,
      "timestamp": "2020-03-09T08:29:44Z",
      "version": 1,
      "changeset": 81952119,
      "user": "Traveler77",
      "uid": 9560506,
      "tags": {
        "amenity": "shelter",
        "shelter_type": "picnic_shelter"
      }
    },
    {
      "type": "node",
      "id": 7279098289,
      "lat": -38.1884878,
      "lon": 146.2665331,
      "timestamp": "2020-03-09T08:29:44Z",
      "version": 1,
      "changeset": 81952119,
      "user": "Traveler77",
      "uid": 9560506,
      "tags": {
        "amenity": "shelter",
        "shelter_type": "picnic_shelter"
      }
    },
    {
      "type": "node",
      "id": 7403718472,
      "lat": -38.2378912,
      "lon": 146.4040733,
      "timestamp": "2020-04-15T01:02:22Z",
      "version": 1,
      "changeset": 83557693,
      "user": "Brenda007",
      "uid": 11030406,
      "tags": {
        "brand": "Aldi",
        "brand:wikidata": "Q125054",
        "brand:wikipedia": "en:Aldi",
        "name": "Aldi",
        "shop": "supermarket"
      }
    },
    {
      "type": "node",
      "id": 7600973007,
      "lat": -37.8406136,
      "lon": 146.3320618,
      "timestamp": "2020-06-07T23:04:27Z",
      "version": 1,
      "changeset": 86321705,
      "user": "breno-au",
      "uid": 859676,
      "tags": {
        "amenity": "shelter"
      }
    },
    {
      "type": "node",
      "id": 8099244533,
      "lat": -37.8291922,
      "lon": 146.2917137,
      "timestamp": "2020-11-10T03:35:11Z",
      "version": 1,
      "changeset": 93828689,
      "user": "breno-au",
      "uid": 859676,
      "tags": {
        "name": "St Phillack Saddle",
        "natural": "saddle"
      }
    },
    {
      "type": "node",
      "id": 8727661944,
      "lat": -37.8129519,
      "lon": 146.2778751,
      "timestamp": "2021-05-13T09:34:40Z",
      "version": 1,
      "changeset": 104625083,
      "user": "breno-au",
      "uid": 859676,
      "tags": {
        "backcountry": "yes",
        "tourism": "camp_site"
      }
    },
    {
      "type": "node",
      "id": 9400517537,
      "lat": -37.964049,
      "lon": 146.8919495,
      "timestamp": "2022-01-07T19:09:08Z",
      "version": 1,
      "changeset": 115888869,
      "user": "Ewen Hill",
      "uid": 935037,
      "tags": {
        "amenity": "drinking_water"
      }
    },
    {
      "type": "node",
      "id": 9401934640,
      "lat": -37.9794018,
      "lon": 146.7870226,
      "timestamp": "2022-01-08T08:34:37Z",
      "version": 1,
      "changeset": 115901117,
      "user": "Ewen Hill",
      "uid": 935037,
      "tags": {
        "access": "yes",
        "amenity": "drinking_water",
        "bottle": "yes",
        "fee": "no",
        "wheelchair": "yes"
      }
    },
    {
      "type": "node",
      "id": 9403939013,
      "lat": -38.0601586,
      "lon": 146.6244619,
      "timestamp": "2022-01-09T01:28:16Z",
      "version": 1,
      "changeset": 115928818,
      "user": "Ewen Hill",
      "uid": 935037,
      "tags": {
        "access": "permissive",
        "amenity": "drinking_water",
        "bottle": "yes",
        "fee": "no",
        "wheelchair": "no"
      }
    },
    {
      "type": "way",
      "id": 42745017,
      "timestamp": "2009-10-18T02:48:47Z",
      "version": 1,
      "changeset": 2879349,
      "user": "Rhubarb",
      "uid": 69319,
      "center": {
        "lat": -37.9418739,
        "lon": 146.4503983
      },
      "nodes": [],
      "tags": {
        "amenity": "shelter",
        "source": "survey"
      }
    },
    {
      "type": "way",
      "id": 42745529,
      "timestamp": "2013-03-12T23:19:44Z",
      "version": 2,
      "changeset": 15346497,
      "user": "Angyork",
      "uid": 633429,
      "center": {
        "lat": -37.9326199,
        "lon": 146.4486993
      },
      "nodes": [],
      "tags": {
        "name": "North Gardens Campground",
        "source": "survey",
        "tourism": "camp_site"
      }
    },
    {
      "type": "way",
      "id": 42745531,
      "timestamp": "2009-10-18T04:04:33Z",
      "version": 1,
      "changeset": 2879463,
      "user": "Rhubarb",
      "uid": 69319,
      "center": {
        "lat": -37.9326322,
        "lon": 146.4485411
      },
      "nodes": [],
      "tags": {
        "amenity": "shelter",
        "source": "knowledge"
      }
    },
    {
      "type": "way",
      "id": 93168907,
      "timestamp": "2021-01-27T02:17:54Z",
      "version": 5,
      "changeset": 98190676,
      "user": "Pakenhamin",
      "uid": 566314,
      "center": {
        "lat": -38.1736171,
        "lon": 146.2588285
      },
      "nodes": [],
      "tags": {
        "addr:housenumber": "92 - 98",
        "addr:street": "Albert Street",
        "brand": "Coles",
        "brand:wikidata": "Q1108172",
        "brand:wikipedia": "en:Coles Supermarkets",
        "building": "retail",
        "name": "Coles",
        "shop": "supermarket",
        "website": "https://www.coles.com.au/"
      }
    },
    {
      "type": "way",
      "id": 93169080,
      "timestamp": "2020-02-05T05:25:02Z",
      "version": 5,
      "changeset": 80566368,
      "user": "Leon K",
      "uid": 46482,
      "center": {
        "lat": -38.1754921,
        "lon": 146.2645728
      },
      "nodes": [],
      "tags": {
        "brand": "Woolworths",
        "brand:wikidata": "Q3249145",
        "brand:wikipedia": "en:Woolworths Supermarkets",
        "building": "yes",
        "name": "Woolworths",
        "shop": "supermarket",
        "website": "https://www.woolworths.com.au/"
      }
    },
    {
      "type": "way",
      "id": 131476918,
      "timestamp": "2019-10-28T11:15:34Z",
      "version": 6,
      "changeset": 76294870,
      "user": "natg3844",
      "uid": 10417479,
      "center": {
        "lat": -38.1963784,
        "lon": 146.5341358
      },
      "nodes": [],
      "tags": {
        "brand": "Woolworths",
        "brand:wikidata": "Q3249145",
        "brand:wikipedia": "en:Woolworths Supermarkets",
        "building": "yes",
        "name": "Woolworths",
        "shop": "supermarket",
        "source": "survey, Bing",
        "website": "https://www.woolworths.com.au/",
        "wheelchair": "yes"
      }
    },
    {
      "type": "way",
      "id": 147005143,
      "timestamp": "2021-08-23T01:44:38Z",
      "version": 5,
      "changeset": 110083634,
      "user": "Leon K",
      "uid": 46482,
      "center": {
        "lat": -38.1752711,
        "lon": 146.2579875
      },
      "nodes": [],
      "tags": {
        "brand": "ALDI",
        "brand:wikidata": "Q41171672",
        "brand:wikipedia": "en:Aldi",
        "building": "retail",
        "name": "ALDI",
        "shop": "supermarket",
        "website": "https://www.aldi.com.au/"
      }
    },
    {
      "type": "way",
      "id": 147247998,
      "timestamp": "2012-01-25T10:40:42Z",
      "version": 1,
      "changeset": 10492204,
      "user": "melb_guy",
      "uid": 11111,
      "center": {
        "lat": -38.1599314,
        "lon": 146.362475
      },
      "nodes": [],
      "tags": {
        "building": "retail",
        "name": "Foodworks",
        "shop": "supermarket"
      }
    },
    {
      "type": "way",
      "id": 183089057,
      "timestamp": "2013-03-12T23:20:28Z",
      "version": 2,
      "changeset": 15346501,
      "user": "Angyork",
      "uid": 633429,
      "center": {
        "lat": -37.9296964,
        "lon": 146.4494542
      },
      "nodes": [],
      "tags": {
        "name": "Chinese Gardens",
        "source": "local knowledge",
        "tourism": "camp_site"
      }
    },
    {
      "type": "way",
      "id": 183092276,
      "timestamp": "2014-07-28T00:57:01Z",
      "version": 3,
      "changeset": 24394064,
      "user": "nickbarker",
      "uid": 288568,
      "center": {
        "lat": -37.7622152,
        "lon": 146.4010358
      },
      "nodes": [],
      "tags": {
        "name": "Merringtons Flat Camping Area",
        "tourism": "camp_site"
      }
    },
    {
      "type": "way",
      "id": 183092281,
      "timestamp": "2015-01-14T04:26:55Z",
      "version": 5,
      "changeset": 28127396,
      "user": "stevage",
      "uid": 201443,
      "center": {
        "lat": -37.7584064,
        "lon": 146.4019495
      },
      "nodes": [],
      "tags": {
        "name": "Junction Hut Camping Area",
        "tourism": "camp_site"
      }
    },
    {
      "type": "way",
      "id": 183092447,
      "timestamp": "2012-09-27T00:56:12Z",
      "version": 1,
      "changeset": 13266171,
      "user": "Angyork",
      "uid": 633429,
      "center": {
        "lat": -37.7513402,
        "lon": 146.4103966
      },
      "nodes": [],
      "tags": {
        "tourism": "camp_site"
      }
    },
    {
      "type": "way",
      "id": 184237774,
      "timestamp": "2012-10-05T00:21:07Z",
      "version": 2,
      "changeset": 13367687,
      "user": "Angyork",
      "uid": 633429,
      "center": {
        "lat": -37.74797,
        "lon": 146.4427086
      },
      "nodes": [],
      "tags": {
        "name": "O'Tooles Flat Camping Area",
        "tourism": "camp_site"
      }
    },
    {
      "type": "way",
      "id": 184238026,
      "timestamp": "2014-07-28T00:47:47Z",
      "version": 2,
      "changeset": 24394064,
      "user": "nickbarker",
      "uid": 288568,
      "center": {
        "lat": -37.7474568,
        "lon": 146.440158
      },
      "nodes": [],
      "tags": {
        "name": "Little O'Tooles Camping Area",
        "tourism": "camp_site"
      }
    },
    {
      "type": "way",
      "id": 186419113,
      "timestamp": "2012-10-18T03:05:03Z",
      "version": 1,
      "changeset": 13539331,
      "user": "nickbarker",
      "uid": 288568,
      "center": {
        "lat": -37.8534093,
        "lon": 146.4319623
      },
      "nodes": [],
      "tags": {
        "tourism": "camp_site"
      }
    },
    {
      "type": "way",
      "id": 188555031,
      "timestamp": "2015-06-13T05:21:58Z",
      "version": 3,
      "changeset": 31936479,
      "user": "Angyork",
      "uid": 633429,
      "center": {
        "lat": -37.9991169,
        "lon": 146.4721094
      },
      "nodes": [],
      "tags": {
        "name": "Bruntons Bridge Camping Area",
        "tourism": "camp_site"
      }
    },
    {
      "type": "way",
      "id": 188556480,
      "timestamp": "2012-11-01T05:37:13Z",
      "version": 1,
      "changeset": 13707112,
      "user": "nickbarker",
      "uid": 288568,
      "center": {
        "lat": -37.9827703,
        "lon": 146.4234712
      },
      "nodes": [],
      "tags": {
        "name": "Coopers Crossing",
        "tourism": "camp_site"
      }
    },
    {
      "type": "way",
      "id": 188556484,
      "timestamp": "2012-11-01T05:37:14Z",
      "version": 1,
      "changeset": 13707112,
      "user": "nickbarker",
      "uid": 288568,
      "center": {
        "lat": -37.9801284,
        "lon": 146.4257756
      },
      "nodes": [],
      "tags": {
        "name": "Coopers Crossing",
        "tourism": "camp_site"
      }
    },
    {
      "type": "way",
      "id": 188556485,
      "timestamp": "2012-11-01T05:37:14Z",
      "version": 1,
      "changeset": 13707112,
      "user": "nickbarker",
      "uid": 288568,
      "center": {
        "lat": -37.9809044,
        "lon": 146.424103
      },
      "nodes": [],
      "tags": {
        "name": "Coopers Crossing",
        "tourism": "camp_site"
      }
    },
    {
      "type": "way",
      "id": 188556486,
      "timestamp": "2013-07-09T13:29:23Z",
      "version": 2,
      "changeset": 16887103,
      "user": "Supt_of_Printing",
      "uid": 206929,
      "center": {
        "lat": -37.9845589,
        "lon": 146.4233689
      },
      "nodes": [],
      "tags": {
        "name": "Coopers Creek",
        "tourism": "camp_site"
      }
    },
    {
      "type": "way",
      "id": 206457501,
      "timestamp": "2013-02-20T23:30:12Z",
      "version": 1,
      "changeset": 15106358,
      "user": "nickbarker",
      "uid": 288568,
      "center": {
        "lat": -37.9828577,
        "lon": 146.4219202
      },
      "nodes": [],
      "tags": {
        "name": "Coopers Creek",
        "tourism": "camp_site"
      }
    },
    {
      "type": "way",
      "id": 250261086,
      "timestamp": "2021-09-16T01:05:49Z",
      "version": 3,
      "changeset": 111266244,
      "user": "Scott97",
      "uid": 6468823,
      "center": {
        "lat": -37.8391965,
        "lon": 146.2649887
      },
      "nodes": [],
      "tags": {
        "beds": "50",
        "building": "yes",
        "building:levels": "2",
        "name": "Banksia",
        "rooms": "10",
        "smoking": "no",
        "tourism": "alpine_hut",
        "wheelchair": "no"
      }
    },
    {
      "type": "way",
      "id": 270495768,
      "timestamp": "2014-03-30T22:57:49Z",
      "version": 1,
      "changeset": 21410301,
      "user": "nickbarker",
      "uid": 288568,
      "center": {
        "lat": -37.9974811,
        "lon": 146.4733294
      },
      "nodes": [],
      "tags": {
        "tourism": "camp_site"
      }
    },
    {
      "type": "way",
      "id": 270497189,
      "timestamp": "2018-12-17T13:36:56Z",
      "version": 3,
      "changeset": 65550501,
      "user": "Aleksandar Matejevic",
      "uid": 8724788,
      "center": {
        "lat": -37.9564257,
        "lon": 146.4035431
      },
      "nodes": [],
      "tags": {
        "tourism": "camp_site"
      }
    },
    {
      "type": "way",
      "id": 293133304,
      "timestamp": "2014-07-17T04:50:10Z",
      "version": 2,
      "changeset": 24194157,
      "user": "nickbarker",
      "uid": 288568,
      "center": {
        "lat": -37.760007,
        "lon": 146.5246047
      },
      "nodes": [],
      "tags": {
        "name": "Edwards Hill Camping Area",
        "tourism": "camp_site"
      }
    },
    {
      "type": "way",
      "id": 303724135,
      "timestamp": "2016-09-24T09:49:43Z",
      "version": 2,
      "changeset": 42402170,
      "user": "Zhent",
      "uid": 181013,
      "center": {
        "lat": -38.240957,
        "lon": 146.5464524
      },
      "nodes": [],
      "tags": {
        "amenity": "shelter",
        "building": "roof",
        "shelter_type": "weather_shelter"
      }
    },
    {
      "type": "way",
      "id": 329375749,
      "timestamp": "2020-02-05T05:25:02Z",
      "version": 3,
      "changeset": 80566368,
      "user": "Leon K",
      "uid": 46482,
      "center": {
        "lat": -38.1750545,
        "lon": 146.2636445
      },
      "nodes": [],
      "tags": {
        "brand": "Caltex",
        "brand:wikidata": "Q5023980",
        "brand:wikipedia": "en:Caltex Woolworths",
        "building": "retail",
        "name": "Woolworths Petrol",
        "shop": "convenience",
        "website": "https://www.woolworthspetrol.com.au/"
      }
    },
    {
      "type": "way",
      "id": 346445190,
      "timestamp": "2020-04-15T01:02:22Z",
      "version": 5,
      "changeset": 83557693,
      "user": "Brenda007",
      "uid": 11030406,
      "center": {
        "lat": -38.2382585,
        "lon": 146.4056375
      },
      "nodes": [],
      "tags": {
        "brand": "United",
        "brand:wikidata": "Q28224393",
        "brand:wikipedia": "en:United Petroleum",
        "building": "yes",
        "name": "United",
        "shop": "convenience",
        "website": "https://www.unitedpetroleum.com.au/"
      }
    },
    {
      "type": "way",
      "id": 366468359,
      "timestamp": "2020-04-15T01:02:22Z",
      "version": 2,
      "changeset": 83557693,
      "user": "Brenda007",
      "uid": 11030406,
      "center": {
        "lat": -38.2379247,
        "lon": 146.4040647
      },
      "nodes": [],
      "tags": {
        "brand": "Aldi",
        "brand:wikidata": "Q125054",
        "brand:wikipedia": "en:Aldi",
        "building": "yes",
        "name": "Aldi",
        "shop": "supermarket"
      }
    },
    {
      "type": "way",
      "id": 366722338,
      "timestamp": "2015-08-20T19:48:45Z",
      "version": 1,
      "changeset": 33469921,
      "user": "InExtremis_an",
      "uid": 2766576,
      "center": {
        "lat": -38.2333668,
        "lon": 146.4143835
      },
      "nodes": [],
      "tags": {
        "building": "yes",
        "name": "Mini Stop",
        "shop": "convenience"
      }
    },
    {
      "type": "way",
      "id": 368883468,
      "timestamp": "2019-10-28T12:54:04Z",
      "version": 2,
      "changeset": 76298641,
      "user": "natg3844",
      "uid": 10417479,
      "center": {
        "lat": -38.1925375,
        "lon": 146.5554809
      },
      "nodes": [],
      "tags": {
        "brand": "Aldi",
        "brand:wikidata": "Q125054",
        "brand:wikipedia": "en:Aldi",
        "building": "yes",
        "name": "Aldi",
        "shop": "supermarket"
      }
    },
    {
      "type": "way",
      "id": 389345627,
      "timestamp": "2016-01-03T09:20:17Z",
      "version": 1,
      "changeset": 36333645,
      "user": "steve91",
      "uid": 637652,
      "center": {
        "lat": -37.7486164,
        "lon": 146.4126847
      },
      "nodes": [],
      "tags": {
        "name": "Jorgenson Flat",
        "tourism": "camp_site"
      }
    },
    {
      "type": "way",
      "id": 548780489,
      "timestamp": "2017-12-23T23:52:48Z",
      "version": 1,
      "changeset": 54875674,
      "user": "philam48",
      "uid": 2506908,
      "center": {
        "lat": -38.127023,
        "lon": 146.5737237
      },
      "nodes": [],
      "tags": {
        "amenity": "shelter",
        "bin": "yes",
        "shelter_type": "picnic_shelter"
      }
    },
    {
      "type": "way",
      "id": 549805510,
      "timestamp": "2019-03-23T08:53:14Z",
      "version": 2,
      "changeset": 68438371,
      "user": "b-jazz-bot",
      "uid": 9451067,
      "center": {
        "lat": -38.2230708,
        "lon": 146.467007
      },
      "nodes": [],
      "tags": {
        "building": "yes",
        "name": "United",
        "shop": "convenience",
        "website": "https://www.unitedpetroleum.com.au/"
      }
    },
    {
      "type": "way",
      "id": 705855993,
      "timestamp": "2021-08-23T01:44:38Z",
      "version": 2,
      "changeset": 110083634,
      "user": "Leon K",
      "uid": 46482,
      "center": {
        "lat": -38.1739798,
        "lon": 146.2595913
      },
      "nodes": [],
      "tags": {
        "brand": "Coles Express",
        "brand:wikidata": "Q5144653",
        "brand:wikipedia": "en:Coles Express",
        "building": "yes",
        "name": "Coles Express",
        "shop": "convenience"
      }
    },
    {
      "type": "way",
      "id": 776405495,
      "timestamp": "2020-02-26T05:32:29Z",
      "version": 1,
      "changeset": 81484114,
      "user": "BevanL94",
      "uid": 10817826,
      "center": {
        "lat": -38.1250521,
        "lon": 146.5743531
      },
      "nodes": [],
      "tags": {
        "amenity": "shelter",
        "building": "yes",
        "shelter_type": "gazebo"
      }
    },
    {
      "type": "way",
      "id": 777229549,
      "timestamp": "2020-02-29T08:55:03Z",
      "version": 1,
      "changeset": 81615253,
      "user": "Traveler77",
      "uid": 9560506,
      "center": {
        "lat": -38.2109454,
        "lon": 146.5299675
      },
      "nodes": [],
      "tags": {
        "amenity": "shelter",
        "bench": "yes",
        "building": "yes",
        "name": "information shelter"
      }
    },
    {
      "type": "way",
      "id": 777229550,
      "timestamp": "2020-02-29T08:55:03Z",
      "version": 1,
      "changeset": 81615253,
      "user": "Traveler77",
      "uid": 9560506,
      "center": {
        "lat": -38.2093508,
        "lon": 146.5295299
      },
      "nodes": [],
      "tags": {
        "amenity": "shelter",
        "building": "yes",
        "name": "bird hide",
        "shelter_type": "weather_shelter"
      }
    },
    {
      "type": "way",
      "id": 970360590,
      "timestamp": "2021-09-16T01:09:45Z",
      "version": 2,
      "changeset": 111266244,
      "user": "Scott97",
      "uid": 6468823,
      "center": {
        "lat": -37.8406107,
        "lon": 146.2662419
      },
      "nodes": [],
      "tags": {
        "name": "Bunerong",
        "tourism": "alpine_hut",
        "wheelchair": "no"
      }
    },
    {
      "type": "way",
      "id": 970360592,
      "timestamp": "2021-09-16T01:05:53Z",
      "version": 2,
      "changeset": 111266244,
      "user": "Scott97",
      "uid": 6468823,
      "center": {
        "lat": -37.83928,
        "lon": 146.2653335
      },
      "nodes": [],
      "tags": {
        "name": "Benbullen",
        "tourism": "alpine_hut",
        "wheelchair": "no"
      }
    },
    {
      "type": "way",
      "id": 970360593,
      "timestamp": "2021-08-04T12:44:28Z",
      "version": 1,
      "changeset": 109146029,
      "user": "Scott97",
      "uid": 6468823,
      "center": {
        "lat": -37.8404551,
        "lon": 146.2660208
      },
      "nodes": [],
      "tags": {
        "name": "Lonsdale",
        "tourism": "alpine_hut"
      }
    },
    {
      "type": "way",
      "id": 974028456,
      "timestamp": "2021-08-17T12:25:36Z",
      "version": 1,
      "changeset": 109810291,
      "user": "Mikideez",
      "uid": 5302690,
      "center": {
        "lat": -37.8395694,
        "lon": 146.7101902
      },
      "nodes": [],
      "tags": {
        "addr:housenumber": "51",
        "addr:postcode": "3858",
        "addr:state": "VIC",
        "addr:street": "Gells Road",
        "addr:suburb": "Glenmaggie",
        "email": "info@paradisevalley.com.au",
        "name": "Paradise Valley Camping Ground",
        "phone": "+61351480291",
        "tourism": "camp_site",
        "website": "http://paradisevalley.com.au"
      }
    },
    {
      "type": "way",
      "id": 1019369381,
      "timestamp": "2022-01-08T08:34:37Z",
      "version": 1,
      "changeset": 115901117,
      "user": "Ewen Hill",
      "uid": 935037,
      "center": {
        "lat": -37.9794123,
        "lon": 146.7872305
      },
      "nodes": [],
      "tags": {
        "amenity": "shelter",
        "building": "yes"
      }
    }
  ]
}