{
  "osm3s": {
    "timestamp_osm_date": "2021-09-21T23:59:59Z",
    "timestamp_osm_base": "2021-09-22T03:18:48Z",
    "copyright": "The data included in this document is from www.openstreetmap.org. The data is made available under ODbL."
  },
  "elements": [
    {
      "type": "node",
      "id": 151345786,
      "lat": 39.1522135,
      "lon": -106.3005791,
      "timestamp": "2020-03-16T22:57:21Z",
      "version": 3,
      "changeset": 82276374,
      "user": "mapman44",
      "uid": 2888253,
      "tags": {
        "ele": "2885",
        "gnis:County": "Lake",
        "gnis:County_num": "065",
        "gnis:ST_alpha": "CO",
        "gnis:ST_num": "08",
        "gnis:id": "180174",
        "import_uuid": "bb7269ee-502a-5391-8056-e3ce0e66489c",
        "name": "Mount Massive Lakes",
        "place": "hamlet"
      }
    },
    {
      "type": "node",
      "id": 151348407,
      "lat": 38.9913822,
      "lon": -106.4116924,
      "timestamp": "2020-03-16T22:57:21Z",
      "version": 3,
      "changeset": 82276374,
      "user": "mapman44",
      "uid": 2888253,
      "tags": {
        "ele": "3045",
        "gnis:County": "Chaffee",
        "gnis:County_num": "015",
        "gnis:ST_alpha": "CO",
        "gnis:ST_num": "08",
        "gnis:id": "189173",
        "import_uuid": "bb7269ee-502a-5391-8056-e3ce0e66489c",
        "name": "Rockdale",
        "place": "hamlet"
      }
    },
    {
      "type": "node",
      "id": 151363140,
      "lat": 39.3435974,
      "lon": -106.6672565,
      "timestamp": "2019-05-13T01:56:48Z",
      "version": 3,
      "changeset": 70174326,
      "user": "mapman44",
      "uid": 2888253,
      "tags": {
        "ele": "2541",
        "gnis:County": "Pitkin",
        "gnis:County_num": "097",
        "gnis:ST_alpha": "CO",
        "gnis:ST_num": "08",
        "gnis:id": "197215",
        "import_uuid": "bb7269ee-502a-5391-8056-e3ce0e66489c",
        "name": "Biglow",
        "place": "hamlet"
      }
    },
    {
      "type": "node",
      "id": 151398588,
      "lat": 39.2508229,
      "lon": -106.2925238,
      "timestamp": "2017-01-27T17:49:47Z",
      "version": 10,
      "changeset": 45568776,
      "user": "maxerickson",
      "uid": 360392,
      "tags": {
        "census:population": "2602;2010",
        "gnis:feature_id": "204683",
        "name": "Leadville",
        "place": "town",
        "population": "2602",
        "wikidata": "Q286702"
      }
    },
    {
      "type": "node",
      "id": 151398676,
      "lat": 39.0778635,
      "lon": -106.2814357,
      "timestamp": "2020-03-16T22:57:21Z",
      "version": 6,
      "changeset": 82276374,
      "user": "mapman44",
      "uid": 2888253,
      "tags": {
        "ele": "2755",
        "gnis:County": "Lake",
        "gnis:County_num": "065",
        "gnis:ST_alpha": "CO",
        "gnis:ST_num": "08",
        "gnis:id": "180423",
        "import_uuid": "bb7269ee-502a-5391-8056-e3ce0e66489c",
        "name": "Balltown",
        "place": "hamlet"
      }
    },
    {
      "type": "node",
      "id": 151424914,
      "lat": 39.2916539,
      "lon": -106.6014211,
      "timestamp": "2019-05-13T01:56:48Z",
      "version": 3,
      "changeset": 70174326,
      "user": "mapman44",
      "uid": 2888253,
      "tags": {
        "ele": "2702",
        "gnis:County": "Pitkin",
        "gnis:County_num": "097",
        "gnis:ST_alpha": "CO",
        "gnis:ST_num": "08",
        "gnis:id": "179779",
        "import_uuid": "bb7269ee-502a-5391-8056-e3ce0e66489c",
        "name": "Nast",
        "place": "hamlet"
      }
    },
    {
      "type": "node",
      "id": 151426934,
      "lat": 38.9383282,
      "lon": -106.1839083,
      "timestamp": "2020-03-16T22:57:21Z",
      "version": 3,
      "changeset": 82276374,
      "user": "mapman44",
      "uid": 2888253,
      "tags": {
        "ele": "2544",
        "gnis:County": "Chaffee",
        "gnis:County_num": "015",
        "gnis:ST_alpha": "CO",
        "gnis:ST_num": "08",
        "gnis:id": "189256",
        "import_uuid": "bb7269ee-502a-5391-8056-e3ce0e66489c",
        "name": "Riverside",
        "place": "hamlet"
      }
    },
    {
      "type": "node",
      "id": 151504271,
      "lat": 39.2352677,
      "lon": -106.2769678,
      "timestamp": "2020-03-16T22:57:21Z",
      "version": 3,
      "changeset": 82276374,
      "user": "mapman44",
      "uid": 2888253,
      "tags": {
        "ele": "3139",
        "gnis:County": "Lake",
        "gnis:County_num": "065",
        "gnis:ST_alpha": "CO",
        "gnis:ST_num": "08",
        "gnis:id": "180165",
        "import_uuid": "bb7269ee-502a-5391-8056-e3ce0e66489c",
        "name": "Resurrection Mill",
        "place": "hamlet"
      }
    },
    {
      "type": "node",
      "id": 151522053,
      "lat": 39.3630413,
      "lon": -106.7300359,
      "timestamp": "2020-03-16T22:57:21Z",
      "version": 3,
      "changeset": 82276374,
      "user": "mapman44",
      "uid": 2888253,
      "tags": {
        "ele": "2369",
        "gnis:County": "Pitkin",
        "gnis:County_num": "097",
        "gnis:ST_alpha": "CO",
        "gnis:ST_num": "08",
        "gnis:id": "179732",
        "import_uuid": "bb7269ee-502a-5391-8056-e3ce0e66489c",
        "name": "Meredith",
        "place": "hamlet"
      }
    },
    {
      "type": "node",
      "id": 151535380,
      "lat": 38.9380485,
      "lon": -106.5594744,
      "timestamp": "2020-03-16T22:57:21Z",
      "version": 3,
      "changeset": 82276374,
      "user": "mapman44",
      "uid": 2888253,
      "tags": {
        "ele": "3142",
        "gnis:County": "Gunnison",
        "gnis:County_num": "051",
        "gnis:ST_alpha": "CO",
        "gnis:ST_num": "08",
        "gnis:id": "188832",
        "import_uuid": "bb7269ee-502a-5391-8056-e3ce0e66489c",
        "name": "Pieplant Mill",
        "place": "hamlet"
      }
    },
    {
      "type": "node",
      "id": 151559611,
      "lat": 39.3247087,
      "lon": -106.6555894,
      "timestamp": "2019-05-13T01:56:48Z",
      "version": 4,
      "changeset": 70174326,
      "user": "mapman44",
      "uid": 2888253,
      "tags": {
        "ele": "2579",
        "gnis:County": "Pitkin",
        "gnis:County_num": "097",
        "gnis:ST_alpha": "CO",
        "gnis:ST_num": "08",
        "gnis:id": "179751",
        "import_uuid": "bb7269ee-502a-5391-8056-e3ce0e66489c",
        "name": "Norrie",
        "place": "hamlet",
        "wikidata": "Q7053253"
      }
    },
    {
      "type": "node",
      "id": 151601860,
      "lat": 39.2336008,
      "lon": -106.3191911,
      "timestamp": "2020-03-16T22:57:21Z",
      "version": 3,
      "changeset": 82276374,
      "user": "mapman44",
      "uid": 2888253,
      "tags": {
        "ele": "2990",
        "gnis:County": "Lake",
        "gnis:County_num": "065",
        "gnis:ST_alpha": "CO",
        "gnis:ST_num": "08",
        "gnis:id": "180149",
        "import_uuid": "bb7269ee-502a-5391-8056-e3ce0e66489c",
        "name": "Stringtown",
        "place": "hamlet"
      }
    },
    {
      "type": "node",
      "id": 151673310,
      "lat": 39.3602637,
      "lon": -106.7025352,
      "timestamp": "2020-03-16T22:57:21Z",
      "version": 3,
      "changeset": 82276374,
      "user": "mapman44",
      "uid": 2888253,
      "tags": {
        "ele": "2444",
        "gnis:County": "Pitkin",
        "gnis:County_num": "097",
        "gnis:ST_alpha": "CO",
        "gnis:ST_num": "08",
        "gnis:id": "179745",
        "import_uuid": "bb7269ee-502a-5391-8056-e3ce0e66489c",
        "name": "Thomasville",
        "place": "hamlet"
      }
    },
    {
      "type": "node",
      "id": 151679749,
      "lat": 39.129436,
      "lon": -106.314746,
      "timestamp": "2020-03-16T22:57:21Z",
      "version": 3,
      "changeset": 82276374,
      "user": "mapman44",
      "uid": 2888253,
      "tags": {
        "ele": "2800",
        "gnis:County": "Lake",
        "gnis:County_num": "065",
        "gnis:ST_alpha": "CO",
        "gnis:ST_num": "08",
        "gnis:id": "202693",
        "import_uuid": "bb7269ee-502a-5391-8056-e3ce0e66489c",
        "name": "Kobe",
        "place": "hamlet"
      }
    },
    {
      "type": "node",
      "id": 151696739,
      "lat": 38.9933276,
      "lon": -106.2200205,
      "timestamp": "2020-03-16T22:57:21Z",
      "version": 3,
      "changeset": 82276374,
      "user": "mapman44",
      "uid": 2888253,
      "tags": {
        "ele": "2633",
        "gnis:County": "Chaffee",
        "gnis:County_num": "015",
        "gnis:ST_alpha": "CO",
        "gnis:ST_num": "08",
        "gnis:id": "189251",
        "import_uuid": "bb7269ee-502a-5391-8056-e3ce0e66489c",
        "name": "Princeton",
        "place": "hamlet"
      }
    },
    {
      "type": "node",
      "id": 151728715,
      "lat": 39.3111001,
      "lon": -106.2275228,
      "timestamp": "2020-03-16T22:57:21Z",
      "version": 3,
      "changeset": 82276374,
      "user": "mapman44",
      "uid": 2888253,
      "tags": {
        "ele": "3114",
        "gnis:County": "Lake",
        "gnis:County_num": "065",
        "gnis:ST_alpha": "CO",
        "gnis:ST_num": "08",
        "gnis:id": "179911",
        "import_uuid": "bb7269ee-502a-5391-8056-e3ce0e66489c",
        "name": "Birdseye",
        "place": "hamlet"
      }
    },
    {
      "type": "node",
      "id": 151731554,
      "lat": 38.9991602,
      "lon": -106.3778026,
      "timestamp": "2020-03-16T22:57:21Z",
      "version": 4,
      "changeset": 82276374,
      "user": "mapman44",
      "uid": 2888253,
      "tags": {
        "ele": "2948",
        "gnis:County": "Chaffee",
        "gnis:County_num": "015",
        "gnis:ST_alpha": "CO",
        "gnis:ST_num": "08",
        "gnis:id": "189174",
        "import_uuid": "bb7269ee-502a-5391-8056-e3ce0e66489c",
        "name": "Vicksburg",
        "place": "hamlet",
        "wikidata": "Q7925478"
      }
    },
    {
      "type": "node",
      "id": 151795385,
      "lat": 39.2586003,
      "lon": -106.3397474,
      "timestamp": "2020-03-16T22:57:21Z",
      "version": 3,
      "changeset": 82276374,
      "user": "mapman44",
      "uid": 2888253,
      "tags": {
        "ele": "2981",
        "gnis:County": "Lake",
        "gnis:County_num": "065",
        "gnis:ST_alpha": "CO",
        "gnis:ST_num": "08",
        "gnis:id": "179894",
        "import_uuid": "bb7269ee-502a-5391-8056-e3ce0e66489c",
        "name": "Leadville Junction",
        "place": "hamlet"
      }
    },
    {
      "type": "node",
      "id": 151819186,
      "lat": 39.0677693,
      "lon": -106.5019729,
      "timestamp": "2020-03-16T22:57:21Z",
      "version": 3,
      "changeset": 82276374,
      "user": "mapman44",
      "uid": 2888253,
      "tags": {
        "ele": "3084",
        "gnis:County": "Lake",
        "gnis:County_num": "065",
        "gnis:ST_alpha": "CO",
        "gnis:ST_num": "08",
        "gnis:id": "180345",
        "import_uuid": "bb7269ee-502a-5391-8056-e3ce0e66489c",
        "name": "Everett",
        "place": "hamlet"
      }
    },
    {
      "type": "node",
      "id": 151842129,
      "lat": 39.2424864,
      "lon": -106.7625368,
      "timestamp": "2020-03-16T22:57:21Z",
      "version": 4,
      "changeset": 82276374,
      "user": "mapman44",
      "uid": 2888253,
      "tags": {
        "ele": "2603",
        "gnis:County": "Pitkin",
        "gnis:County_num": "097",
        "gnis:ST_alpha": "CO",
        "gnis:ST_num": "08",
        "gnis:id": "180042",
        "import_uuid": "bb7269ee-502a-5391-8056-e3ce0e66489c",
        "name": "Lenado",
        "place": "hamlet",
        "wikidata": "Q6522213"
      }
    },
    {
      "type": "node",
      "id": 151860647,
      "lat": 39.229434,
      "lon": -106.3508586,
      "timestamp": "2020-03-16T22:57:21Z",
      "version": 3,
      "changeset": 82276374,
      "user": "mapman44",
      "uid": 2888253,
      "tags": {
        "ele": "2924",
        "gnis:County": "Lake",
        "gnis:County_num": "065",
        "gnis:ST_alpha": "CO",
        "gnis:ST_num": "08",
        "gnis:id": "180146",
        "import_uuid": "bb7269ee-502a-5391-8056-e3ce0e66489c",
        "name": "Malta",
        "place": "hamlet"
      }
    },
    {
      "type": "node",
      "id": 151932784,
      "lat": 38.9847154,
      "lon": -106.4408599,
      "timestamp": "2020-03-16T22:57:21Z",
      "version": 4,
      "changeset": 82276374,
      "user": "mapman44",
      "uid": 2888253,
      "tags": {
        "ele": "3122",
        "gnis:County": "Chaffee",
        "gnis:County_num": "015",
        "gnis:ST_alpha": "CO",
        "gnis:ST_num": "08",
        "gnis:id": "189149",
        "import_uuid": "bb7269ee-502a-5391-8056-e3ce0e66489c",
        "name": "Winfield",
        "place": "hamlet",
        "wikidata": "Q27556095"
      }
    },
    {
      "type": "node",
      "id": 151946620,
      "lat": 39.0436045,
      "lon": -106.2633553,
      "timestamp": "2020-03-16T22:57:21Z",
      "version": 4,
      "changeset": 82276374,
      "user": "mapman44",
      "uid": 2888253,
      "tags": {
        "ele": "2747",
        "gnis:County": "Chaffee",
        "gnis:County_num": "015",
        "gnis:ST_alpha": "CO",
        "gnis:ST_num": "08",
        "gnis:id": "180420",
        "import_uuid": "bb7269ee-502a-5391-8056-e3ce0e66489c",
        "name": "Granite",
        "place": "hamlet",
        "wikidata": "Q5595820"
      }
    },
    {
      "type": "node",
      "id": 151953813,
      "lat": 39.0536013,
      "lon": -106.7997604,
      "timestamp": "2020-03-16T22:57:21Z",
      "version": 5,
      "changeset": 82276374,
      "user": "mapman44",
      "uid": 2888253,
      "tags": {
        "ele": "2902",
        "gnis:County": "Pitkin",
        "gnis:County_num": "097",
        "gnis:ST_alpha": "CO",
        "gnis:ST_num": "08",
        "gnis:id": "180289",
        "import_uuid": "bb7269ee-502a-5391-8056-e3ce0e66489c",
        "name": "Ashcroft",
        "place": "hamlet",
        "wikidata": "Q4804749",
        "wikipedia": "en:Ashcroft, Colorado"
      }
    },
    {
      "type": "node",
      "id": 151958447,
      "lat": 39.0827698,
      "lon": -106.3819698,
      "timestamp": "2020-03-16T22:57:21Z",
      "version": 4,
      "changeset": 82276374,
      "user": "mapman44",
      "uid": 2888253,
      "tags": {
        "ele": "2815",
        "gnis:County": "Lake",
        "gnis:County_num": "065",
        "gnis:ST_alpha": "CO",
        "gnis:ST_num": "08",
        "gnis:id": "180384",
        "import_uuid": "bb7269ee-502a-5391-8056-e3ce0e66489c",
        "name": "Twin Lakes",
        "place": "hamlet",
        "wikidata": "Q7858203"
      }
    },
    {
      "type": "node",
      "id": 177192828,
      "lat": 38.8278581,
      "lon": -106.40921,
      "timestamp": "2017-09-14T06:53:50Z",
      "version": 6,
      "changeset": 52027574,
      "user": "Edward",
      "uid": 364,
      "tags": {
        "ele": "3696",
        "mountain_pass": "yes",
        "name": "Cottonwood Pass",
        "natural": "saddle",
        "wikidata": "Q2998613"
      }
    },
    {
      "type": "node",
      "id": 177342013,
      "lat": 39.367481,
      "lon": -106.1876321,
      "timestamp": "2016-05-02T16:41:00Z",
      "version": 6,
      "changeset": 39044736,
      "user": "gspinoza",
      "uid": 562239,
      "tags": {
        "ele": "3450",
        "mountain_pass": "yes",
        "name": "Fremont Pass",
        "natural": "saddle"
      }
    },
    {
      "type": "node",
      "id": 177348763,
      "lat": 39.108577,
      "lon": -106.56397,
      "timestamp": "2015-01-16T21:59:57Z",
      "version": 4,
      "changeset": 28196953,
      "user": "geow",
      "uid": 223093,
      "tags": {
        "ele": "3685",
        "mountain_pass": "yes",
        "name": "Independence Pass",
        "natural": "saddle"
      }
    },
    {
      "type": "node",
      "id": 177781098,
      "lat": 38.9794348,
      "lon": -106.8237349,
      "timestamp": "2021-04-10T04:25:01Z",
      "version": 5,
      "changeset": 102679208,
      "user": "pmckay419",
      "uid": 12633413,
      "tags": {
        "ele": "3872",
        "mountain_pass": "yes",
        "name": "Pearl Pass",
        "natural": "saddle",
        "source": "USGS Topo map"
      }
    },
    {
      "type": "node",
      "id": 177785170,
      "lat": 39.2634184,
      "lon": -106.4831895,
      "timestamp": "2017-09-14T06:38:41Z",
      "version": 6,
      "changeset": 52027253,
      "user": "Edward",
      "uid": 364,
      "tags": {
        "description": "Continental Divide",
        "ele": "3635",
        "mountain_pass": "yes",
        "name": "Hagerman Pass",
        "natural": "saddle",
        "wikidata": "Q5638629"
      }
    },
    {
      "type": "node",
      "id": 358914630,
      "lat": 39.2549951,
      "lon": -106.2728011,
      "timestamp": "2021-02-11T16:08:13Z",
      "version": 3,
      "changeset": 99118862,
      "user": "hofoen",
      "uid": 52797,
      "tags": {
        "ele": "3199",
        "gnis:county_id": "065",
        "gnis:created": "10/13/1978",
        "gnis:feature_id": "179853",
        "gnis:state_id": "08",
        "name": "Fryer Hill",
        "natural": "peak",
        "wikidata": "Q49030729"
      }
    },
    {
      "type": "node",
      "id": 358914647,
      "lat": 39.254434,
      "lon": -106.2786346,
      "timestamp": "2021-02-11T16:08:13Z",
      "version": 2,
      "changeset": 99118862,
      "user": "hofoen",
      "uid": 52797,
      "tags": {
        "ele": "3174",
        "gnis:county_id": "065",
        "gnis:created": "10/13/1978",
        "gnis:feature_id": "179865",
        "gnis:state_id": "08",
        "name": "Fairview Hill",
        "natural": "peak",
        "wikidata": "Q49028422"
      }
    },
    {
      "type": "node",
      "id": 358914846,
      "lat": 39.1760986,
      "lon": -106.8292058,
      "timestamp": "2017-09-14T06:38:39Z",
      "version": 2,
      "changeset": 52027253,
      "user": "Edward",
      "uid": 364,
      "tags": {
        "ele": "2963",
        "gnis:county_id": "097",
        "gnis:created": "10/13/1978",
        "gnis:feature_id": "180059",
        "gnis:state_id": "08",
        "name": "Aspen Mountain",
        "natural": "peak",
        "wikidata": "Q4807832"
      }
    },
    {
      "type": "node",
      "id": 358914913,
      "lat": 39.1875396,
      "lon": -106.475619,
      "timestamp": "2020-11-12T17:10:33Z",
      "version": 4,
      "changeset": 94009246,
      "user": "mtbgreg1",
      "uid": 9051711,
      "tags": {
        "ele": "4398",
        "gnis:county_id": "065",
        "gnis:created": "10/13/1978",
        "gnis:feature_id": "180119",
        "gnis:state_id": "08",
        "name": "Mount Massive",
        "natural": "peak",
        "wikidata": "Q1788964"
      }
    },
    {
      "type": "node",
      "id": 358914920,
      "lat": 39.1286017,
      "lon": -106.4825282,
      "timestamp": "2017-09-10T17:11:54Z",
      "version": 2,
      "changeset": 51914083,
      "user": "Edward",
      "uid": 364,
      "tags": {
        "ele": "4234",
        "gnis:county_id": "065",
        "gnis:created": "10/13/1978",
        "gnis:feature_id": "180128",
        "gnis:state_id": "08",
        "name": "French Mountain",
        "natural": "peak",
        "wikidata": "Q14684514"
      }
    },
    {
      "type": "node",
      "id": 358914956,
      "lat": 39.2424898,
      "lon": -106.2758567,
      "timestamp": "2021-02-11T16:08:13Z",
      "version": 2,
      "changeset": 99118862,
      "user": "hofoen",
      "uid": 52797,
      "tags": {
        "ele": "3245",
        "gnis:county_id": "065",
        "gnis:created": "10/13/1978",
        "gnis:feature_id": "180163",
        "gnis:state_id": "08",
        "name": "Carbonate Hill",
        "natural": "peak",
        "wikidata": "Q49018096"
      }
    },
    {
      "type": "node",
      "id": 358915091,
      "lat": 39.2397122,
      "lon": -106.1833546,
      "timestamp": "2017-09-10T17:11:54Z",
      "version": 2,
      "changeset": 51914083,
      "user": "Edward",
      "uid": 364,
      "tags": {
        "ele": "4214",
        "gnis:county_id": "065",
        "gnis:created": "10/13/1978",
        "gnis:feature_id": "180211",
        "gnis:state_id": "08",
        "name": "Dyer Mountain",
        "natural": "peak",
        "wikidata": "Q14684453"
      }
    },
    {
      "type": "node",
      "id": 358915330,
      "lat": 39.0344348,
      "lon": -106.8589292,
      "timestamp": "2017-09-14T06:38:46Z",
      "version": 2,
      "changeset": 52027253,
      "user": "Edward",
      "uid": 364,
      "tags": {
        "ele": "4247",
        "gnis:county_id": "097",
        "gnis:created": "10/13/1978",
        "gnis:feature_id": "180297",
        "gnis:state_id": "08",
        "name": "Cathedral Peak",
        "natural": "peak",
        "wikidata": "Q14684364"
      }
    },
    {
      "type": "node",
      "id": 358915353,
      "lat": 39.0097131,
      "lon": -106.861429,
      "timestamp": "2020-11-12T17:15:19Z",
      "version": 3,
      "changeset": 94009467,
      "user": "mtbgreg1",
      "uid": 9051711,
      "tags": {
        "ele": "4352.2",
        "gnis:county_id": "097",
        "gnis:created": "10/13/1978",
        "gnis:feature_id": "180301",
        "gnis:state_id": "08",
        "name": "Castle Peak",
        "natural": "peak",
        "wikidata": "Q5050217"
      }
    },
    {
      "type": "node",
      "id": 358915420,
      "lat": 39.0541581,
      "lon": -106.5650304,
      "timestamp": "2017-09-14T06:53:59Z",
      "version": 2,
      "changeset": 52027574,
      "user": "Edward",
      "uid": 364,
      "tags": {
        "ele": "3934",
        "gnis:county_id": "015",
        "gnis:created": "10/13/1978",
        "gnis:feature_id": "180347",
        "gnis:state_id": "08",
        "name": "Ouray Peak",
        "natural": "peak",
        "wikidata": "Q7111274"
      }
    },
    {
      "type": "node",
      "id": 358915473,
      "lat": 39.1141575,
      "lon": -106.4939173,
      "timestamp": "2017-09-10T17:11:53Z",
      "version": 2,
      "changeset": 51914083,
      "user": "Edward",
      "uid": 364,
      "tags": {
        "ele": "4237",
        "gnis:county_id": "065",
        "gnis:created": "10/13/1978",
        "gnis:feature_id": "180377",
        "gnis:state_id": "08",
        "name": "Casco Peak",
        "natural": "peak",
        "wikidata": "Q14684358"
      }
    },
    {
      "type": "node",
      "id": 358915477,
      "lat": 39.1179831,
      "lon": -106.4450474,
      "timestamp": "2019-05-02T12:02:25Z",
      "version": 5,
      "changeset": 69801103,
      "user": "Homme",
      "uid": 29370,
      "tags": {
        "ele": "4401.2",
        "gnis:county_id": "065",
        "gnis:created": "10/13/1978",
        "gnis:feature_id": "180381",
        "gnis:state_id": "08",
        "name": "Mount Elbert",
        "natural": "peak",
        "prominence": "2772",
        "wikidata": "Q657225",
        "wikipedia": "en:Mount_Elbert"
      }
    },
    {
      "type": "node",
      "id": 358915486,
      "lat": 39.0294519,
      "lon": -106.4729609,
      "timestamp": "2020-12-08T19:28:09Z",
      "version": 4,
      "changeset": 95507621,
      "user": "mtbgreg1",
      "uid": 9051711,
      "tags": {
        "ele": "4372",
        "gnis:county_id": "015",
        "gnis:created": "10/13/1978",
        "gnis:feature_id": "180393",
        "gnis:state_id": "08",
        "name": "La Plata Peak",
        "natural": "peak",
        "wikidata": "Q656608"
      }
    },
    {
      "type": "node",
      "id": 358915505,
      "lat": 39.0211039,
      "lon": -106.4197483,
      "timestamp": "2017-09-14T06:54:03Z",
      "version": 2,
      "changeset": 52027574,
      "user": "Edward",
      "uid": 364,
      "tags": {
        "ele": "4249",
        "gnis:county_id": "015",
        "gnis:created": "10/13/1978",
        "gnis:feature_id": "180405",
        "gnis:state_id": "08",
        "name": "Mount Hope",
        "natural": "peak",
        "wikidata": "Q14684989"
      }
    },
    {
      "type": "node",
      "id": 358924809,
      "lat": 38.928883,
      "lon": -106.381136,
      "timestamp": "2017-09-14T06:54:03Z",
      "version": 2,
      "changeset": 52027574,
      "user": "Edward",
      "uid": 364,
      "tags": {
        "ele": "4232",
        "gnis:county_id": "015",
        "gnis:created": "10/13/1978",
        "gnis:feature_id": "189165",
        "gnis:state_id": "08",
        "name": "Emerald Peak",
        "natural": "peak",
        "wikidata": "Q14684482"
      }
    },
    {
      "type": "node",
      "id": 358924821,
      "lat": 38.9606444,
      "lon": -106.3607841,
      "timestamp": "2020-12-09T00:45:56Z",
      "version": 4,
      "changeset": 95516701,
      "user": "mtbgreg1",
      "uid": 9051711,
      "tags": {
        "ele": "4329.1",
        "gnis:county_id": "015",
        "gnis:created": "10/13/1978",
        "gnis:feature_id": "189170",
        "gnis:state_id": "08",
        "name": "Mount Belford",
        "natural": "peak",
        "wikidata": "Q6919666"
      }
    },
    {
      "type": "node",
      "id": 358924825,
      "lat": 38.9647162,
      "lon": -106.338912,
      "timestamp": "2020-11-12T17:22:52Z",
      "version": 3,
      "changeset": 94009820,
      "user": "mtbgreg1",
      "uid": 9051711,
      "tags": {
        "ele": "4315.9",
        "gnis:county_id": "015",
        "gnis:created": "10/13/1978",
        "gnis:feature_id": "189171",
        "gnis:state_id": "08",
        "name": "Mount Oxford",
        "natural": "peak",
        "wikidata": "Q6922631"
      }
    },
    {
      "type": "node",
      "id": 358924839,
      "lat": 38.844162,
      "lon": -106.3139118,
      "timestamp": "2017-09-14T06:53:58Z",
      "version": 2,
      "changeset": 52027574,
      "user": "Edward",
      "uid": 364,
      "tags": {
        "ele": "4328",
        "gnis:county_id": "015",
        "gnis:created": "10/13/1978",
        "gnis:feature_id": "189198",
        "gnis:state_id": "08",
        "name": "Mount Yale",
        "natural": "peak",
        "wikidata": "Q6924685"
      }
    },
    {
      "type": "node",
      "id": 358931554,
      "lat": 39.1788784,
      "lon": -106.5061402,
      "timestamp": "2017-09-14T06:38:47Z",
      "version": 2,
      "changeset": 52027253,
      "user": "Edward",
      "uid": 364,
      "tags": {
        "ele": "4213",
        "gnis:county_id": "097",
        "gnis:created": "11/01/1991",
        "gnis:feature_id": "196668",
        "gnis:state_id": "08",
        "name": "Mount Oklahoma",
        "natural": "peak",
        "wikidata": "Q14685001"
      }
    },
    {
      "type": "node",
      "id": 358944378,
      "lat": 38.903883,
      "lon": -106.297523,
      "timestamp": "2017-09-14T06:53:57Z",
      "version": 3,
      "changeset": 52027574,
      "user": "Edward",
      "uid": 364,
      "tags": {
        "ele": "4285",
        "gnis:county_id": "015",
        "gnis:created": "10/13/1978",
        "gnis:feature_id": "203886",
        "gnis:state_id": "08",
        "name": "Mount Columbia",
        "natural": "peak",
        "wikidata": "Q6920212"
      }
    },
    {
      "type": "node",
      "id": 358947103,
      "lat": 39.0111039,
      "lon": -106.4536381,
      "timestamp": "2017-09-14T06:54:02Z",
      "version": 2,
      "changeset": 52027574,
      "user": "Edward",
      "uid": 364,
      "tags": {
        "ele": "4143",
        "gnis:county_id": "015",
        "gnis:created": "10/29/2003",
        "gnis:feature_id": "2013628",
        "gnis:state_id": "08",
        "name": "Mount Blaurock",
        "natural": "peak",
        "wikidata": "Q8537012"
      }
    },
    {
      "type": "node",
      "id": 663272607,
      "lat": 38.8332202,
      "lon": -106.7156958,
      "timestamp": "2015-10-19T19:01:36Z",
      "version": 2,
      "changeset": 34741649,
      "user": "Dilys",
      "uid": 2475974,
      "tags": {
        "name": "White Water Spring",
        "natural": "spring",
        "source": "USGS Topo map"
      }
    },
    {
      "type": "node",
      "id": 663274725,
      "lat": 38.8511488,
      "lon": -106.8467386,
      "timestamp": "2015-10-19T15:17:56Z",
      "version": 2,
      "changeset": 34735140,
      "user": "Dilys",
      "uid": 2475974,
      "tags": {
        "natural": "spring",
        "source": "USGS Topo map"
      }
    },
    {
      "type": "node",
      "id": 663274856,
      "lat": 38.8686326,
      "lon": -106.8185271,
      "timestamp": "2015-10-19T15:06:35Z",
      "version": 2,
      "changeset": 34734906,
      "user": "Dilys",
      "uid": 2475974,
      "tags": {
        "natural": "spring",
        "source": "USGS Topo map"
      }
    },
    {
      "type": "node",
      "id": 1151403471,
      "lat": 39.3622658,
      "lon": -106.3110304,
      "timestamp": "2016-05-02T00:57:52Z",
      "version": 4,
      "changeset": 39028040,
      "user": "gspinoza",
      "uid": 562239,
      "tags": {
        "ele": "3177",
        "mountain_pass": "yes",
        "name": "Tennessee Pass",
        "natural": "saddle",
        "source:ele": "USGS topo"
      }
    },
    {
      "type": "node",
      "id": 1305519438,
      "lat": 39.1083331,
      "lon": -106.563879,
      "timestamp": "2018-12-09T03:26:38Z",
      "version": 2,
      "changeset": 65305586,
      "user": "phidauex",
      "uid": 1231522,
      "tags": {
        "amenity": "drinking_water"
      }
    },
    {
      "type": "node",
      "id": 1432931320,
      "lat": 39.2602752,
      "lon": -106.2915042,
      "timestamp": "2011-09-14T18:59:31Z",
      "version": 1,
      "changeset": 9302151,
      "user": "Steve",
      "uid": 1,
      "tags": {
        "name": "Stop & save",
        "shop": "convenience"
      }
    },
    {
      "type": "node",
      "id": 1795796163,
      "lat": 39.0642172,
      "lon": -106.4106524,
      "timestamp": "2012-06-20T15:00:30Z",
      "version": 1,
      "changeset": 11959702,
      "user": "derricknehrenberg",
      "uid": 366306,
      "tags": {
        "amenity": "drinking_water"
      }
    },
    {
      "type": "node",
      "id": 1970958669,
      "lat": 38.924425,
      "lon": -106.320798,
      "timestamp": "2020-11-12T17:11:22Z",
      "version": 4,
      "changeset": 94009281,
      "user": "mtbgreg1",
      "uid": 9051711,
      "tags": {
        "ele": "4395.6",
        "gnis:county_id": "015",
        "gnis:created": "10/13/1978",
        "gnis:feature_id": "189179",
        "gnis:state_id": "08",
        "name": "Mount Harvard",
        "natural": "peak",
        "wikidata": "Q4245165"
      }
    },
    {
      "type": "node",
      "id": 1974146133,
      "lat": 39.0913731,
      "lon": -106.3235643,
      "timestamp": "2012-10-19T19:42:20Z",
      "version": 1,
      "changeset": 13560957,
      "user": "derricknehrenberg",
      "uid": 366306,
      "tags": {
        "amenity": "drinking_water",
        "name": "Pump"
      }
    },
    {
      "type": "node",
      "id": 1978535762,
      "lat": 38.9475767,
      "lon": -106.378528,
      "timestamp": "2020-11-12T17:30:06Z",
      "version": 4,
      "changeset": 94010153,
      "user": "mtbgreg1",
      "uid": 9051711,
      "tags": {
        "ele": "4289.8",
        "gnis:county_id": "015",
        "gnis:created": "10/13/1978",
        "gnis:feature_id": "189167",
        "gnis:state_id": "08",
        "name": "Missouri Mountain",
        "natural": "peak",
        "wikidata": "Q6879597"
      }
    },
    {
      "type": "node",
      "id": 1979641458,
      "lat": 39.0908124,
      "lon": -106.3238725,
      "timestamp": "2012-10-23T17:03:23Z",
      "version": 1,
      "changeset": 13607595,
      "user": "derricknehrenberg",
      "uid": 366306,
      "tags": {
        "name": "Sunnyside",
        "tourism": "camp_site"
      }
    },
    {
      "type": "node",
      "id": 1979641459,
      "lat": 39.0908797,
      "lon": -106.3243244,
      "timestamp": "2012-10-23T17:03:23Z",
      "version": 1,
      "changeset": 13607595,
      "user": "derricknehrenberg",
      "uid": 366306,
      "tags": {
        "name": "Sunnyside",
        "tourism": "camp_site"
      }
    },
    {
      "type": "node",
      "id": 1979641460,
      "lat": 39.0910053,
      "lon": -106.3226451,
      "timestamp": "2012-10-23T17:03:23Z",
      "version": 1,
      "changeset": 13607595,
      "user": "derricknehrenberg",
      "uid": 366306,
      "tags": {
        "name": "Sunnyside",
        "tourism": "camp_site"
      }
    },
    {
      "type": "node",
      "id": 1979641461,
      "lat": 39.0910454,
      "lon": -106.3231237,
      "timestamp": "2012-10-23T17:03:23Z",
      "version": 1,
      "changeset": 13607595,
      "user": "derricknehrenberg",
      "uid": 366306,
      "tags": {
        "name": "Sunnyside",
        "tourism": "camp_site"
      }
    },
    {
      "type": "node",
      "id": 1979641462,
      "lat": 39.0911606,
      "lon": -106.3235806,
      "timestamp": "2012-10-23T17:03:23Z",
      "version": 1,
      "changeset": 13607595,
      "user": "derricknehrenberg",
      "uid": 366306,
      "tags": {
        "name": "Sunnyside",
        "tourism": "camp_site"
      }
    },
    {
      "type": "node",
      "id": 1979641463,
      "lat": 39.0914181,
      "lon": -106.3223033,
      "timestamp": "2012-10-23T17:03:23Z",
      "version": 1,
      "changeset": 13607595,
      "user": "derricknehrenberg",
      "uid": 366306,
      "tags": {
        "name": "Sunnyside",
        "tourism": "camp_site"
      }
    },
    {
      "type": "node",
      "id": 2307235079,
      "lat": 39.1926858,
      "lon": -106.8190275,
      "timestamp": "2020-01-21T16:46:14Z",
      "version": 5,
      "changeset": 79867043,
      "user": "b-jazz-bot",
      "uid": 9451067,
      "tags": {
        "is_in:city": "Aspen",
        "is_in:state": "Colorado",
        "is_in:state_code": "CO",
        "name": "Clark's Market",
        "shop": "supermarket",
        "website": "https://clarksmarket.com/"
      }
    },
    {
      "type": "node",
      "id": 2340125696,
      "lat": 39.0881022,
      "lon": -106.3654472,
      "timestamp": "2013-06-11T06:01:38Z",
      "version": 1,
      "changeset": 16505037,
      "user": "GPS_dr",
      "uid": 117055,
      "tags": {
        "tourism": "camp_site"
      }
    },
    {
      "type": "node",
      "id": 2340125698,
      "lat": 39.0880566,
      "lon": -106.3665281,
      "timestamp": "2013-06-11T06:01:38Z",
      "version": 1,
      "changeset": 16505037,
      "user": "GPS_dr",
      "uid": 117055,
      "tags": {
        "tourism": "camp_site"
      }
    },
    {
      "type": "node",
      "id": 2340125704,
      "lat": 39.0881815,
      "lon": -106.3669277,
      "timestamp": "2013-06-11T06:01:38Z",
      "version": 1,
      "changeset": 16505037,
      "user": "GPS_dr",
      "uid": 117055,
      "tags": {
        "tourism": "camp_site"
      }
    },
    {
      "type": "node",
      "id": 2340125712,
      "lat": 39.0875694,
      "lon": -106.3677887,
      "timestamp": "2013-06-11T06:01:38Z",
      "version": 1,
      "changeset": 16505037,
      "user": "GPS_dr",
      "uid": 117055,
      "tags": {
        "tourism": "camp_site"
      }
    },
    {
      "type": "node",
      "id": 2340125719,
      "lat": 39.0880044,
      "lon": -106.3661848,
      "timestamp": "2013-06-11T06:01:38Z",
      "version": 1,
      "changeset": 16505037,
      "user": "GPS_dr",
      "uid": 117055,
      "tags": {
        "tourism": "camp_site"
      }
    },
    {
      "type": "node",
      "id": 2340125723,
      "lat": 39.0876755,
      "lon": -106.3685558,
      "timestamp": "2013-06-11T06:01:38Z",
      "version": 1,
      "changeset": 16505037,
      "user": "GPS_dr",
      "uid": 117055,
      "tags": {
        "tourism": "camp_site"
      }
    },
    {
      "type": "node",
      "id": 2340125730,
      "lat": 39.0909857,
      "lon": -106.3678772,
      "timestamp": "2013-06-11T06:01:38Z",
      "version": 1,
      "changeset": 16505037,
      "user": "GPS_dr",
      "uid": 117055,
      "tags": {
        "tourism": "camp_site"
      }
    },
    {
      "type": "node",
      "id": 2340125741,
      "lat": 39.0885604,
      "lon": -106.3666729,
      "timestamp": "2013-06-11T06:01:39Z",
      "version": 1,
      "changeset": 16505037,
      "user": "GPS_dr",
      "uid": 117055,
      "tags": {
        "tourism": "camp_site"
      }
    },
    {
      "type": "node",
      "id": 2340125753,
      "lat": 39.0901717,
      "lon": -106.3665254,
      "timestamp": "2014-06-27T08:14:57Z",
      "version": 2,
      "changeset": 23208218,
      "user": "SamatJain",
      "uid": 227924,
      "tags": {
        "name": "Whitestar Campground",
        "tourism": "camp_site"
      }
    },
    {
      "type": "node",
      "id": 2340125755,
      "lat": 39.0910939,
      "lon": -106.3655518,
      "timestamp": "2013-06-11T06:01:39Z",
      "version": 1,
      "changeset": 16505037,
      "user": "GPS_dr",
      "uid": 117055,
      "tags": {
        "tourism": "camp_site"
      }
    },
    {
      "type": "node",
      "id": 2340125766,
      "lat": 39.0905859,
      "lon": -106.3650126,
      "timestamp": "2013-06-11T06:01:39Z",
      "version": 1,
      "changeset": 16505037,
      "user": "GPS_dr",
      "uid": 117055,
      "tags": {
        "tourism": "camp_site"
      }
    },
    {
      "type": "node",
      "id": 2340125774,
      "lat": 39.0911876,
      "lon": -106.3662599,
      "timestamp": "2013-06-11T06:01:39Z",
      "version": 1,
      "changeset": 16505037,
      "user": "GPS_dr",
      "uid": 117055,
      "tags": {
        "tourism": "camp_site"
      }
    },
    {
      "type": "node",
      "id": 2340125776,
      "lat": 39.0880732,
      "lon": -106.3649563,
      "timestamp": "2013-06-11T06:01:39Z",
      "version": 1,
      "changeset": 16505037,
      "user": "GPS_dr",
      "uid": 117055,
      "tags": {
        "tourism": "camp_site"
      }
    },
    {
      "type": "node",
      "id": 2340125779,
      "lat": 39.088656,
      "lon": -106.3662974,
      "timestamp": "2013-06-11T06:01:39Z",
      "version": 1,
      "changeset": 16505037,
      "user": "GPS_dr",
      "uid": 117055,
      "tags": {
        "tourism": "camp_site"
      }
    },
    {
      "type": "node",
      "id": 2340125781,
      "lat": 39.0883167,
      "lon": -106.3655384,
      "timestamp": "2013-06-11T06:01:39Z",
      "version": 1,
      "changeset": 16505037,
      "user": "GPS_dr",
      "uid": 117055,
      "tags": {
        "tourism": "camp_site"
      }
    },
    {
      "type": "node",
      "id": 2340125808,
      "lat": 39.0883626,
      "lon": -106.3680274,
      "timestamp": "2013-06-11T06:01:39Z",
      "version": 1,
      "changeset": 16505037,
      "user": "GPS_dr",
      "uid": 117055,
      "tags": {
        "tourism": "camp_site"
      }
    },
    {
      "type": "node",
      "id": 2340125839,
      "lat": 39.0905088,
      "lon": -106.3657342,
      "timestamp": "2013-06-11T06:01:40Z",
      "version": 1,
      "changeset": 16505037,
      "user": "GPS_dr",
      "uid": 117055,
      "tags": {
        "tourism": "camp_site"
      }
    },
    {
      "type": "node",
      "id": 2340125854,
      "lat": 39.0886561,
      "lon": -106.36571,
      "timestamp": "2013-06-11T06:01:40Z",
      "version": 1,
      "changeset": 16505037,
      "user": "GPS_dr",
      "uid": 117055,
      "tags": {
        "tourism": "camp_site"
      }
    },
    {
      "type": "node",
      "id": 2340125856,
      "lat": 39.0884563,
      "lon": -106.3688831,
      "timestamp": "2013-06-11T06:01:40Z",
      "version": 1,
      "changeset": 16505037,
      "user": "GPS_dr",
      "uid": 117055,
      "tags": {
        "tourism": "camp_site"
      }
    },
    {
      "type": "node",
      "id": 2340125858,
      "lat": 39.0874237,
      "lon": -106.3670672,
      "timestamp": "2013-06-11T06:01:40Z",
      "version": 1,
      "changeset": 16505037,
      "user": "GPS_dr",
      "uid": 117055,
      "tags": {
        "tourism": "camp_site"
      }
    },
    {
      "type": "node",
      "id": 2340125870,
      "lat": 39.0911522,
      "lon": -106.3675983,
      "timestamp": "2013-06-11T06:01:40Z",
      "version": 1,
      "changeset": 16505037,
      "user": "GPS_dr",
      "uid": 117055,
      "tags": {
        "tourism": "camp_site"
      }
    },
    {
      "type": "node",
      "id": 2340125878,
      "lat": 39.0883084,
      "lon": -106.3683788,
      "timestamp": "2013-06-11T06:01:40Z",
      "version": 1,
      "changeset": 16505037,
      "user": "GPS_dr",
      "uid": 117055,
      "tags": {
        "tourism": "camp_site"
      }
    },
    {
      "type": "node",
      "id": 2340125890,
      "lat": 39.0908086,
      "lon": -106.3663216,
      "timestamp": "2013-06-11T06:01:40Z",
      "version": 1,
      "changeset": 16505037,
      "user": "GPS_dr",
      "uid": 117055,
      "tags": {
        "tourism": "camp_site"
      }
    },
    {
      "type": "node",
      "id": 2340125894,
      "lat": 39.0911377,
      "lon": -106.366689,
      "timestamp": "2013-06-11T06:01:40Z",
      "version": 1,
      "changeset": 16505037,
      "user": "GPS_dr",
      "uid": 117055,
      "tags": {
        "tourism": "camp_site"
      }
    },
    {
      "type": "node",
      "id": 2340125900,
      "lat": 39.0883251,
      "lon": -106.3658307,
      "timestamp": "2013-06-11T06:01:40Z",
      "version": 1,
      "changeset": 16505037,
      "user": "GPS_dr",
      "uid": 117055,
      "tags": {
        "tourism": "camp_site"
      }
    },
    {
      "type": "node",
      "id": 2340125910,
      "lat": 39.0884353,
      "lon": -106.36501,
      "timestamp": "2013-06-11T06:01:40Z",
      "version": 1,
      "changeset": 16505037,
      "user": "GPS_dr",
      "uid": 117055,
      "tags": {
        "tourism": "camp_site"
      }
    },
    {
      "type": "node",
      "id": 2340125927,
      "lat": 39.090815,
      "lon": -106.3660507,
      "timestamp": "2013-06-11T06:01:41Z",
      "version": 1,
      "changeset": 16505037,
      "user": "GPS_dr",
      "uid": 117055,
      "tags": {
        "tourism": "camp_site"
      }
    },
    {
      "type": "node",
      "id": 2340125942,
      "lat": 39.0884813,
      "lon": -106.3684459,
      "timestamp": "2013-06-11T06:01:41Z",
      "version": 1,
      "changeset": 16505037,
      "user": "GPS_dr",
      "uid": 117055,
      "tags": {
        "tourism": "camp_site"
      }
    },
    {
      "type": "node",
      "id": 2340125946,
      "lat": 39.0908483,
      "lon": -106.3672496,
      "timestamp": "2013-06-11T06:01:41Z",
      "version": 1,
      "changeset": 16505037,
      "user": "GPS_dr",
      "uid": 117055,
      "tags": {
        "tourism": "camp_site"
      }
    },
    {
      "type": "node",
      "id": 2340125954,
      "lat": 39.0880524,
      "lon": -106.3687248,
      "timestamp": "2013-06-11T06:01:41Z",
      "version": 1,
      "changeset": 16505037,
      "user": "GPS_dr",
      "uid": 117055,
      "tags": {
        "tourism": "camp_site"
      }
    },
    {
      "type": "node",
      "id": 2340125965,
      "lat": 39.0878213,
      "lon": -106.3679631,
      "timestamp": "2013-06-11T06:01:41Z",
      "version": 1,
      "changeset": 16505037,
      "user": "GPS_dr",
      "uid": 117055,
      "tags": {
        "tourism": "camp_site"
      }
    },
    {
      "type": "node",
      "id": 2340125967,
      "lat": 39.0879461,
      "lon": -106.3657476,
      "timestamp": "2013-06-11T06:01:41Z",
      "version": 1,
      "changeset": 16505037,
      "user": "GPS_dr",
      "uid": 117055,
      "tags": {
        "tourism": "camp_site"
      }
    },
    {
      "type": "node",
      "id": 2340134309,
      "lat": 39.0878629,
      "lon": -106.3675366,
      "timestamp": "2013-06-11T06:18:09Z",
      "version": 1,
      "changeset": 16505037,
      "user": "GPS_dr",
      "uid": 117055,
      "tags": {
        "tourism": "camp_site"
      }
    },
    {
      "type": "node",
      "id": 2340134336,
      "lat": 39.0914207,
      "lon": -106.3660158,
      "timestamp": "2013-06-11T06:18:09Z",
      "version": 1,
      "changeset": 16505037,
      "user": "GPS_dr",
      "uid": 117055,
      "tags": {
        "tourism": "camp_site"
      }
    },
    {
      "type": "node",
      "id": 2340134378,
      "lat": 39.0908858,
      "lon": -106.3667373,
      "timestamp": "2013-06-11T06:18:10Z",
      "version": 1,
      "changeset": 16505037,
      "user": "GPS_dr",
      "uid": 117055,
      "tags": {
        "tourism": "camp_site"
      }
    },
    {
      "type": "node",
      "id": 2340134393,
      "lat": 39.0914374,
      "lon": -106.3668956,
      "timestamp": "2013-06-11T06:18:10Z",
      "version": 1,
      "changeset": 16505037,
      "user": "GPS_dr",
      "uid": 117055,
      "tags": {
        "tourism": "camp_site"
      }
    },
    {
      "type": "node",
      "id": 2351682048,
      "lat": 39.188385,
      "lon": -106.82419,
      "timestamp": "2018-03-23T07:58:26Z",
      "version": 3,
      "changeset": 57446991,
      "user": "chachafish",
      "uid": 2237750,
      "tags": {
        "amenity": "drinking_water",
        "description": "Koch lumber park",
        "is_in:city": "Aspen",
        "is_in:state": "Colorado",
        "is_in:state_code": "CO",
        "source": "wetap.org",
        "wetap:status": "working"
      }
    },
    {
      "type": "node",
      "id": 2351682050,
      "lat": 39.18958,
      "lon": -106.817726,
      "timestamp": "2018-03-23T07:56:44Z",
      "version": 3,
      "changeset": 57446947,
      "user": "chachafish",
      "uid": 2237750,
      "tags": {
        "amenity": "drinking_water",
        "description": "city hall",
        "is_in:city": "Aspen",
        "is_in:state": "Colorado",
        "is_in:state_code": "CO",
        "source": "wetap.org",
        "wetap:status": "working",
        "wetap:statusnote": "summer only"
      }
    },
    {
      "type": "node",
      "id": 2351682053,
      "lat": 39.189987,
      "lon": -106.82104,
      "timestamp": "2013-06-18T22:35:35Z",
      "version": 1,
      "changeset": 16610678,
      "user": "Bryce C Nesbitt",
      "uid": 355242,
      "tags": {
        "amenity": "drinking_water",
        "description": "Francis Whitaker park",
        "source": "wetap.org",
        "wetap:status": "working"
      }
    },
    {
      "type": "node",
      "id": 2351682055,
      "lat": 39.1917628,
      "lon": -106.8171589,
      "timestamp": "2018-03-22T11:22:42Z",
      "version": 5,
      "changeset": 57418399,
      "user": "chachafish",
      "uid": 2237750,
      "tags": {
        "amenity": "drinking_water",
        "description": "skate park",
        "is_in:city": "Aspen",
        "is_in:state": "Colorado",
        "is_in:state_code": "CO",
        "source": "wetap.org",
        "wetap:status": "working",
        "wetap:statusnote": "summer only",
        "wheelchair": "yes"
      }
    },
    {
      "type": "node",
      "id": 2351682057,
      "lat": 39.20108,
      "lon": -106.84633,
      "timestamp": "2013-06-18T22:35:35Z",
      "version": 1,
      "changeset": 16610678,
      "user": "Bryce C Nesbitt",
      "uid": 355242,
      "tags": {
        "amenity": "drinking_water",
        "description": "municipal golf course",
        "source": "wetap.org",
        "wetap:status": "working"
      }
    },
    {
      "type": "node",
      "id": 2362262908,
      "lat": 38.824873,
      "lon": -106.8687838,
      "timestamp": "2013-07-04T04:02:56Z",
      "version": 3,
      "changeset": 16815770,
      "user": "DKNOTT",
      "uid": 1149057,
      "tags": {
        "natural": "cave_entrance"
      }
    },
    {
      "type": "node",
      "id": 2362317037,
      "lat": 38.8248397,
      "lon": -106.8685808,
      "timestamp": "2013-07-04T04:02:56Z",
      "version": 2,
      "changeset": 16815770,
      "user": "DKNOTT",
      "uid": 1149057,
      "tags": {
        "natural": "cave_entrance"
      }
    },
    {
      "type": "node",
      "id": 2402566129,
      "lat": 39.1911128,
      "lon": -106.8235606,
      "timestamp": "2020-12-06T21:58:15Z",
      "version": 9,
      "changeset": 95382631,
      "user": "samuelestabrook",
      "uid": 633750,
      "tags": {
        "ele": "2405",
        "name": "Aspen",
        "place": "town",
        "population": "6658",
        "postal_code": "81611",
        "wikidata": "Q205842",
        "wikipedia": "en:Aspen, Colorado"
      }
    },
    {
      "type": "node",
      "id": 2510102603,
      "lat": 39.0819313,
      "lon": -106.3821924,
      "timestamp": "2018-05-12T03:49:43Z",
      "version": 2,
      "changeset": 58893810,
      "user": "chachafish",
      "uid": 2237750,
      "tags": {
        "name": "Twin Lakes General Store",
        "shop": "supermarket"
      }
    },
    {
      "type": "node",
      "id": 2646546846,
      "lat": 38.9454592,
      "lon": -106.437998,
      "timestamp": "2020-12-15T23:22:21Z",
      "version": 2,
      "changeset": 95904502,
      "user": "mtbgreg1",
      "uid": 9051711,
      "tags": {
        "ele": "4270.2",
        "gnis:county_id": "015",
        "gnis:created": "10/13/1978",
        "gnis:feature_id": "189155",
        "gnis:state_id": "08",
        "name": "Huron Peak",
        "natural": "peak",
        "wikidata": "Q8522740"
      }
    },
    {
      "type": "node",
      "id": 2935157481,
      "lat": 39.0918652,
      "lon": -106.323766,
      "timestamp": "2014-06-27T08:14:56Z",
      "version": 1,
      "changeset": 23208218,
      "user": "SamatJain",
      "uid": 227924,
      "tags": {
        "name": "Dexter Point Campground",
        "tourism": "camp_site"
      }
    },
    {
      "type": "node",
      "id": 2935157484,
      "lat": 39.0988059,
      "lon": -106.3620468,
      "timestamp": "2018-05-12T03:43:49Z",
      "version": 2,
      "changeset": 58893774,
      "user": "chachafish",
      "uid": 2237750,
      "tags": {
        "name": "Lakeview Campground",
        "tourism": "camp_site"
      }
    },
    {
      "type": "node",
      "id": 2935157485,
      "lat": 39.1171505,
      "lon": -106.695859,
      "timestamp": "2014-06-27T08:14:56Z",
      "version": 1,
      "changeset": 23208218,
      "user": "SamatJain",
      "uid": 227924,
      "tags": {
        "name": "Lincoln Gulch Campground",
        "tourism": "camp_site"
      }
    },
    {
      "type": "node",
      "id": 2935157486,
      "lat": 39.12166,
      "lon": -106.62503,
      "timestamp": "2014-06-27T08:14:56Z",
      "version": 1,
      "changeset": 23208218,
      "user": "SamatJain",
      "uid": 227924,
      "tags": {
        "name": "Lost Man Campground",
        "tourism": "camp_site"
      }
    },
    {
      "type": "node",
      "id": 2935157487,
      "lat": 39.0681,
      "lon": -106.41,
      "timestamp": "2014-06-27T08:14:56Z",
      "version": 1,
      "changeset": 23208218,
      "user": "SamatJain",
      "uid": 227924,
      "tags": {
        "name": "Parry Peak Campground",
        "tourism": "camp_site"
      }
    },
    {
      "type": "node",
      "id": 2935157488,
      "lat": 39.07638,
      "lon": -106.61253,
      "timestamp": "2014-06-27T08:14:56Z",
      "version": 1,
      "changeset": 23208218,
      "user": "SamatJain",
      "uid": 227924,
      "tags": {
        "name": "Portal Campground",
        "tourism": "camp_site"
      }
    },
    {
      "type": "node",
      "id": 2935157489,
      "lat": 39.0668132,
      "lon": -106.420896,
      "timestamp": "2014-06-27T08:14:57Z",
      "version": 1,
      "changeset": 23208218,
      "user": "SamatJain",
      "uid": 227924,
      "tags": {
        "name": "Twin Peaks Campground",
        "tourism": "camp_site"
      }
    },
    {
      "type": "node",
      "id": 2935157490,
      "lat": 39.1199892,
      "lon": -106.7214243,
      "timestamp": "2014-06-27T08:14:57Z",
      "version": 1,
      "changeset": 23208218,
      "user": "SamatJain",
      "uid": 227924,
      "tags": {
        "name": "Weller Campground",
        "tourism": "camp_site"
      }
    },
    {
      "type": "node",
      "id": 3052616452,
      "lat": 39.1525926,
      "lon": -106.413437,
      "timestamp": "2014-08-31T21:25:03Z",
      "version": 1,
      "changeset": 25148321,
      "user": "geow",
      "uid": 223093,
      "tags": {
        "amenity": "drinking_water"
      }
    },
    {
      "type": "node",
      "id": 3792808559,
      "lat": 38.8349915,
      "lon": -106.8265881,
      "timestamp": "2015-10-19T15:06:22Z",
      "version": 1,
      "changeset": 34734906,
      "user": "Dilys",
      "uid": 2475974,
      "tags": {
        "name": "Hot Spring",
        "natural": "spring",
        "source": "USGS Topo map"
      }
    },
    {
      "type": "node",
      "id": 3792809093,
      "lat": 38.8540189,
      "lon": -106.8066437,
      "timestamp": "2015-10-19T15:06:24Z",
      "version": 1,
      "changeset": 34734906,
      "user": "Dilys",
      "uid": 2475974,
      "tags": {
        "natural": "spring",
        "source": "USGS Topo map"
      }
    },
    {
      "type": "node",
      "id": 3792809113,
      "lat": 38.8569385,
      "lon": -106.8247893,
      "timestamp": "2015-10-19T15:06:24Z",
      "version": 1,
      "changeset": 34734906,
      "user": "Dilys",
      "uid": 2475974,
      "tags": {
        "natural": "spring",
        "source": "USGS Topo map"
      }
    },
    {
      "type": "node",
      "id": 4418030230,
      "lat": 38.9786366,
      "lon": -106.3731944,
      "timestamp": "2016-09-25T19:21:54Z",
      "version": 1,
      "changeset": 42430400,
      "user": "CragMapper",
      "uid": 553260,
      "tags": {
        "backcountry": "yes",
        "tents": "yes",
        "tourism": "camp_site"
      }
    },
    {
      "type": "node",
      "id": 4418030231,
      "lat": 38.9816977,
      "lon": -106.3737491,
      "timestamp": "2016-09-25T19:21:54Z",
      "version": 1,
      "changeset": 42430400,
      "user": "CragMapper",
      "uid": 553260,
      "tags": {
        "backcountry": "yes",
        "tents": "yes",
        "tourism": "camp_site"
      }
    },
    {
      "type": "node",
      "id": 4439870259,
      "lat": 38.8911306,
      "lon": -106.3134913,
      "timestamp": "2016-10-10T00:35:04Z",
      "version": 1,
      "changeset": 42765565,
      "user": "CragMapper",
      "uid": 553260,
      "tags": {
        "backcountry": "yes",
        "tourism": "camp_site"
      }
    },
    {
      "type": "node",
      "id": 4439870260,
      "lat": 38.8931261,
      "lon": -106.3121381,
      "timestamp": "2016-10-10T00:35:04Z",
      "version": 1,
      "changeset": 42765565,
      "user": "CragMapper",
      "uid": 553260,
      "tags": {
        "backcountry": "yes",
        "tourism": "camp_site"
      }
    },
    {
      "type": "node",
      "id": 4659369146,
      "lat": 39.0981536,
      "lon": -106.3654114,
      "timestamp": "2017-02-03T11:49:44Z",
      "version": 1,
      "changeset": 45776074,
      "user": "Richard",
      "uid": 165,
      "tags": {
        "tourism": "camp_site"
      }
    },
    {
      "type": "node",
      "id": 7681930095,
      "lat": 39.2463741,
      "lon": -106.356832,
      "timestamp": "2020-07-04T02:23:21Z",
      "version": 1,
      "changeset": 87521088,
      "user": "Emanya Lpsid",
      "uid": 10036008,
      "tags": {
        "description": "Plenty of locations. There is a sign at the entrance with information.",
        "name": "Free Dispersed Camping",
        "tourism": "camp_site"
      }
    },
    {
      "type": "node",
      "id": 8033205476,
      "lat": 39.1152477,
      "lon": -106.6900821,
      "timestamp": "2020-10-21T19:25:28Z",
      "version": 2,
      "changeset": 92850946,
      "user": "zipiddydoda",
      "uid": 6431539,
      "tags": {
        "addr:unit": "1",
        "backcountry": "yes",
        "fee": "no",
        "name": "Lincoln Creek dispersed campsite #1",
        "tourism": "camp_site"
      }
    },
    {
      "type": "node",
      "id": 8033219264,
      "lat": 39.1149545,
      "lon": -106.6897802,
      "timestamp": "2020-10-21T19:21:20Z",
      "version": 2,
      "changeset": 92850807,
      "user": "zipiddydoda",
      "uid": 6431539,
      "tags": {
        "addr:unit": "2",
        "backcountry": "yes",
        "fee": "no",
        "name": "Lincoln Creek dispersed campsite #2",
        "tourism": "camp_site"
      }
    },
    {
      "type": "node",
      "id": 8033223947,
      "lat": 39.1131467,
      "lon": -106.6867799,
      "timestamp": "2020-10-21T19:29:35Z",
      "version": 1,
      "changeset": 92851105,
      "user": "zipiddydoda",
      "uid": 6431539,
      "tags": {
        "addr:unit": "4",
        "backcountry": "yes",
        "fee": "no",
        "name": "Lincoln Creek dispersed campsite #4",
        "tourism": "camp_site"
      }
    },
    {
      "type": "node",
      "id": 8033229234,
      "lat": 39.108247,
      "lon": -106.6835177,
      "timestamp": "2020-10-21T19:53:53Z",
      "version": 2,
      "changeset": 92852120,
      "user": "zipiddydoda",
      "uid": 6431539,
      "tags": {
        "addr:unit": "5",
        "backcountry": "yes",
        "fee": "no",
        "name": "Lincoln Creek dispersed campsite #5",
        "tourism": "camp_site"
      }
    },
    {
      "type": "node",
      "id": 8033262320,
      "lat": 39.1036088,
      "lon": -106.678499,
      "timestamp": "2020-10-21T19:41:06Z",
      "version": 1,
      "changeset": 92851595,
      "user": "zipiddydoda",
      "uid": 6431539,
      "tags": {
        "addr:unit": "6",
        "backcountry": "yes",
        "fee": "no",
        "name": "Lincoln Creek dispersed campsite #6",
        "tourism": "camp_site"
      }
    },
    {
      "type": "node",
      "id": 8033279727,
      "lat": 39.1016127,
      "lon": -106.6740592,
      "timestamp": "2020-10-21T19:58:17Z",
      "version": 1,
      "changeset": 92852289,
      "user": "zipiddydoda",
      "uid": 6431539,
      "tags": {
        "addr:unit": "8",
        "backcountry": "yes",
        "fee": "no",
        "name": "Lincoln Creek dispersed campsite #8",
        "tourism": "camp_site"
      }
    },
    {
      "type": "node",
      "id": 8033280506,
      "lat": 39.102457,
      "lon": -106.6762403,
      "timestamp": "2020-10-21T19:43:43Z",
      "version": 1,
      "changeset": 92851691,
      "user": "zipiddydoda",
      "uid": 6431539,
      "tags": {
        "addr:unit": "7",
        "backcountry": "yes",
        "fee": "no",
        "name": "Lincoln Creek dispersed campsite #7",
        "tourism": "camp_site"
      }
    },
    {
      "type": "node",
      "id": 9106487510,
      "lat": 39.0759594,
      "lon": -106.3071218,
      "timestamp": "2021-09-20T01:46:44Z",
      "version": 1,
      "changeset": 111427975,
      "user": "pmckay419",
      "uid": 12633413,
      "tags": {
        "backcountry": "yes",
        "tourism": "camp_site"
      }
    },
    {
      "type": "node",
      "id": 9106487511,
      "lat": 39.0731404,
      "lon": -106.3105714,
      "timestamp": "2021-09-20T01:46:44Z",
      "version": 1,
      "changeset": 111427975,
      "user": "pmckay419",
      "uid": 12633413,
      "tags": {
        "backcountry": "yes",
        "tourism": "camp_site"
      }
    },
    {
      "type": "node",
      "id": 9106487537,
      "lat": 39.0727547,
      "lon": -106.3067121,
      "timestamp": "2021-09-20T01:46:44Z",
      "version": 1,
      "changeset": 111427975,
      "user": "pmckay419",
      "uid": 12633413,
      "tags": {
        "backcountry": "yes",
        "tourism": "camp_site"
      }
    },
    {
      "type": "way",
      "id": 27637959,
      "timestamp": "2011-09-14T18:58:46Z",
      "version": 2,
      "changeset": 9302151,
      "user": "Steve",
      "uid": 1,
      "center": {
        "lat": 39.2602082,
        "lon": -106.2930028
      },
      "nodes": [],
      "tags": {
        "building": "yes",
        "created_by": "Potlatch 0.10d",
        "name": "Safeway",
        "shop": "supermarket"
      }
    },
    {
      "type": "way",
      "id": 132158157,
      "timestamp": "2011-10-04T17:36:08Z",
      "version": 2,
      "changeset": 9471473,
      "user": "xybot",
      "uid": 70696,
      "center": {
        "lat": 39.2450702,
        "lon": -106.2902201
      },
      "nodes": [],
      "tags": {
        "building": "yes",
        "name": "Corner Store",
        "shop": "convenience"
      }
    },
    {
      "type": "way",
      "id": 171848991,
      "timestamp": "2019-02-22T12:25:02Z",
      "version": 4,
      "changeset": 67464259,
      "user": "b-jazz-bot",
      "uid": 9451067,
      "center": {
        "lat": 39.2683088,
        "lon": -106.3523828
      },
      "nodes": [],
      "tags": {
        "caravans": "no",
        "description": "Tents only",
        "name": "Belle of Colorado Campground",
        "operator": "USFS",
        "tents": "yes",
        "tourism": "camp_site",
        "website": "https://www.recreation.gov/recreationalAreaDetails.do?contractCode=NRSO&facilityId=244742&agencyCode=70903"
      }
    },
    {
      "type": "way",
      "id": 171848992,
      "timestamp": "2012-07-17T04:01:20Z",
      "version": 1,
      "changeset": 12256516,
      "user": "bal_agates",
      "uid": 374193,
      "center": {
        "lat": 39.2747919,
        "lon": -106.3506211
      },
      "nodes": [],
      "tags": {
        "name": "Father Dyer Campground",
        "operator": "USFS",
        "tourism": "camp_site"
      }
    },
    {
      "type": "way",
      "id": 171848993,
      "timestamp": "2012-07-17T04:01:21Z",
      "version": 1,
      "changeset": 12256516,
      "user": "bal_agates",
      "uid": 374193,
      "center": {
        "lat": 39.263835,
        "lon": -106.3533078
      },
      "nodes": [],
      "tags": {
        "name": "Molly Brown Campground",
        "operator": "USFS",
        "tourism": "camp_site"
      }
    },
    {
      "type": "way",
      "id": 171848994,
      "timestamp": "2012-07-17T04:01:21Z",
      "version": 1,
      "changeset": 12256516,
      "user": "bal_agates",
      "uid": 374193,
      "center": {
        "lat": 39.25961,
        "lon": -106.3519886
      },
      "nodes": [],
      "tags": {
        "name": "Silver Dollar Campground",
        "operator": "USFS",
        "tourism": "camp_site"
      }
    },
    {
      "type": "way",
      "id": 171848997,
      "timestamp": "2014-09-21T11:42:49Z",
      "version": 2,
      "changeset": 25577588,
      "user": "geow",
      "uid": 223093,
      "center": {
        "lat": 39.2713143,
        "lon": -106.3527119
      },
      "nodes": [],
      "tags": {
        "name": "Baby Doe Campground",
        "operator": "USFS",
        "tourism": "camp_site"
      }
    },
    {
      "type": "way",
      "id": 179213163,
      "timestamp": "2021-06-30T19:58:01Z",
      "version": 4,
      "changeset": 107226467,
      "user": "mtbgreg1",
      "uid": 9051711,
      "center": {
        "lat": 38.8282136,
        "lon": -106.835464
      },
      "nodes": [],
      "tags": {
        "capacity": "13",
        "drinking_water": "yes",
        "impromptu": "no",
        "maxtents": "13",
        "name": "Cement Creek Campground",
        "opening_hours": "Jun-Aug: open; May,Sep: unknown",
        "payment:cash": "yes",
        "toilets": "yes",
        "tourism": "camp_site",
        "waste_disposal": "yes",
        "website": "https://www.fs.usda.gov/recarea/gmug/recreation/camping-cabins/recarea/?recid=33152&actid=29"
      }
    },
    {
      "type": "way",
      "id": 179213193,
      "timestamp": "2021-07-07T22:43:14Z",
      "version": 4,
      "changeset": 107591871,
      "user": "derricknehrenberg",
      "uid": 366306,
      "center": {
        "lat": 38.8244213,
        "lon": -106.8553023
      },
      "nodes": [],
      "tags": {
        "access": "yes",
        "amenity": "parking",
        "capacity": "6",
        "fee": "no",
        "name": "Lower Cement Creek Camping CC 1-4",
        "note": "Maximum days for camping is 14.",
        "operator": "Forest Service",
        "park_ride": "yes",
        "parking": "surface",
        "supervised": "no",
        "tourism": "camp_site"
      }
    },
    {
      "type": "way",
      "id": 198399976,
      "timestamp": "2019-02-17T08:24:28Z",
      "version": 3,
      "changeset": 67272658,
      "user": "b-jazz",
      "uid": 5800005,
      "center": {
        "lat": 38.9057232,
        "lon": -106.5866698
      },
      "nodes": [],
      "tags": {
        "name": "Dinner Station Campground",
        "operator": "United States Forest Service",
        "tourism": "camp_site",
        "website": "https://www.fs.usda.gov/recarea/gmug/recarea/?recid=33232"
      }
    },
    {
      "type": "way",
      "id": 228881646,
      "timestamp": "2013-07-05T19:09:13Z",
      "version": 1,
      "changeset": 16840246,
      "user": "AndrewBuck",
      "uid": 214969,
      "center": {
        "lat": 39.1872117,
        "lon": -106.8158012
      },
      "nodes": [],
      "tags": {
        "building": "yes",
        "name": "City Market",
        "shop": "supermarket",
        "source": "Bing"
      }
    },
    {
      "type": "way",
      "id": 304369864,
      "timestamp": "2019-02-22T12:25:03Z",
      "version": 2,
      "changeset": 67464259,
      "user": "b-jazz-bot",
      "uid": 9451067,
      "center": {
        "lat": 39.2703024,
        "lon": -106.34675
      },
      "nodes": [],
      "tags": {
        "description": "Only group sites",
        "name": "Printer Boy Campground",
        "operator": "USFS",
        "tourism": "camp_site",
        "website": "https://www.recreation.gov/camping/printer-boy/r/campgroundDetails.do?contractCode=NRSO&parkId=70313"
      }
    },
    {
      "type": "way",
      "id": 304594961,
      "timestamp": "2014-09-22T21:23:23Z",
      "version": 1,
      "changeset": 25613367,
      "user": "geow",
      "uid": 223093,
      "center": {
        "lat": 39.1528337,
        "lon": -106.4131026
      },
      "nodes": [],
      "tags": {
        "name": "Elbert Creek Campground",
        "operator": "USFS",
        "tourism": "camp_site"
      }
    },
    {
      "type": "way",
      "id": 306451571,
      "timestamp": "2020-10-13T20:00:22Z",
      "version": 2,
      "changeset": 92436718,
      "user": "gregw66",
      "uid": 1726059,
      "center": {
        "lat": 39.26605,
        "lon": -106.4633721
      },
      "nodes": [],
      "tags": {
        "access": "yes",
        "building": "hut",
        "capacity": "16",
        "elevation": "11,620 feet",
        "fee": "yes",
        "fireplace": "yes",
        "mattress": "yes",
        "name": "Skinner Hut",
        "operator": "10th Mountain Division Hut Association",
        "owner": "10th Mountain Division Hut Association",
        "reservation": "required",
        "shower": "no",
        "tourism": "wilderness_hut",
        "website": "http://www.huts.org/The_Huts/skinner.php"
      }
    },
    {
      "type": "way",
      "id": 335221803,
      "timestamp": "2019-02-17T01:12:22Z",
      "version": 2,
      "changeset": 67267080,
      "user": "b-jazz",
      "uid": 5800005,
      "center": {
        "lat": 38.9653173,
        "lon": -106.6615726
      },
      "nodes": [],
      "tags": {
        "name": "Dorchester Campground",
        "operator": "USFS",
        "tourism": "camp_site",
        "website": "https://www.fs.usda.gov/recarea/gmug/recarea/?recid=33236"
      }
    },
    {
      "type": "way",
      "id": 335221810,
      "timestamp": "2019-02-17T08:24:27Z",
      "version": 2,
      "changeset": 67272658,
      "user": "b-jazz",
      "uid": 5800005,
      "center": {
        "lat": 38.8600324,
        "lon": -106.7095797
      },
      "nodes": [],
      "tags": {
        "name": "Mosca Campground",
        "operator": "United States Forest Service",
        "tourism": "camp_site",
        "website": "https://www.fs.usda.gov/recarea/gmug/recarea/?recid=33418"
      }
    },
    {
      "type": "way",
      "id": 335221813,
      "timestamp": "2019-02-17T08:24:29Z",
      "version": 2,
      "changeset": 67272658,
      "user": "b-jazz",
      "uid": 5800005,
      "center": {
        "lat": 38.8584302,
        "lon": -106.5678991
      },
      "nodes": [],
      "tags": {
        "name": "Rivers End Campground",
        "operator": "United States Forest Service",
        "tourism": "camp_site",
        "website": "https://www.fs.usda.gov/recarea/gmug/recarea/?recid=33494"
      }
    },
    {
      "type": "way",
      "id": 466574909,
      "timestamp": "2020-10-13T18:09:00Z",
      "version": 3,
      "changeset": 92432900,
      "user": "gregw66",
      "uid": 1726059,
      "center": {
        "lat": 39.05003,
        "lon": -106.7339836
      },
      "nodes": [],
      "tags": {
        "access": "yes",
        "building": "yes",
        "building:levels": "1",
        "capacity": "10",
        "ele": "3560",
        "fee": "yes",
        "fireplace": "yes",
        "internet_access": "no",
        "mattress": "yes",
        "name": "Goodwin-Greene Hut",
        "note": "part of the 10th Mountain Division Hut System",
        "operator": "10th Mountain Division",
        "owner": "Alfred A. Braun Huts",
        "reservation": "required",
        "shower": "no",
        "tourism": "wilderness_hut",
        "website": "http://www.huts.org/The_Huts/goodwin_greene.php"
      }
    },
    {
      "type": "way",
      "id": 466575738,
      "timestamp": "2020-10-13T18:05:27Z",
      "version": 2,
      "changeset": 92432790,
      "user": "gregw66",
      "uid": 1726059,
      "center": {
        "lat": 39.0335967,
        "lon": -106.7833374
      },
      "nodes": [],
      "tags": {
        "access": "yes",
        "building": "hut",
        "capacity": "8",
        "elevation": "10,400 feet",
        "fee": "yes",
        "fireplace": "yes",
        "internet": "no",
        "mattress": "yes",
        "name": "Markley Hut",
        "operator": "10th Mountain Division Hut Association",
        "owner": "Alfred A. Braun Huts",
        "reservation": "required",
        "shower": "no",
        "tourism": "wilderness_hut",
        "website": "http://www.huts.org/The_Huts/markley.php"
      }
    },
    {
      "type": "way",
      "id": 626799573,
      "timestamp": "2018-09-20T03:15:45Z",
      "version": 1,
      "changeset": 62748448,
      "user": "Arlo James Barnes",
      "uid": 682928,
      "center": {
        "lat": 39.3000489,
        "lon": -106.2663071
      },
      "nodes": [],
      "tags": {
        "access": "customers",
        "fee": "yes",
        "internet_access": "yes",
        "internet_access:fee": "no",
        "name": "Sugar Loafin'",
        "tourism": "camp_site"
      }
    },
    {
      "type": "way",
      "id": 636944591,
      "timestamp": "2018-10-22T18:24:51Z",
      "version": 1,
      "changeset": 63768742,
      "user": "tref95",
      "uid": 8026623,
      "center": {
        "lat": 39.1595032,
        "lon": -106.3963754
      },
      "nodes": [],
      "tags": {
        "name": "Halfmoon East Campground",
        "operator": "USFS",
        "tourism": "camp_site"
      }
    },
    {
      "type": "way",
      "id": 636944592,
      "timestamp": "2018-10-22T18:24:51Z",
      "version": 1,
      "changeset": 63768742,
      "user": "tref95",
      "uid": 8026623,
      "center": {
        "lat": 39.1575018,
        "lon": -106.3969372
      },
      "nodes": [],
      "tags": {
        "name": "Halfmoon West Campground",
        "operator": "USFS",
        "tourism": "camp_site"
      }
    },
    {
      "type": "way",
      "id": 665968061,
      "timestamp": "2021-01-30T01:01:16Z",
      "version": 2,
      "changeset": 98396192,
      "user": "marc__marc",
      "uid": 7272314,
      "center": {
        "lat": 39.1413353,
        "lon": -106.7731457
      },
      "nodes": [],
      "tags": {
        "cabins": "no",
        "camp_site": "standard",
        "capacity": "46",
        "caravans": "yes",
        "drinking_water": "yes",
        "fee": "yes",
        "name": "Difficult Campground",
        "opening_hours": "May 18-Sep 16",
        "operator": "United States Forest Service",
        "power_supply": "no",
        "reservation": "recommended",
        "sanitary_dump_station": "no",
        "tourism": "camp_site"
      }
    },
    {
      "type": "way",
      "id": 858595854,
      "timestamp": "2020-10-13T15:34:27Z",
      "version": 1,
      "changeset": 92426576,
      "user": "gregw66",
      "uid": 1726059,
      "center": {
        "lat": 39.3573661,
        "lon": -106.3217332
      },
      "nodes": [],
      "tags": {
        "access": "yes",
        "building": "hut",
        "capacity": "8",
        "elevation": "10,500 feet",
        "fee": "yes",
        "fireplace": "yes",
        "mattress": "yes",
        "name": "Continental Divide Cabin",
        "operator": "10th Mountain Division Hut Association",
        "reservation": "required",
        "shower": "no",
        "toilet": "yes",
        "tourism": "wilderness_hut",
        "website": "http://www.huts.org/The_Huts/continental_divide.php"
      }
    },
    {
      "type": "way",
      "id": 858595855,
      "timestamp": "2020-10-13T15:34:27Z",
      "version": 1,
      "changeset": 92426576,
      "user": "gregw66",
      "uid": 1726059,
      "center": {
        "lat": 39.3583823,
        "lon": -106.3210064
      },
      "nodes": [],
      "tags": {
        "access": "yes",
        "building": "hut",
        "capacity": "8",
        "elevation": "10,500 feet",
        "fee": "yes",
        "fireplace": "yes",
        "mattress": "yes",
        "name": "Point Breeze Cabin",
        "operator": "10th Mountain Division Hut Association",
        "reservation": "required",
        "shower": "no",
        "toilet": "yes",
        "tourism": "wilderness_hut",
        "website": "http://www.huts.org/The_Huts/point_breeze_cabin.php"
      }
    },
    {
      "type": "way",
      "id": 858649630,
      "timestamp": "2020-10-13T17:57:06Z",
      "version": 1,
      "changeset": 92432484,
      "user": "gregw66",
      "uid": 1726059,
      "center": {
        "lat": 38.9638228,
        "lon": -106.8110396
      },
      "nodes": [],
      "tags": {
        "access": "yes",
        "building": "hut",
        "capacity": "8",
        "elevation": "11,370 feet",
        "fee": "yes",
        "fireplace": "yes",
        "mattress": "yes",
        "name": "Friends Hut",
        "operator": "10th Mountain Division Hut Association",
        "owner": "The Friends Hut, Inc",
        "reservation": "required",
        "shower": "no",
        "tourism": "wilderness_hut",
        "website": "http://www.huts.org/The_Huts/friends_hut.php"
      }
    },
    {
      "type": "way",
      "id": 858649632,
      "timestamp": "2020-10-13T17:57:06Z",
      "version": 1,
      "changeset": 92432484,
      "user": "gregw66",
      "uid": 1726059,
      "center": {
        "lat": 39.0033493,
        "lon": -106.8390295
      },
      "nodes": [],
      "tags": {
        "access": "yes",
        "building": "hut",
        "capacity": "7",
        "elevation": "11,280 feet",
        "fee": "yes",
        "fireplace": "yes",
        "mattress": "yes",
        "name": "Tagert Hut",
        "operator": "10th Mountain Division Hut Association",
        "owner": "Alfred A. Braun Huts",
        "reservation": "required",
        "shower": "no",
        "tourism": "wilderness_hut",
        "website": "http://www.huts.org/The_Huts/Greenwilson_tagert.php"
      }
    },
    {
      "type": "way",
      "id": 858649633,
      "timestamp": "2020-10-13T17:57:06Z",
      "version": 1,
      "changeset": 92432484,
      "user": "gregw66",
      "uid": 1726059,
      "center": {
        "lat": 39.0027605,
        "lon": -106.839118
      },
      "nodes": [],
      "tags": {
        "access": "yes",
        "building": "hut",
        "capacity": "8",
        "elevation": "11,280 feet",
        "fee": "yes",
        "fireplace": "yes",
        "mattress": "yes",
        "name": "Green-Wilson Hut",
        "operator": "10th Mountain Division Hut Association",
        "owner": "Alfred A. Braun Huts",
        "reservation": "required",
        "shower": "no",
        "tourism": "wilderness_hut",
        "website": "http://www.huts.org/The_Huts/Greenwilson_tagert.php"
      }
    },
    {
      "type": "way",
      "id": 858649634,
      "timestamp": "2020-10-13T17:57:06Z",
      "version": 1,
      "changeset": 92432484,
      "user": "gregw66",
      "uid": 1726059,
      "center": {
        "lat": 39.0045843,
        "lon": -106.8054604
      },
      "nodes": [],
      "tags": {
        "access": "yes",
        "building": "hut",
        "capacity": "14",
        "elevation": "10,480 feet",
        "fee": "yes",
        "fireplace": "yes",
        "mattress": "yes",
        "name": "Lindley Hut",
        "operator": "10th Mountain Division Hut Association",
        "owner": "Alfred A. Braun Huts",
        "reservation": "required",
        "shower": "no",
        "tourism": "wilderness_hut",
        "website": "http://www.huts.org/The_Huts/lindley.php"
      }
    },
    {
      "type": "way",
      "id": 858649635,
      "timestamp": "2020-10-13T17:57:06Z",
      "version": 1,
      "changeset": 92432484,
      "user": "gregw66",
      "uid": 1726059,
      "center": {
        "lat": 39.0006198,
        "lon": -106.7490696
      },
      "nodes": [],
      "tags": {
        "access": "yes",
        "building": "hut",
        "capacity": "8",
        "elevation": "11,850 feet",
        "fee": "yes",
        "fireplace": "yes",
        "mattress": "yes",
        "name": "Opa's Taylor Hut",
        "operator": "10th Mountain Division Hut Association",
        "owner": "Alfred A. Braun Huts",
        "reservation": "required",
        "shower": "no",
        "tourism": "wilderness_hut",
        "website": "http://www.huts.org/The_Huts/opas_hut.php"
      }
    },
    {
      "type": "way",
      "id": 858654426,
      "timestamp": "2020-10-13T18:12:39Z",
      "version": 1,
      "changeset": 92433010,
      "user": "gregw66",
      "uid": 1726059,
      "center": {
        "lat": 39.0731301,
        "lon": -106.7711315
      },
      "nodes": [],
      "tags": {
        "access": "yes",
        "building": "hut",
        "capacity": "8",
        "elevation": "11,480 feet",
        "fee": "yes",
        "fireplace": "yes",
        "mattress": "yes",
        "name": "Barnard Hut",
        "operator": "10th Mountain Division Hut Association",
        "owner": "Alfred A. Braun Huts",
        "reservation": "required",
        "shower": "no",
        "tourism": "wilderness_hut",
        "website": "http://www.huts.org/The_Huts/barnard.php"
      }
    },
    {
      "type": "way",
      "id": 858673516,
      "timestamp": "2020-10-13T20:00:22Z",
      "version": 2,
      "changeset": 92436718,
      "user": "gregw66",
      "uid": 1726059,
      "center": {
        "lat": 39.1791477,
        "lon": -106.7558787
      },
      "nodes": [],
      "tags": {
        "access": "yes",
        "building": "hut",
        "capacity": "10",
        "elevation": "10,970 feet",
        "fee": "yes",
        "fireplace": "yes",
        "mattress": "yes",
        "name": "Benedict Huts: Fritz",
        "operator": "10th Mountain Division Hut Association",
        "owner": "10th Mountain Division Hut Association",
        "reservation": "required",
        "shower": "no",
        "tourism": "wilderness_hut",
        "website": "http://www.huts.org/The_Huts/benedict.php"
      }
    },
    {
      "type": "way",
      "id": 858673517,
      "timestamp": "2020-10-13T20:00:22Z",
      "version": 2,
      "changeset": 92436718,
      "user": "gregw66",
      "uid": 1726059,
      "center": {
        "lat": 39.1791529,
        "lon": -106.7556076
      },
      "nodes": [],
      "tags": {
        "access": "yes",
        "building": "hut",
        "capacity": "6",
        "elevation": "10,970 feet",
        "fee": "yes",
        "fireplace": "yes",
        "mattress": "yes",
        "name": "Benedict Huts: Fabi",
        "operator": "10th Mountain Division Hut Association",
        "owner": "10th Mountain Division Hut Association",
        "reservation": "required",
        "shower": "no",
        "tourism": "wilderness_hut",
        "website": "http://www.huts.org/The_Huts/benedict.php"
      }
    },
    {
      "type": "way",
      "id": 858681214,
      "timestamp": "2020-10-13T20:00:22Z",
      "version": 1,
      "changeset": 92436718,
      "user": "gregw66",
      "uid": 1726059,
      "center": {
        "lat": 39.2331903,
        "lon": -106.7388485
      },
      "nodes": [],
      "tags": {
        "access": "yes",
        "building": "hut",
        "capacity": "16",
        "elevation": "10,360 feet",
        "fee": "yes",
        "fireplace": "yes",
        "mattress": "yes",
        "name": "McNamara Hut",
        "operator": "10th Mountain Division Hut Association",
        "owner": "10th Mountain Division Hut Association",
        "reservation": "required",
        "shower": "no",
        "tourism": "wilderness_hut",
        "website": "http://www.huts.org/The_Huts/mcnamara.php"
      }
    },
    {
      "type": "way",
      "id": 858681215,
      "timestamp": "2020-10-13T20:00:22Z",
      "version": 1,
      "changeset": 92436718,
      "user": "gregw66",
      "uid": 1726059,
      "center": {
        "lat": 39.2752995,
        "lon": -106.7134439
      },
      "nodes": [],
      "tags": {
        "access": "yes",
        "building": "hut",
        "capacity": "16",
        "elevation": "11,300 feet",
        "fee": "yes",
        "fireplace": "yes",
        "mattress": "yes",
        "name": "Margy's Hut",
        "operator": "10th Mountain Division Hut Association",
        "owner": "10th Mountain Division Hut Association",
        "reservation": "required",
        "shower": "no",
        "tourism": "wilderness_hut",
        "website": "http://www.huts.org/The_Huts/margys.php"
      }
    },
    {
      "type": "way",
      "id": 858681216,
      "timestamp": "2020-10-13T20:00:22Z",
      "version": 1,
      "changeset": 92436718,
      "user": "gregw66",
      "uid": 1726059,
      "center": {
        "lat": 39.2561147,
        "lon": -106.523505
      },
      "nodes": [],
      "tags": {
        "access": "yes",
        "building": "hut",
        "capacity": "16",
        "elevation": "11,100 feet",
        "fee": "yes",
        "fireplace": "yes",
        "mattress": "yes",
        "name": "Betty Bear Hut",
        "operator": "10th Mountain Division Hut Association",
        "owner": "10th Mountain Division Hut Association",
        "reservation": "required",
        "shower": "no",
        "tourism": "wilderness_hut",
        "website": "http://www.huts.org/The_Huts/bettybear.php"
      }
    },
    {
      "type": "way",
      "id": 858681217,
      "timestamp": "2020-10-13T20:00:22Z",
      "version": 1,
      "changeset": 92436718,
      "user": "gregw66",
      "uid": 1726059,
      "center": {
        "lat": 39.3014232,
        "lon": -106.4055227
      },
      "nodes": [],
      "tags": {
        "access": "yes",
        "building": "hut",
        "capacity": "16",
        "elevation": "11,380 feet",
        "fee": "yes",
        "fireplace": "yes",
        "mattress": "yes",
        "name": "Uncle Bud's Hut",
        "operator": "10th Mountain Division Hut Association",
        "owner": "10th Mountain Division Hut Association",
        "reservation": "required",
        "shower": "no",
        "tourism": "wilderness_hut",
        "website": "http://www.huts.org/The_Huts/uncle_buds.php"
      }
    },
    {
      "type": "way",
      "id": 858687384,
      "timestamp": "2020-10-13T20:23:34Z",
      "version": 1,
      "changeset": 92437452,
      "user": "gregw66",
      "uid": 1726059,
      "center": {
        "lat": 39.3267377,
        "lon": -106.2531083
      },
      "nodes": [],
      "tags": {
        "access": "yes",
        "building": "hut",
        "capacity": "16",
        "elevation": "11,650 feet",
        "fee": "yes",
        "fireplace": "yes",
        "mattress": "yes",
        "name": "Sangree M. Froelicher Hut",
        "operator": "10th Mountain Division Hut Association",
        "owner": "10th Mountain Division Hut Association",
        "reservation": "required",
        "shower": "no",
        "tourism": "wilderness_hut",
        "website": "http://www.huts.org/The_Huts/sangrees.php"
      }
    },
    {
      "type": "way",
      "id": 959884950,
      "timestamp": "2021-06-30T21:25:12Z",
      "version": 1,
      "changeset": 107229206,
      "user": "derricknehrenberg",
      "uid": 366306,
      "center": {
        "lat": 38.8308074,
        "lon": -106.8436873
      },
      "nodes": [],
      "tags": {
        "name": "WR 1-8",
        "tourism": "camp_site"
      }
    },
    {
      "type": "way",
      "id": 962409903,
      "timestamp": "2021-07-07T22:46:11Z",
      "version": 1,
      "changeset": 107591958,
      "user": "derricknehrenberg",
      "uid": 366306,
      "center": {
        "lat": 38.828003,
        "lon": -106.8320317
      },
      "nodes": [],
      "tags": {
        "name": "Campsite CC5",
        "tourism": "camp_site"
      }
    },
    {
      "type": "way",
      "id": 962410158,
      "timestamp": "2021-07-07T22:48:42Z",
      "version": 1,
      "changeset": 107592027,
      "user": "derricknehrenberg",
      "uid": 366306,
      "center": {
        "lat": 38.847117,
        "lon": -106.8192832
      },
      "nodes": [],
      "tags": {
        "name": "Campsite CC7",
        "tourism": "camp_site"
      }
    },
    {
      "type": "way",
      "id": 962410159,
      "timestamp": "2021-07-07T22:48:42Z",
      "version": 1,
      "changeset": 107592027,
      "user": "derricknehrenberg",
      "uid": 366306,
      "center": {
        "lat": 38.8278175,
        "lon": -106.8315172
      },
      "nodes": [],
      "tags": {
        "name": "Campsite CC6",
        "tourism": "camp_site"
      }
    },
    {
      "type": "way",
      "id": 962410257,
      "timestamp": "2021-07-07T22:49:26Z",
      "version": 1,
      "changeset": 107592048,
      "user": "derricknehrenberg",
      "uid": 366306,
      "center": {
        "lat": 38.8503449,
        "lon": -106.8172943
      },
      "nodes": [],
      "tags": {
        "name": "Campsite CC8",
        "tourism": "camp_site"
      }
    },
    {
      "type": "way",
      "id": 962413324,
      "timestamp": "2021-07-07T23:11:47Z",
      "version": 1,
      "changeset": 107592491,
      "user": "derricknehrenberg",
      "uid": 366306,
      "center": {
        "lat": 38.8742522,
        "lon": -106.7981534
      },
      "nodes": [],
      "tags": {
        "name": "Campsites CC9-12",
        "tourism": "camp_site"
      }
    },
    {
      "type": "way",
      "id": 962413694,
      "timestamp": "2021-07-07T23:14:27Z",
      "version": 1,
      "changeset": 107592549,
      "user": "derricknehrenberg",
      "uid": 366306,
      "center": {
        "lat": 38.8765157,
        "lon": -106.7976478
      },
      "nodes": [],
      "tags": {
        "name": "Campsite CC14",
        "tourism": "camp_site"
      }
    },
    {
      "type": "way",
      "id": 962413695,
      "timestamp": "2021-07-07T23:14:27Z",
      "version": 1,
      "changeset": 107592549,
      "user": "derricknehrenberg",
      "uid": 366306,
      "center": {
        "lat": 38.8760313,
        "lon": -106.7975552
      },
      "nodes": [],
      "tags": {
        "name": "Campsite CC13",
        "tourism": "camp_site"
      }
    },
    {
      "type": "way",
      "id": 962413907,
      "timestamp": "2021-07-07T23:15:33Z",
      "version": 1,
      "changeset": 107592569,
      "user": "derricknehrenberg",
      "uid": 366306,
      "center": {
        "lat": 38.8806615,
        "lon": -106.7940469
      },
      "nodes": [],
      "tags": {
        "name": "Campsite CC15",
        "tourism": "camp_site"
      }
    },
    {
      "type": "way",
      "id": 962414143,
      "timestamp": "2021-07-07T23:19:53Z",
      "version": 1,
      "changeset": 107592667,
      "user": "derricknehrenberg",
      "uid": 366306,
      "center": {
        "lat": 38.91386,
        "lon": -106.7835582
      },
      "nodes": [],
      "tags": {
        "name": "Campsite CC18",
        "tourism": "camp_site"
      }
    },
    {
      "type": "way",
      "id": 962414144,
      "timestamp": "2021-07-07T23:19:53Z",
      "version": 1,
      "changeset": 107592667,
      "user": "derricknehrenberg",
      "uid": 366306,
      "center": {
        "lat": 38.9061251,
        "lon": -106.7827347
      },
      "nodes": [],
      "tags": {
        "name": "Campsite CC17",
        "tourism": "camp_site"
      }
    },
    {
      "type": "way",
      "id": 962414145,
      "timestamp": "2021-07-07T23:19:53Z",
      "version": 1,
      "changeset": 107592667,
      "user": "derricknehrenberg",
      "uid": 366306,
      "center": {
        "lat": 38.88554,
        "lon": -106.789687
      },
      "nodes": [],
      "tags": {
        "name": "Campsite CC16",
        "tourism": "camp_site"
      }
    },
    {
      "type": "way",
      "id": 962414254,
      "timestamp": "2021-07-07T23:21:22Z",
      "version": 1,
      "changeset": 107592691,
      "user": "derricknehrenberg",
      "uid": 366306,
      "center": {
        "lat": 38.9193235,
        "lon": -106.7815813
      },
      "nodes": [],
      "tags": {
        "name": "Campsite CC19",
        "tourism": "camp_site"
      }
    },
    {
      "type": "way",
      "id": 962414424,
      "timestamp": "2021-07-07T23:23:55Z",
      "version": 1,
      "changeset": 107592740,
      "user": "derricknehrenberg",
      "uid": 366306,
      "center": {
        "lat": 38.9305936,
        "lon": -106.7705313
      },
      "nodes": [],
      "tags": {
        "name": "Campsite CC20",
        "tourism": "camp_site"
      }
    },
    {
      "type": "way",
      "id": 962415707,
      "timestamp": "2021-07-07T23:33:17Z",
      "version": 1,
      "changeset": 107592894,
      "user": "derricknehrenberg",
      "uid": 366306,
      "center": {
        "lat": 38.8715553,
        "lon": -106.8658443
      },
      "nodes": [],
      "tags": {
        "name": "Campsites FC 5",
        "tourism": "camp_site"
      }
    },
    {
      "type": "way",
      "id": 962415739,
      "timestamp": "2021-07-07T23:34:43Z",
      "version": 1,
      "changeset": 107592911,
      "user": "derricknehrenberg",
      "uid": 366306,
      "center": {
        "lat": 38.8878094,
        "lon": -106.8726906
      },
      "nodes": [],
      "tags": {
        "name": "Campsites FC6",
        "tourism": "camp_site"
      }
    },
    {
      "type": "way",
      "id": 962416393,
      "timestamp": "2021-07-07T23:44:58Z",
      "version": 1,
      "changeset": 107593037,
      "user": "derricknehrenberg",
      "uid": 366306,
      "center": {
        "lat": 38.8994315,
        "lon": -106.8744401
      },
      "nodes": [],
      "tags": {
        "name": "Campsite BC 9",
        "tourism": "camp_site"
      }
    },
    {
      "type": "way",
      "id": 962416597,
      "timestamp": "2021-07-07T23:45:47Z",
      "version": 1,
      "changeset": 107593055,
      "user": "derricknehrenberg",
      "uid": 366306,
      "center": {
        "lat": 38.9021969,
        "lon": -106.8736267
      },
      "nodes": [],
      "tags": {
        "name": "Campsite BC 10",
        "tourism": "camp_site"
      }
    },
    {
      "type": "way",
      "id": 962416629,
      "timestamp": "2021-07-07T23:46:20Z",
      "version": 1,
      "changeset": 107593064,
      "user": "derricknehrenberg",
      "uid": 366306,
      "center": {
        "lat": 38.9019265,
        "lon": -106.8725779
      },
      "nodes": [],
      "tags": {
        "name": "Campsite BC 11",
        "tourism": "camp_site"
      }
    },
    {
      "type": "way",
      "id": 962416739,
      "timestamp": "2021-07-07T23:49:38Z",
      "version": 2,
      "changeset": 107593113,
      "user": "derricknehrenberg",
      "uid": 366306,
      "center": {
        "lat": 38.9133998,
        "lon": -106.8536188
      },
      "nodes": [],
      "tags": {
        "name": "Campsite BC 12",
        "tourism": "camp_site"
      }
    },
    {
      "type": "way",
      "id": 962417659,
      "timestamp": "2021-07-07T23:50:45Z",
      "version": 1,
      "changeset": 107593131,
      "user": "derricknehrenberg",
      "uid": 366306,
      "center": {
        "lat": 38.9144496,
        "lon": -106.8510063
      },
      "nodes": [],
      "tags": {
        "name": "Campsite BC 13",
        "tourism": "camp_site"
      }
    },
    {
      "type": "way",
      "id": 966579785,
      "timestamp": "2021-07-22T20:59:11Z",
      "version": 1,
      "changeset": 108450861,
      "user": "kevinp2",
      "uid": 956637,
      "center": {
        "lat": 38.8448408,
        "lon": -106.4834071
      },
      "nodes": [],
      "tags": {
        "access": "yes",
        "ele": "3139",
        "fee": "no",
        "name": "Stage Stop Meadows Dispersed Camping Area",
        "tourism": "camp_site"
      }
    },
    {
      "type": "way",
      "id": 978459423,
      "timestamp": "2021-09-01T14:58:57Z",
      "version": 1,
      "changeset": 110572358,
      "user": "yotann",
      "uid": 522859,
      "center": {
        "lat": 39.3098856,
        "lon": -106.6409504
      },
      "nodes": [],
      "tags": {
        "capacity": "84",
        "caravans": "yes",
        "name": "Chapman Campground",
        "nudism": "no",
        "reservation": "required",
        "tents": "yes",
        "tourism": "camp_site",
        "website": "https://www.fs.usda.gov/recarea/whiteriver/recarea/?recid=40571",
        "wheelchair": "yes"
      }
    },
    {
      "type": "way",
      "id": 978459425,
      "timestamp": "2021-09-01T14:58:57Z",
      "version": 1,
      "changeset": 110572358,
      "user": "yotann",
      "uid": 522859,
      "center": {
        "lat": 39.3441427,
        "lon": -106.6138213
      },
      "nodes": [],
      "tags": {
        "capacity": "7",
        "caravans": "yes",
        "internet_access": "no",
        "name": "Elk Wallow Campground",
        "nudism": "no",
        "reservation": "no",
        "tents": "yes",
        "tourism": "camp_site",
        "website": "https://www.fs.usda.gov/recarea/whiteriver/recarea/?recid=40581"
      }
    }
  ]
}