{
  "osm3s": {
    "timestamp_osm_date": "2022-06-16T23:59:59Z",
    "timestamp_osm_base": "2022-06-17T04:15:42Z",
    "copyright": "The data included in this document is from www.openstreetmap.org. The data is made available under ODbL."
  },
  "elements": [
    {
      "type": "node",
      "id": 151347410,
      "lat": 38.3736093,
      "lon": -106.3016919,
      "timestamp": "2020-03-16T23:01:17Z",
      "version": 3,
      "changeset": 82276413,
      "user": "mapman44",
      "uid": 2888253,
      "tags": {
        "ele": "2865",
        "gnis:County": "Saguache",
        "gnis:County_num": "109",
        "gnis:ST_alpha": "CO",
        "gnis:ST_num": "08",
        "gnis:id": "189841",
        "import_uuid": "bb7269ee-502a-5391-8056-e3ce0e66489c",
        "name": "Chester",
        "place": "hamlet"
      }
    },
    {
      "type": "node",
      "id": 151360549,
      "lat": 38.5386086,
      "lon": -106.1902979,
      "timestamp": "2020-03-16T23:01:17Z",
      "version": 4,
      "changeset": 82276413,
      "user": "mapman44",
      "uid": 2888253,
      "tags": {
        "ele": "2507",
        "gnis:County": "Chaffee",
        "gnis:County_num": "015",
        "gnis:ST_alpha": "CO",
        "gnis:ST_num": "08",
        "gnis:id": "203904",
        "import_uuid": "bb7269ee-502a-5391-8056-e3ce0e66489c",
        "name": "Maysville",
        "place": "hamlet",
        "wikidata": "Q5664592"
      }
    },
    {
      "type": "node",
      "id": 151406942,
      "lat": 38.7774946,
      "lon": -106.4922498,
      "timestamp": "2020-03-16T22:57:21Z",
      "version": 3,
      "changeset": 82276374,
      "user": "mapman44",
      "uid": 2888253,
      "tags": {
        "ele": "3027",
        "gnis:County": "Gunnison",
        "gnis:County_num": "051",
        "gnis:ST_alpha": "CO",
        "gnis:ST_num": "08",
        "gnis:id": "189092",
        "import_uuid": "bb7269ee-502a-5391-8056-e3ce0e66489c",
        "name": "Abbeyville",
        "place": "hamlet"
      }
    },
    {
      "type": "node",
      "id": 151417417,
      "lat": 38.5685909,
      "lon": -106.6113038,
      "timestamp": "2020-03-16T23:01:17Z",
      "version": 5,
      "changeset": 82276413,
      "user": "mapman44",
      "uid": 2888253,
      "tags": {
        "ele": "2612",
        "gnis:County": "Gunnison",
        "gnis:County_num": "051",
        "gnis:ST_alpha": "CO",
        "gnis:ST_num": "08",
        "gnis:id": "189049",
        "import_uuid": "bb7269ee-502a-5391-8056-e3ce0e66489c",
        "name": "Ohio",
        "name:ta": "ஒகையோ",
        "place": "hamlet"
      }
    },
    {
      "type": "node",
      "id": 151475016,
      "lat": 38.5518316,
      "lon": -106.2913015,
      "timestamp": "2020-07-17T23:59:44Z",
      "version": 5,
      "changeset": 88164571,
      "user": "bradrh",
      "uid": 1567411,
      "tags": {
        "ele": "2909",
        "gnis:County": "Chaffee",
        "gnis:County_num": "015",
        "gnis:ST_alpha": "CO",
        "gnis:ST_num": "08",
        "gnis:id": "204757",
        "import_uuid": "bb7269ee-502a-5391-8056-e3ce0e66489c",
        "name": "Garfield",
        "place": "hamlet"
      }
    },
    {
      "type": "node",
      "id": 151480676,
      "lat": 38.416386,
      "lon": -106.8291173,
      "timestamp": "2020-03-16T23:01:17Z",
      "version": 4,
      "changeset": 82276413,
      "user": "mapman44",
      "uid": 2888253,
      "tags": {
        "ele": "2743",
        "gnis:County": "Saguache",
        "gnis:County_num": "109",
        "gnis:ST_alpha": "CO",
        "gnis:ST_num": "08",
        "gnis:id": "189613",
        "import_uuid": "bb7269ee-502a-5391-8056-e3ce0e66489c",
        "name": "Iris",
        "place": "hamlet"
      }
    },
    {
      "type": "node",
      "id": 151540952,
      "lat": 38.5141613,
      "lon": -106.5083629,
      "timestamp": "2020-03-16T23:01:17Z",
      "version": 3,
      "changeset": 82276413,
      "user": "mapman44",
      "uid": 2888253,
      "tags": {
        "ele": "2730",
        "gnis:County": "Gunnison",
        "gnis:County_num": "051",
        "gnis:ST_alpha": "CO",
        "gnis:ST_num": "08",
        "gnis:id": "204754",
        "import_uuid": "bb7269ee-502a-5391-8056-e3ce0e66489c",
        "name": "Waunita Hot Springs",
        "place": "hamlet"
      }
    },
    {
      "type": "node",
      "id": 151738155,
      "lat": 38.404163,
      "lon": -106.415028,
      "timestamp": "2020-03-16T23:01:17Z",
      "version": 4,
      "changeset": 82276413,
      "user": "mapman44",
      "uid": 2888253,
      "tags": {
        "ele": "2584",
        "gnis:County": "Saguache",
        "gnis:County_num": "109",
        "gnis:ST_alpha": "CO",
        "gnis:ST_num": "08",
        "gnis:id": "204762",
        "import_uuid": "bb7269ee-502a-5391-8056-e3ce0e66489c",
        "name": "Sargents",
        "place": "hamlet",
        "wikidata": "Q3475809"
      }
    },
    {
      "type": "node",
      "id": 151789917,
      "lat": 38.4516603,
      "lon": -106.6094773,
      "timestamp": "2020-03-16T23:01:17Z",
      "version": 3,
      "changeset": 82276413,
      "user": "mapman44",
      "uid": 2888253,
      "tags": {
        "ele": "2455",
        "gnis:County": "Gunnison",
        "gnis:County_num": "051",
        "gnis:ST_alpha": "CO",
        "gnis:ST_num": "08",
        "gnis:id": "204761",
        "import_uuid": "bb7269ee-502a-5391-8056-e3ce0e66489c",
        "name": "Doyleville",
        "place": "hamlet"
      }
    },
    {
      "type": "node",
      "id": 151808702,
      "lat": 38.6091612,
      "lon": -106.5166958,
      "timestamp": "2020-03-16T22:57:21Z",
      "version": 5,
      "changeset": 82276374,
      "user": "mapman44",
      "uid": 2888253,
      "tags": {
        "census:population": "113;2006",
        "ele": "2809",
        "gnis:County": "Gunnison",
        "gnis:County_num": "051",
        "gnis:ST_alpha": "CO",
        "gnis:ST_num": "08",
        "gnis:id": "204755",
        "import_uuid": "bb7269ee-502a-5391-8056-e3ce0e66489c",
        "name": "Pitkin",
        "place": "village",
        "population": "113"
      }
    },
    {
      "type": "node",
      "id": 151823378,
      "lat": 38.4466586,
      "lon": -106.7611482,
      "timestamp": "2020-03-16T23:01:17Z",
      "version": 3,
      "changeset": 82276413,
      "user": "mapman44",
      "uid": 2888253,
      "tags": {
        "ele": "2449",
        "gnis:County": "Gunnison",
        "gnis:County_num": "051",
        "gnis:ST_alpha": "CO",
        "gnis:ST_num": "08",
        "gnis:id": "189630",
        "import_uuid": "bb7269ee-502a-5391-8056-e3ce0e66489c",
        "name": "Sillsville",
        "place": "hamlet"
      }
    },
    {
      "type": "node",
      "id": 151825656,
      "lat": 38.6647149,
      "lon": -106.8461506,
      "timestamp": "2020-03-16T22:57:21Z",
      "version": 3,
      "changeset": 82276374,
      "user": "mapman44",
      "uid": 2888253,
      "tags": {
        "ele": "2445",
        "gnis:County": "Gunnison",
        "gnis:County_num": "051",
        "gnis:ST_alpha": "CO",
        "gnis:ST_num": "08",
        "gnis:id": "188934",
        "import_uuid": "bb7269ee-502a-5391-8056-e3ce0e66489c",
        "name": "Almont",
        "place": "hamlet"
      }
    },
    {
      "type": "node",
      "id": 151864357,
      "lat": 38.5416626,
      "lon": -106.3936374,
      "timestamp": "2020-03-16T23:01:17Z",
      "version": 3,
      "changeset": 82276413,
      "user": "mapman44",
      "uid": 2888253,
      "tags": {
        "ele": "2960",
        "gnis:County": "Gunnison",
        "gnis:County_num": "051",
        "gnis:ST_alpha": "CO",
        "gnis:ST_num": "08",
        "gnis:id": "189388",
        "import_uuid": "bb7269ee-502a-5391-8056-e3ce0e66489c",
        "name": "Whitepine",
        "place": "hamlet"
      }
    },
    {
      "type": "node",
      "id": 151886178,
      "lat": 38.4377038,
      "lon": -106.8499595,
      "timestamp": "2020-03-16T23:01:17Z",
      "version": 4,
      "changeset": 82276413,
      "user": "mapman44",
      "uid": 2888253,
      "tags": {
        "ele": "2805",
        "gnis:County": "Gunnison",
        "gnis:County_num": "051",
        "gnis:ST_alpha": "CO",
        "gnis:ST_num": "08",
        "gnis:id": "189622",
        "import_uuid": "bb7269ee-502a-5391-8056-e3ce0e66489c",
        "name": "Chance",
        "place": "hamlet"
      }
    },
    {
      "type": "node",
      "id": 177131456,
      "lat": 38.6893252,
      "lon": -106.4841602,
      "timestamp": "2015-10-28T21:56:21Z",
      "version": 8,
      "changeset": 34937838,
      "user": "Dilys",
      "uid": 2475974,
      "tags": {
        "ele": "3662",
        "mountain_pass": "yes",
        "name": "Cumberland Pass",
        "natural": "saddle"
      }
    },
    {
      "type": "node",
      "id": 358924962,
      "lat": 38.6277747,
      "lon": -106.2839116,
      "timestamp": "2017-09-14T06:53:53Z",
      "version": 2,
      "changeset": 52027574,
      "user": "Edward",
      "uid": 364,
      "tags": {
        "ele": "4070",
        "gnis:county_id": "015",
        "gnis:created": "10/13/1978",
        "gnis:feature_id": "189301",
        "gnis:state_id": "08",
        "name": "Carbonate Mountain",
        "natural": "peak",
        "wikidata": "Q5038009"
      }
    },
    {
      "type": "node",
      "id": 358924994,
      "lat": 38.6655517,
      "lon": -106.3441908,
      "timestamp": "2020-03-07T19:39:25Z",
      "version": 2,
      "changeset": 81907885,
      "user": "hofoen",
      "uid": 52797,
      "tags": {
        "ele": "3843",
        "gnis:county_id": "015",
        "gnis:created": "10/13/1978",
        "gnis:feature_id": "189306",
        "gnis:state_id": "08",
        "name": "Chrysolite Mountain",
        "natural": "peak",
        "wikidata": "Q49020573"
      }
    },
    {
      "type": "node",
      "id": 358925019,
      "lat": 38.6747186,
      "lon": -106.3183568,
      "timestamp": "2020-03-07T19:39:25Z",
      "version": 2,
      "changeset": 81907885,
      "user": "hofoen",
      "uid": 52797,
      "tags": {
        "ele": "4124",
        "gnis:county_id": "015",
        "gnis:created": "10/13/1978",
        "gnis:feature_id": "189327",
        "gnis:state_id": "08",
        "name": "Mount Mamma",
        "natural": "peak",
        "wikidata": "Q49053504"
      }
    },
    {
      "type": "node",
      "id": 358925137,
      "lat": 38.6741679,
      "lon": -106.2462052,
      "timestamp": "2020-12-08T22:38:05Z",
      "version": 4,
      "changeset": 95514093,
      "user": "mtbgreg1",
      "uid": 9051711,
      "tags": {
        "ele": "4351.4",
        "gnis:county_id": "015",
        "gnis:created": "10/13/1978",
        "gnis:feature_id": "189455",
        "gnis:state_id": "08",
        "name": "Mount Antero",
        "natural": "peak",
        "wikidata": "Q4245453"
      }
    },
    {
      "type": "node",
      "id": 358944410,
      "lat": 38.6254147,
      "lon": -106.250883,
      "timestamp": "2020-11-12T17:22:52Z",
      "version": 5,
      "changeset": 94009820,
      "user": "mtbgreg1",
      "uid": 9051711,
      "tags": {
        "ele": "4316.7",
        "gnis:county_id": "015",
        "gnis:created": "10/13/1978",
        "gnis:feature_id": "203948",
        "gnis:state_id": "08",
        "name": "Tabeguache Peak",
        "natural": "peak",
        "wikidata": "Q7673004"
      }
    },
    {
      "type": "node",
      "id": 358948210,
      "lat": 38.65528,
      "lon": -106.28278,
      "timestamp": "2017-09-14T06:54:02Z",
      "version": 2,
      "changeset": 52027574,
      "user": "Edward",
      "uid": 364,
      "tags": {
        "ele": "4207",
        "gnis:county_id": "015",
        "gnis:created": "07/16/2005",
        "gnis:feature_id": "2071319",
        "gnis:state_id": "08",
        "name": "Cronin Peak",
        "natural": "peak",
        "wikidata": "Q14684417"
      }
    },
    {
      "type": "node",
      "id": 584338928,
      "lat": 38.5998403,
      "lon": -106.8353115,
      "timestamp": "2015-09-13T13:26:42Z",
      "version": 2,
      "changeset": 33999834,
      "user": "Dilys",
      "uid": 2475974,
      "tags": {
        "name": "Biebel Springs",
        "natural": "spring"
      }
    },
    {
      "type": "node",
      "id": 590619162,
      "lat": 38.3535003,
      "lon": -106.8600688,
      "timestamp": "2015-11-08T22:39:26Z",
      "version": 2,
      "changeset": 35180573,
      "user": "Dilys",
      "uid": 2475974,
      "tags": {
        "natural": "spring",
        "source": "USGS Topo map"
      }
    },
    {
      "type": "node",
      "id": 591150438,
      "lat": 38.3527094,
      "lon": -106.8607244,
      "timestamp": "2015-11-08T22:39:26Z",
      "version": 2,
      "changeset": 35180573,
      "user": "Dilys",
      "uid": 2475974,
      "tags": {
        "natural": "spring",
        "source": "USGS Topo map"
      }
    },
    {
      "type": "node",
      "id": 592831100,
      "lat": 38.3501333,
      "lon": -106.8611343,
      "timestamp": "2015-11-08T22:39:27Z",
      "version": 2,
      "changeset": 35180573,
      "user": "Dilys",
      "uid": 2475974,
      "tags": {
        "natural": "spring",
        "source": "USGS Topo map"
      }
    },
    {
      "type": "node",
      "id": 1116386810,
      "lat": 38.3921382,
      "lon": -106.2471674,
      "timestamp": "2016-03-23T13:44:36Z",
      "version": 5,
      "changeset": 38020625,
      "user": "Aleks-Berlin",
      "uid": 85218,
      "tags": {
        "ele": "3304.64",
        "ele:note": "10842 ft",
        "mountain_pass": "yes",
        "name": "Marshall Pass",
        "natural": "saddle",
        "source:ele": "sign"
      }
    },
    {
      "type": "node",
      "id": 1828520498,
      "lat": 38.496431,
      "lon": -106.3261135,
      "timestamp": "2015-09-12T13:16:09Z",
      "version": 3,
      "changeset": 33980450,
      "user": "Dilys",
      "uid": 2475974,
      "tags": {
        "ele": "3448",
        "mountain_pass": "yes",
        "name": "Monarch Pass",
        "natural": "saddle"
      }
    },
    {
      "type": "node",
      "id": 1910294333,
      "lat": 38.6190989,
      "lon": -106.239238,
      "timestamp": "2020-12-09T00:39:30Z",
      "version": 3,
      "changeset": 95516609,
      "user": "mtbgreg1",
      "uid": 9051711,
      "tags": {
        "ele": "4315",
        "gnis:county_id": "015",
        "gnis:created": "10/13/1978",
        "gnis:feature_id": "189451",
        "gnis:state_id": "08",
        "name": "Mount Shavano",
        "natural": "peak",
        "wikidata": "Q8522694"
      }
    },
    {
      "type": "node",
      "id": 1970497100,
      "lat": 38.7492358,
      "lon": -106.2424914,
      "timestamp": "2020-12-09T00:42:40Z",
      "version": 2,
      "changeset": 95516658,
      "user": "mtbgreg1",
      "uid": 9051711,
      "tags": {
        "ele": "4329.3",
        "gnis:county_id": "015",
        "gnis:created": "10/13/1978",
        "gnis:feature_id": "189458",
        "gnis:state_id": "08",
        "name": "Mount Princeton",
        "natural": "peak",
        "wikidata": "Q6923050"
      }
    },
    {
      "type": "node",
      "id": 2192703570,
      "lat": 38.6833902,
      "lon": -106.5995127,
      "timestamp": "2015-11-01T17:50:35Z",
      "version": 2,
      "changeset": 35017545,
      "user": "Dilys",
      "uid": 2475974,
      "tags": {
        "ele": "3708",
        "mountain_pass": "yes",
        "name": "Gunsight Pass",
        "natural": "saddle",
        "source": "USGS Topo map"
      }
    },
    {
      "type": "node",
      "id": 2192994146,
      "lat": 38.7552327,
      "lon": -106.4798487,
      "timestamp": "2019-08-23T05:18:37Z",
      "version": 4,
      "changeset": 73648548,
      "user": "Luis Garcia-Lopez",
      "uid": 4764681,
      "tags": {
        "name": "Tincup",
        "place": "village",
        "wikidata": "Q14685125",
        "wikipedia": "en:Tincup, Colorado"
      }
    },
    {
      "type": "node",
      "id": 2332624897,
      "lat": 38.4381296,
      "lon": -106.383171,
      "timestamp": "2013-06-05T02:12:13Z",
      "version": 1,
      "changeset": 16426745,
      "user": "derricknehrenberg",
      "uid": 366306,
      "tags": {
        "tourism": "camp_site"
      }
    },
    {
      "type": "node",
      "id": 2332624898,
      "lat": 38.4384219,
      "lon": -106.3827674,
      "timestamp": "2013-06-05T02:12:14Z",
      "version": 1,
      "changeset": 16426745,
      "user": "derricknehrenberg",
      "uid": 366306,
      "tags": {
        "tourism": "camp_site"
      }
    },
    {
      "type": "node",
      "id": 2742192085,
      "lat": 38.7116837,
      "lon": -106.287654,
      "timestamp": "2017-09-14T06:53:52Z",
      "version": 5,
      "changeset": 52027574,
      "user": "Edward",
      "uid": 364,
      "tags": {
        "name": "Alpine",
        "place": "hamlet",
        "population": "174",
        "wikidata": "Q4735455",
        "wikipedia": "en:Alpine, Colorado (ghost town)"
      }
    },
    {
      "type": "node",
      "id": 3423406465,
      "lat": 38.353408,
      "lon": -106.559713,
      "timestamp": "2019-02-17T08:23:34Z",
      "version": 2,
      "changeset": 67272624,
      "user": "b-jazz",
      "uid": 5800005,
      "tags": {
        "name": "Needle Creek Reservoir Camping Area",
        "operator": "United States Forest Service",
        "tourism": "camp_site",
        "website": "https://www.fs.usda.gov/recarea/gmug/recarea/?recid=33430"
      }
    },
    {
      "type": "node",
      "id": 3740238961,
      "lat": 38.4518627,
      "lon": -106.7781305,
      "timestamp": "2015-09-12T14:09:15Z",
      "version": 1,
      "changeset": 33981088,
      "user": "Dilys",
      "uid": 2475974,
      "tags": {
        "name": "Barrel Spring",
        "natural": "spring",
        "source": "USGS Topo map"
      }
    },
    {
      "type": "node",
      "id": 3740585588,
      "lat": 38.4286112,
      "lon": -106.7155898,
      "timestamp": "2015-09-12T20:28:08Z",
      "version": 1,
      "changeset": 33987933,
      "user": "Dilys",
      "uid": 2475974,
      "tags": {
        "name": "East Parlin Spring",
        "natural": "spring",
        "source": "USGS Topo map"
      }
    },
    {
      "type": "node",
      "id": 3740585590,
      "lat": 38.4149354,
      "lon": -106.7410884,
      "timestamp": "2015-09-12T20:28:08Z",
      "version": 1,
      "changeset": 33987933,
      "user": "Dilys",
      "uid": 2475974,
      "tags": {
        "name": "Sage Hen Spring",
        "natural": "spring",
        "source": "USGS Topo map"
      }
    },
    {
      "type": "node",
      "id": 3740585591,
      "lat": 38.4286718,
      "lon": -106.7307792,
      "timestamp": "2015-09-12T20:28:08Z",
      "version": 1,
      "changeset": 33987933,
      "user": "Dilys",
      "uid": 2475974,
      "tags": {
        "name": "Valdez Spring",
        "natural": "spring",
        "source": "USGS Topo map"
      }
    },
    {
      "type": "node",
      "id": 3740585603,
      "lat": 38.4009307,
      "lon": -106.7424206,
      "timestamp": "2015-09-12T20:28:08Z",
      "version": 1,
      "changeset": 33987933,
      "user": "Dilys",
      "uid": 2475974,
      "tags": {
        "natural": "spring",
        "source": "USGS Topo map"
      }
    },
    {
      "type": "node",
      "id": 3740585609,
      "lat": 38.4128537,
      "lon": -106.7336727,
      "timestamp": "2015-09-12T20:28:08Z",
      "version": 1,
      "changeset": 33987933,
      "user": "Dilys",
      "uid": 2475974,
      "tags": {
        "natural": "spring",
        "source": "USGS Topo map"
      }
    },
    {
      "type": "node",
      "id": 3740585610,
      "lat": 38.4272878,
      "lon": -106.7327698,
      "timestamp": "2015-09-12T20:28:08Z",
      "version": 1,
      "changeset": 33987933,
      "user": "Dilys",
      "uid": 2475974,
      "tags": {
        "natural": "spring",
        "source": "USGS Topo map"
      }
    },
    {
      "type": "node",
      "id": 3740688930,
      "lat": 38.4755316,
      "lon": -106.7052899,
      "timestamp": "2015-09-12T22:07:09Z",
      "version": 1,
      "changeset": 33989555,
      "user": "Dilys",
      "uid": 2475974,
      "tags": {
        "name": "Prospector Spring",
        "natural": "spring",
        "source": "USGS Topo map"
      }
    },
    {
      "type": "node",
      "id": 3740688931,
      "lat": 38.4365321,
      "lon": -106.6996963,
      "timestamp": "2015-09-12T22:07:09Z",
      "version": 1,
      "changeset": 33989555,
      "user": "Dilys",
      "uid": 2475974,
      "tags": {
        "natural": "spring",
        "source": "USGS Topo map"
      }
    },
    {
      "type": "node",
      "id": 3741233237,
      "lat": 38.5997106,
      "lon": -106.8333609,
      "timestamp": "2015-09-13T13:26:21Z",
      "version": 1,
      "changeset": 33999834,
      "user": "Dilys",
      "uid": 2475974,
      "tags": {
        "natural": "spring",
        "source": "USGS Topo map"
      }
    },
    {
      "type": "node",
      "id": 3741233238,
      "lat": 38.6002939,
      "lon": -106.8333522,
      "timestamp": "2015-09-13T13:26:21Z",
      "version": 1,
      "changeset": 33999834,
      "user": "Dilys",
      "uid": 2475974,
      "tags": {
        "natural": "spring",
        "source": "USGS Topo map"
      }
    },
    {
      "type": "node",
      "id": 3741270489,
      "lat": 38.5874258,
      "lon": -106.7292735,
      "timestamp": "2015-09-13T13:53:49Z",
      "version": 1,
      "changeset": 34000192,
      "user": "Dilys",
      "uid": 2475974,
      "tags": {
        "natural": "spring",
        "source": "USGS Topo map"
      }
    },
    {
      "type": "node",
      "id": 3817322430,
      "lat": 38.546173,
      "lon": -106.7595235,
      "timestamp": "2015-11-04T14:55:32Z",
      "version": 1,
      "changeset": 35080586,
      "user": "Dilys",
      "uid": 2475974,
      "tags": {
        "natural": "spring",
        "source": "USGS Topo map"
      }
    },
    {
      "type": "node",
      "id": 3817322432,
      "lat": 38.5559828,
      "lon": -106.7096326,
      "timestamp": "2015-11-04T14:55:32Z",
      "version": 1,
      "changeset": 35080586,
      "user": "Dilys",
      "uid": 2475974,
      "tags": {
        "natural": "spring",
        "source": "USGS Topo map"
      }
    },
    {
      "type": "node",
      "id": 3825504957,
      "lat": 38.3532324,
      "lon": -106.8503941,
      "timestamp": "2015-11-08T22:39:19Z",
      "version": 1,
      "changeset": 35180573,
      "user": "Dilys",
      "uid": 2475974,
      "tags": {
        "natural": "spring",
        "source": "USGS Topo map"
      }
    },
    {
      "type": "node",
      "id": 4743899070,
      "lat": 38.7146358,
      "lon": -106.2157334,
      "timestamp": "2017-03-19T21:15:23Z",
      "version": 1,
      "changeset": 46993867,
      "user": "Hedaja",
      "uid": 339917,
      "tags": {
        "amenity": "shelter",
        "name": "Love Meadow Watchable Wildlife Area",
        "shelter_type": "wildlife_observation"
      }
    },
    {
      "type": "node",
      "id": 5131527322,
      "lat": 38.7287065,
      "lon": -106.7596596,
      "timestamp": "2017-09-26T19:21:00Z",
      "version": 1,
      "changeset": 52395087,
      "user": "traildock",
      "uid": 6025283,
      "tags": {
        "amenity": "trail_facility",
        "backcountry": "yes",
        "description": "Fee Area $16.00 per night",
        "name": "North Bank Campground",
        "source": "Traildock",
        "tourism": "camp_site",
        "traildock:user": "derrick_n"
      }
    },
    {
      "type": "node",
      "id": 5131542821,
      "lat": 38.4422621,
      "lon": -106.2584352,
      "timestamp": "2017-09-26T19:23:58Z",
      "version": 1,
      "changeset": 52395173,
      "user": "traildock",
      "uid": 6025283,
      "tags": {
        "amenity": "shelter",
        "description": "Southeast of intersection of Green's Creek and Monarch Crest trail",
        "name": "Shelter",
        "source": "Traildock",
        "traildock:user": "d@traildock.com"
      }
    },
    {
      "type": "node",
      "id": 9124456728,
      "lat": 38.3697403,
      "lon": -106.3078813,
      "timestamp": "2021-09-26T15:30:55Z",
      "version": 1,
      "changeset": 111727926,
      "user": "rsavoye",
      "uid": 4606673,
      "tags": {
        "ele": "2826.0",
        "leisure": "firepit",
        "tourism": "camp_site"
      }
    },
    {
      "type": "way",
      "id": 121130102,
      "timestamp": "2016-07-15T11:34:05Z",
      "version": 3,
      "changeset": 40758667,
      "user": "MountainAddict",
      "uid": 2679756,
      "center": {
        "lat": 38.4967053,
        "lon": -106.3254166
      },
      "nodes": [],
      "tags": {
        "building": "retail",
        "name": "Monarch Crest Food & Gifts",
        "shop": "convenience"
      }
    },
    {
      "type": "way",
      "id": 171886618,
      "timestamp": "2016-06-12T02:29:43Z",
      "version": 2,
      "changeset": 39963743,
      "user": "jheddings",
      "uid": 3118979,
      "center": {
        "lat": 38.5169297,
        "lon": -106.3250726
      },
      "nodes": [],
      "tags": {
        "name": "Monarch Park Campground",
        "tourism": "camp_site"
      }
    },
    {
      "type": "way",
      "id": 199916300,
      "timestamp": "2020-09-25T22:21:26Z",
      "version": 2,
      "changeset": 91533472,
      "user": "bradrh",
      "uid": 1567411,
      "center": {
        "lat": 38.5828363,
        "lon": -106.2204162
      },
      "nodes": [],
      "tags": {
        "name": "Shavano Campground",
        "operator": "USFS",
        "tourism": "camp_site"
      }
    },
    {
      "type": "way",
      "id": 202754929,
      "timestamp": "2013-01-24T23:44:27Z",
      "version": 1,
      "changeset": 14775870,
      "user": "yotann",
      "uid": 522859,
      "center": {
        "lat": 38.4063341,
        "lon": -106.4165941
      },
      "nodes": [],
      "tags": {
        "addr:city": "Sargents",
        "addr:housenumber": "71420",
        "addr:street": "US 50",
        "building": "commercial",
        "contact:phone": "+1 970 641 0674",
        "contact:website": "http://www.tomichicreektradingpost.com/",
        "name": "Tomichi Creek Trading Post",
        "shop": "convenience"
      }
    },
    {
      "type": "way",
      "id": 211994200,
      "timestamp": "2019-02-17T08:23:47Z",
      "version": 3,
      "changeset": 67272635,
      "user": "b-jazz",
      "uid": 5800005,
      "center": {
        "lat": 38.6222943,
        "lon": -106.4258632
      },
      "nodes": [],
      "tags": {
        "name": "Middle Quartz Creek Campground",
        "operator": "USFS",
        "tourism": "camp_site",
        "website": "https://www.fs.usda.gov/recarea/gmug/recarea/?recid=33388"
      }
    },
    {
      "type": "way",
      "id": 211994201,
      "timestamp": "2019-02-17T08:23:48Z",
      "version": 3,
      "changeset": 67272635,
      "user": "b-jazz",
      "uid": 5800005,
      "center": {
        "lat": 38.6103808,
        "lon": -106.5001077
      },
      "nodes": [],
      "tags": {
        "name": "Pitkin Campground",
        "operator": "USFS",
        "tourism": "camp_site",
        "website": "https://www.fs.usda.gov/recarea/gmug/recarea/?recid=33456"
      }
    },
    {
      "type": "way",
      "id": 211994203,
      "timestamp": "2019-02-17T08:23:47Z",
      "version": 3,
      "changeset": 67272635,
      "user": "b-jazz",
      "uid": 5800005,
      "center": {
        "lat": 38.6381715,
        "lon": -106.4685279
      },
      "nodes": [],
      "tags": {
        "name": "Quartz Creek Campground",
        "operator": "USFS",
        "tourism": "camp_site",
        "website": "https://www.fs.usda.gov/recarea/gmug/recarea/?recid=33470"
      }
    },
    {
      "type": "way",
      "id": 313322935,
      "timestamp": "2019-02-17T08:23:40Z",
      "version": 4,
      "changeset": 67272628,
      "user": "b-jazz",
      "uid": 5800005,
      "center": {
        "lat": 38.6551764,
        "lon": -106.8568116
      },
      "nodes": [],
      "tags": {
        "access:conditional": "yes @ may-sep",
        "fee": "USD10 / Night",
        "maxtents": "10",
        "name": "Almont Camp Site",
        "operator": "USFS",
        "tourism": "camp_site",
        "website": "https://www.fs.usda.gov/recarea/gmug/recarea/?recid=33066"
      }
    },
    {
      "type": "way",
      "id": 335221802,
      "timestamp": "2019-02-17T21:19:34Z",
      "version": 2,
      "changeset": 67292948,
      "user": "b-jazz-bot",
      "uid": 9451067,
      "center": {
        "lat": 38.7674183,
        "lon": -106.643412
      },
      "nodes": [],
      "tags": {
        "name": "Cold Spring Campground",
        "operator": "United States Forest Service",
        "tourism": "camp_site",
        "website": "https://www.fs.usda.gov/recarea/gmug/recarea/?recid=33164"
      }
    },
    {
      "type": "way",
      "id": 335221804,
      "timestamp": "2019-02-17T08:23:39Z",
      "version": 2,
      "changeset": 67272628,
      "user": "b-jazz",
      "uid": 5800005,
      "center": {
        "lat": 38.6551053,
        "lon": -106.5744526
      },
      "nodes": [],
      "tags": {
        "name": "Gold Creek Campground",
        "operator": "United States Forest Service",
        "tourism": "camp_site",
        "website": "https://www.fs.usda.gov/recarea/gmug/recarea/?recid=33284"
      }
    },
    {
      "type": "way",
      "id": 335221805,
      "timestamp": "2019-02-17T21:19:37Z",
      "version": 2,
      "changeset": 67292948,
      "user": "b-jazz-bot",
      "uid": 9451067,
      "center": {
        "lat": 38.7263136,
        "lon": -106.7677076
      },
      "nodes": [],
      "tags": {
        "name": "Granite Tent Campground",
        "operator": "United States Forest Service",
        "tourism": "camp_site",
        "website": "https://www.fs.usda.gov/recarea/gmug/recarea/?recid=33290"
      }
    },
    {
      "type": "way",
      "id": 335221806,
      "timestamp": "2021-07-20T21:14:13Z",
      "version": 4,
      "changeset": 108339729,
      "user": "kevinp2",
      "uid": 956637,
      "center": {
        "lat": 38.8178322,
        "lon": -106.5811383
      },
      "nodes": [],
      "tags": {
        "access": "customers",
        "contact:website": "https://www.recreation.gov/camping/campgrounds/232154",
        "ele": "9400 ft",
        "fee": "yes",
        "name": "Lakeview Campground",
        "operator": "United States Forest Service",
        "reservation": "recommended",
        "tourism": "camp_site",
        "website": "https://www.fs.usda.gov/recarea/gmug/recarea/?recid=33346"
      }
    },
    {
      "type": "way",
      "id": 335221807,
      "timestamp": "2019-02-17T08:24:20Z",
      "version": 2,
      "changeset": 67272653,
      "user": "b-jazz",
      "uid": 5800005,
      "center": {
        "lat": 38.7613926,
        "lon": -106.6624364
      },
      "nodes": [],
      "tags": {
        "name": "Lodgepole Campground",
        "operator": "United States Forest Service",
        "tourism": "camp_site",
        "website": "https://www.fs.usda.gov/recarea/gmug/recarea/?recid=33362"
      }
    },
    {
      "type": "way",
      "id": 335221808,
      "timestamp": "2019-02-17T21:19:33Z",
      "version": 2,
      "changeset": 67292948,
      "user": "b-jazz-bot",
      "uid": 9451067,
      "center": {
        "lat": 38.7760527,
        "lon": -106.6267566
      },
      "nodes": [],
      "tags": {
        "name": "Lottis Creek Campground",
        "operator": "United States Forest Service",
        "tourism": "camp_site",
        "website": "https://www.fs.usda.gov/recarea/gmug/recarea/?recid=33368"
      }
    },
    {
      "type": "way",
      "id": 335221809,
      "timestamp": "2019-02-17T08:24:34Z",
      "version": 2,
      "changeset": 67272661,
      "user": "b-jazz",
      "uid": 5800005,
      "center": {
        "lat": 38.7474141,
        "lon": -106.4318227
      },
      "nodes": [],
      "tags": {
        "name": "Mirror Lake Campground",
        "operator": "United States Forest Service",
        "tourism": "camp_site",
        "website": "https://www.fs.usda.gov/recarea/gmug/recarea/?recid=33410"
      }
    },
    {
      "type": "way",
      "id": 335221811,
      "timestamp": "2019-02-19T02:06:38Z",
      "version": 2,
      "changeset": 67336469,
      "user": "b-jazz-bot",
      "uid": 9451067,
      "center": {
        "lat": 38.7295917,
        "lon": -106.7586625
      },
      "nodes": [],
      "tags": {
        "name": "North Bank Campground",
        "operator": "United States Forest Service",
        "tourism": "camp_site",
        "website": "https://www.fs.usda.gov/recarea/gmug/recarea/?recid=33434"
      }
    },
    {
      "type": "way",
      "id": 335221812,
      "timestamp": "2019-02-19T02:06:39Z",
      "version": 2,
      "changeset": 67336469,
      "user": "b-jazz-bot",
      "uid": 9451067,
      "center": {
        "lat": 38.7286671,
        "lon": -106.7573112
      },
      "nodes": [],
      "tags": {
        "name": "One Mile Campground",
        "operator": "United States Forest Service",
        "tourism": "camp_site",
        "website": "https://www.fs.usda.gov/recarea/gmug/recarea/?recid=33452"
      }
    },
    {
      "type": "way",
      "id": 335221814,
      "timestamp": "2019-02-17T08:24:20Z",
      "version": 2,
      "changeset": 67272653,
      "user": "b-jazz",
      "uid": 5800005,
      "center": {
        "lat": 38.7307576,
        "lon": -106.7472813
      },
      "nodes": [],
      "tags": {
        "name": "Rosy Lane Campground",
        "operator": "United States Forest Service",
        "tourism": "camp_site",
        "website": "https://www.fs.usda.gov/recarea/gmug/recarea/?recid=33500"
      }
    },
    {
      "type": "way",
      "id": 335221815,
      "timestamp": "2019-02-17T08:23:46Z",
      "version": 2,
      "changeset": 67272635,
      "user": "b-jazz",
      "uid": 5800005,
      "center": {
        "lat": 38.5206486,
        "lon": -106.4152645
      },
      "nodes": [],
      "tags": {
        "name": "Snowblind Campground",
        "operator": "United States Forest Service",
        "tourism": "camp_site",
        "website": "https://www.fs.usda.gov/recarea/gmug/recarea/?recid=33530"
      }
    },
    {
      "type": "way",
      "id": 335221816,
      "timestamp": "2019-02-17T08:24:21Z",
      "version": 2,
      "changeset": 67272653,
      "user": "b-jazz",
      "uid": 5800005,
      "center": {
        "lat": 38.7491003,
        "lon": -106.7668466
      },
      "nodes": [],
      "tags": {
        "name": "Spring Creek Campground",
        "operator": "United States Forest Service",
        "tourism": "camp_site",
        "website": "https://www.fs.usda.gov/recarea/gmug/recarea/?recid=33556"
      }
    },
    {
      "type": "way",
      "id": 385050502,
      "timestamp": "2015-12-08T22:06:59Z",
      "version": 1,
      "changeset": 35835590,
      "user": "Zman920",
      "uid": 3441377,
      "center": {
        "lat": 38.8209077,
        "lon": -106.5576907
      },
      "nodes": [],
      "tags": {
        "building": "yes",
        "name": "Taylor Park Trading Post",
        "shop": "convenience"
      }
    },
    {
      "type": "way",
      "id": 424465807,
      "timestamp": "2016-06-12T03:40:17Z",
      "version": 2,
      "changeset": 39964077,
      "user": "jheddings",
      "uid": 3118979,
      "center": {
        "lat": 38.8117001,
        "lon": -106.3207905
      },
      "nodes": [],
      "tags": {
        "name": "Collegiate Peaks Campground",
        "tourism": "camp_site"
      }
    },
    {
      "type": "way",
      "id": 527150252,
      "timestamp": "2017-09-23T22:18:10Z",
      "version": 1,
      "changeset": 52315981,
      "user": "MountainAddict",
      "uid": 2679756,
      "center": {
        "lat": 38.7104498,
        "lon": -106.2443537
      },
      "nodes": [],
      "tags": {
        "name": "Cascade Camp",
        "tourism": "camp_site"
      }
    },
    {
      "type": "way",
      "id": 527150254,
      "timestamp": "2017-09-23T22:18:11Z",
      "version": 1,
      "changeset": 52315981,
      "user": "MountainAddict",
      "uid": 2679756,
      "center": {
        "lat": 38.7127028,
        "lon": -106.2325654
      },
      "nodes": [],
      "tags": {
        "name": "Chalk Lake Camp",
        "tourism": "camp_site"
      }
    },
    {
      "type": "way",
      "id": 913045419,
      "timestamp": "2021-03-03T06:18:06Z",
      "version": 1,
      "changeset": 100322174,
      "user": "pabi12",
      "uid": 12694440,
      "center": {
        "lat": 38.7036478,
        "lon": -106.3452707
      },
      "nodes": [],
      "tags": {
        "addr:city": "Nathrop",
        "addr:housenumber": "25865",
        "addr:postcode": "81236",
        "addr:state": "CO",
        "addr:street": "Co. Rd. 162",
        "building": "yes",
        "name": "St. Elmo General Store",
        "shop": "convenience",
        "website": "http://www.st-elmo.com"
      }
    }
  ]
}