{
  "osm3s": {
    "timestamp_osm_date": "2022-06-27T23:59:59Z",
    "timestamp_osm_base": "2022-06-28T04:36:53Z",
    "copyright": "The data included in this document is from www.openstreetmap.org. The data is made available under ODbL."
  },
  "elements": [
    {
      "type": "node",
      "id": 151415522,
      "lat": 37.8408348,
      "lon": -106.2466966,
      "timestamp": "2020-03-16T23:01:17Z",
      "version": 3,
      "changeset": 82276413,
      "user": "mapman44",
      "uid": 2888253,
      "tags": {
        "ele": "2387",
        "gnis:County": "Saguache",
        "gnis:County_num": "109",
        "gnis:ST_alpha": "CO",
        "gnis:ST_num": "08",
        "gnis:id": "190257",
        "import_uuid": "bb7269ee-502a-5391-8056-e3ce0e66489c",
        "name": "La Garita",
        "place": "hamlet"
      }
    },
    {
      "type": "node",
      "id": 151467249,
      "lat": 38.2327779,
      "lon": -106.2150238,
      "timestamp": "2020-03-16T23:01:17Z",
      "version": 3,
      "changeset": 82276413,
      "user": "mapman44",
      "uid": 2888253,
      "tags": {
        "ele": "2845",
        "gnis:County": "Saguache",
        "gnis:County_num": "109",
        "gnis:ST_alpha": "CO",
        "gnis:ST_num": "08",
        "gnis:id": "190096",
        "import_uuid": "bb7269ee-502a-5391-8056-e3ce0e66489c",
        "name": "Bonita",
        "place": "hamlet"
      }
    },
    {
      "type": "node",
      "id": 178060898,
      "lat": 38.2142654,
      "lon": -106.5729529,
      "timestamp": "2015-09-13T20:16:54Z",
      "version": 4,
      "changeset": 34007831,
      "user": "Dilys",
      "uid": 2475974,
      "tags": {
        "ele": "3093",
        "mountain_pass": "yes",
        "name": "North Pass",
        "natural": "saddle"
      }
    },
    {
      "type": "node",
      "id": 591242003,
      "lat": 37.8866232,
      "lon": -106.3980047,
      "timestamp": "2021-08-14T20:40:59Z",
      "version": 2,
      "changeset": 109682511,
      "user": "rsavoye",
      "uid": 4606673,
      "tags": {
        "natural": "spring"
      }
    },
    {
      "type": "node",
      "id": 593223060,
      "lat": 37.878687,
      "lon": -106.3823099,
      "timestamp": "2021-08-14T20:40:59Z",
      "version": 2,
      "changeset": 109682511,
      "user": "rsavoye",
      "uid": 4606673,
      "tags": {
        "natural": "spring"
      }
    },
    {
      "type": "node",
      "id": 1929015970,
      "lat": 38.1795262,
      "lon": -106.58331,
      "timestamp": "2020-11-01T23:13:30Z",
      "version": 2,
      "changeset": 93385041,
      "user": "bradrh",
      "uid": 1567411,
      "tags": {
        "name": "Luders Creek Campground",
        "tourism": "camp_site"
      }
    },
    {
      "type": "node",
      "id": 2365019841,
      "lat": 37.7699348,
      "lon": -106.7984411,
      "timestamp": "2013-06-28T22:45:49Z",
      "version": 1,
      "changeset": 16746003,
      "user": "russdeffner",
      "uid": 358440,
      "tags": {
        "name": "Wagon Wheel Gap",
        "place": "village",
        "source": "Bing; and took name from PO nearby"
      }
    },
    {
      "type": "node",
      "id": 2522397112,
      "lat": 38.0045201,
      "lon": -106.4300716,
      "timestamp": "2015-01-16T21:59:56Z",
      "version": 3,
      "changeset": 28196953,
      "user": "geow",
      "uid": 223093,
      "tags": {
        "mountain_pass": "yes",
        "name": "Camera Pass",
        "natural": "saddle"
      }
    },
    {
      "type": "node",
      "id": 3609412624,
      "lat": 37.908002,
      "lon": -106.427369,
      "timestamp": "2019-02-17T08:21:37Z",
      "version": 2,
      "changeset": 67272572,
      "user": "b-jazz",
      "uid": 5800005,
      "tags": {
        "name": "Poso Campground",
        "operator": "United States Forest Service",
        "tourism": "camp_site",
        "website": "https://www.fs.usda.gov/recarea/riogrande/recarea/?recid=29404"
      }
    },
    {
      "type": "node",
      "id": 3609413185,
      "lat": 38.0190451,
      "lon": -106.6776076,
      "timestamp": "2019-02-17T08:23:21Z",
      "version": 2,
      "changeset": 67272615,
      "user": "b-jazz",
      "uid": 5800005,
      "tags": {
        "name": "Stone Cellar Campground",
        "operator": "United States Forest Service",
        "tourism": "camp_site",
        "website": "https://www.fs.usda.gov/recarea/riogrande/recarea/?recid=29438"
      }
    },
    {
      "type": "node",
      "id": 6699472070,
      "lat": 37.7825169,
      "lon": -106.8170995,
      "timestamp": "2019-08-10T22:55:21Z",
      "version": 1,
      "changeset": 73230564,
      "user": "rsavoye",
      "uid": 4606673,
      "tags": {
        "leisure": "firepit",
        "name": "Wheeler Baisin Site 3",
        "tourism": "camp_site"
      }
    },
    {
      "type": "node",
      "id": 6699498680,
      "lat": 37.7932796,
      "lon": -106.8125544,
      "timestamp": "2019-08-10T22:53:20Z",
      "version": 1,
      "changeset": 73230542,
      "user": "rsavoye",
      "uid": 4606673,
      "tags": {
        "internet_access": "cellular",
        "leisure": "firepit",
        "name": "Wheeler Basin Site 2",
        "tourism": "camp_site"
      }
    },
    {
      "type": "node",
      "id": 7455618967,
      "lat": 37.8418893,
      "lon": -106.2802551,
      "timestamp": "2020-04-28T02:28:06Z",
      "version": 1,
      "changeset": 84228747,
      "user": "bradrh",
      "uid": 1567411,
      "tags": {
        "fee": "yes",
        "name": "Penitente",
        "tourism": "camp_site"
      }
    },
    {
      "type": "node",
      "id": 7863148333,
      "lat": 37.9010005,
      "lon": -106.7848196,
      "timestamp": "2020-08-31T23:17:20Z",
      "version": 1,
      "changeset": 90213691,
      "user": "jrzelazny",
      "uid": 10232182,
      "tags": {
        "name": "Halfmoon Pass",
        "natural": "saddle"
      }
    },
    {
      "type": "node",
      "id": 9124433107,
      "lat": 38.2118382,
      "lon": -106.2053264,
      "timestamp": "2021-09-26T15:30:55Z",
      "version": 1,
      "changeset": 111727926,
      "user": "rsavoye",
      "uid": 4606673,
      "tags": {
        "ele": "2995.97",
        "internet": "cell",
        "leisure": "firepit",
        "tourism": "camp_site"
      }
    },
    {
      "type": "node",
      "id": 9124433111,
      "lat": 38.1651555,
      "lon": -106.5460629,
      "timestamp": "2021-09-26T15:30:55Z",
      "version": 1,
      "changeset": 111727926,
      "user": "rsavoye",
      "uid": 4606673,
      "tags": {
        "ele": "2915.3",
        "leisure": "firepit",
        "tourism": "camp_site"
      }
    },
    {
      "type": "node",
      "id": 9124433114,
      "lat": 38.160492,
      "lon": -106.5451397,
      "timestamp": "2021-09-26T15:30:55Z",
      "version": 1,
      "changeset": 111727926,
      "user": "rsavoye",
      "uid": 4606673,
      "tags": {
        "ele": "2855.17",
        "leisure": "firepit",
        "tourism": "camp_site"
      }
    },
    {
      "type": "node",
      "id": 9124456717,
      "lat": 38.1461334,
      "lon": -106.5191091,
      "timestamp": "2021-09-26T15:30:55Z",
      "version": 1,
      "changeset": 111727926,
      "user": "rsavoye",
      "uid": 4606673,
      "tags": {
        "ele": "2807.6",
        "leisure": "firepit",
        "tourism": "camp_site"
      }
    },
    {
      "type": "node",
      "id": 9124456721,
      "lat": 38.211662,
      "lon": -106.207565,
      "timestamp": "2021-09-26T15:30:55Z",
      "version": 1,
      "changeset": 111727926,
      "user": "rsavoye",
      "uid": 4606673,
      "tags": {
        "ele": "0.0",
        "internet": "cell",
        "leisure": "firepit",
        "tourism": "camp_site"
      }
    },
    {
      "type": "node",
      "id": 9124456725,
      "lat": 37.8326513,
      "lon": -106.3561554,
      "timestamp": "2021-09-26T15:30:55Z",
      "version": 1,
      "changeset": 111727926,
      "user": "rsavoye",
      "uid": 4606673,
      "tags": {
        "ele": "2527.44",
        "internet": "cell",
        "leisure": "firepit",
        "tourism": "camp_site"
      }
    },
    {
      "type": "node",
      "id": 9124456727,
      "lat": 37.8355284,
      "lon": -106.3606649,
      "timestamp": "2021-09-26T15:30:55Z",
      "version": 1,
      "changeset": 111727926,
      "user": "rsavoye",
      "uid": 4606673,
      "tags": {
        "leisure": "firepit",
        "tourism": "camp_site"
      }
    },
    {
      "type": "node",
      "id": 9124456729,
      "lat": 38.2101142,
      "lon": -106.2066358,
      "timestamp": "2021-09-26T15:30:55Z",
      "version": 1,
      "changeset": 111727926,
      "user": "rsavoye",
      "uid": 4606673,
      "tags": {
        "ele": "2985.48",
        "leisure": "firepit",
        "tourism": "camp_site"
      }
    },
    {
      "type": "node",
      "id": 9124456730,
      "lat": 38.1751245,
      "lon": -106.555177,
      "timestamp": "2021-09-26T15:30:55Z",
      "version": 1,
      "changeset": 111727926,
      "user": "rsavoye",
      "uid": 4606673,
      "tags": {
        "ele": "2988.76",
        "leisure": "firepit",
        "tourism": "camp_site"
      }
    },
    {
      "type": "node",
      "id": 9124456736,
      "lat": 38.2019552,
      "lon": -106.2037266,
      "timestamp": "2021-09-26T15:30:55Z",
      "version": 1,
      "changeset": 111727926,
      "user": "rsavoye",
      "uid": 4606673,
      "tags": {
        "ele": "2890.4",
        "internet": "cell",
        "leisure": "firepit",
        "tourism": "camp_site"
      }
    },
    {
      "type": "way",
      "id": 308603678,
      "timestamp": "2014-10-19T16:11:52Z",
      "version": 1,
      "changeset": 26194485,
      "user": "Mark Newnham",
      "uid": 994480,
      "center": {
        "lat": 37.9597183,
        "lon": -106.4302146
      },
      "nodes": [],
      "tags": {
        "name": "Storm King Campground",
        "operator": "USFS",
        "source": "http://www.fs.usda.gov/recarea/riogrande/recreation/fishing/recarea/?recid=78581&actid=24",
        "tourism": "camp_site"
      }
    },
    {
      "type": "way",
      "id": 355326678,
      "timestamp": "2019-02-17T08:23:29Z",
      "version": 2,
      "changeset": 67272621,
      "user": "b-jazz",
      "uid": 5800005,
      "center": {
        "lat": 38.184983,
        "lon": -106.5170308
      },
      "nodes": [],
      "tags": {
        "name": "Buffalo Pass Campground",
        "operator": "United States Forest Service",
        "tourism": "camp_site",
        "website": "https://www.fs.usda.gov/recarea/riogrande/recarea/?recid=29300"
      }
    },
    {
      "type": "way",
      "id": 355326679,
      "timestamp": "2019-02-17T08:21:29Z",
      "version": 2,
      "changeset": 67272566,
      "user": "b-jazz",
      "uid": 5800005,
      "center": {
        "lat": 37.8227803,
        "lon": -106.6058337
      },
      "nodes": [],
      "tags": {
        "name": "Cathedral Campground",
        "operator": "United States Forest Service",
        "tourism": "camp_site",
        "website": "https://www.fs.usda.gov/recarea/riogrande/recarea/?recid=28920"
      }
    },
    {
      "type": "way",
      "id": 355326685,
      "timestamp": "2019-02-17T08:21:37Z",
      "version": 2,
      "changeset": 67272572,
      "user": "b-jazz",
      "uid": 5800005,
      "center": {
        "lat": 37.9083749,
        "lon": -106.4280759
      },
      "nodes": [],
      "tags": {
        "name": "Poso Campground",
        "operator": "United States Forest Service",
        "tourism": "camp_site",
        "website": "https://www.fs.usda.gov/recarea/riogrande/recarea/?recid=29404"
      }
    },
    {
      "type": "way",
      "id": 355327579,
      "timestamp": "2019-02-17T08:21:26Z",
      "version": 2,
      "changeset": 67272563,
      "user": "b-jazz",
      "uid": 5800005,
      "center": {
        "lat": 37.7512957,
        "lon": -106.7647764
      },
      "nodes": [],
      "tags": {
        "name": "Palisade Campground",
        "operator": "United States Forest Service",
        "tourism": "camp_site",
        "website": "https://www.fs.usda.gov/recarea/riogrande/recarea/?recid=29124"
      }
    }
  ]
}