{
  "osm3s": {
    "timestamp_osm_date": "2022-06-04T23:59:59Z",
    "timestamp_osm_base": "2022-06-05T05:52:54Z",
    "copyright": "The data included in this document is from www.openstreetmap.org. The data is made available under ODbL."
  },
  "elements": [
    {
      "type": "node",
      "id": 494311759,
      "lat": 68.4212152,
      "lon": 18.6232313,
      "timestamp": "2009-09-12T17:54:26Z",
      "version": 1,
      "changeset": 2460114,
      "user": "Ice25T",
      "uid": 157205,
      "tags": {
        "amenity": "shelter"
      }
    },
    {
      "type": "node",
      "id": 1698306833,
      "lat": 68.4051307,
      "lon": 18.4614014,
      "timestamp": "2020-01-11T16:42:48Z",
      "version": 4,
      "changeset": 79456006,
      "user": "Essin",
      "uid": 438299,
      "tags": {
        "alt_name": "Låktatjåkko",
        "ele": "1426",
        "name": "Loktačohkka",
        "name:se": "Loktačohkka",
        "natural": "peak",
        "wikidata": "Q1891388"
      }
    },
    {
      "type": "node",
      "id": 2237072231,
      "lat": 68.4047245,
      "lon": 18.6879366,
      "timestamp": "2018-07-01T12:42:05Z",
      "version": 4,
      "changeset": 60321011,
      "user": "lemos",
      "uid": 994025,
      "tags": {
        "name": "Björkliden",
        "name:ru": "Бьёрклиден",
        "place": "hamlet",
        "ref:se:pts:postort": "BJÖRKLIDEN"
      }
    },
    {
      "type": "node",
      "id": 3734899336,
      "lat": 68.4690718,
      "lon": 18.8256102,
      "timestamp": "2015-09-08T18:40:37Z",
      "version": 1,
      "changeset": 33890461,
      "user": "Fjellrev",
      "uid": 674625,
      "tags": {
        "fee": "yes",
        "name": "Snurijåkkåtan",
        "operator": "STF",
        "tourism": "wilderness_hut"
      }
    },
    {
      "type": "node",
      "id": 4306977194,
      "lat": 68.4608897,
      "lon": 18.4550678,
      "timestamp": "2018-05-16T10:39:49Z",
      "version": 2,
      "changeset": 59012890,
      "user": "nurdafur",
      "uid": 3172019,
      "tags": {
        "camp_type": "wildcamp",
        "tourism": "camp_site"
      }
    },
    {
      "type": "node",
      "id": 4307028590,
      "lat": 68.4683636,
      "lon": 18.4418763,
      "timestamp": "2018-05-16T10:39:49Z",
      "version": 2,
      "changeset": 59012890,
      "user": "nurdafur",
      "uid": 3172019,
      "tags": {
        "camp_type": "wildcamp",
        "tourism": "camp_site"
      }
    },
    {
      "type": "node",
      "id": 4307032309,
      "lat": 68.4242196,
      "lon": 18.3545484,
      "timestamp": "2016-07-17T08:09:42Z",
      "version": 1,
      "changeset": 40792960,
      "user": "nurdafur",
      "uid": 3172019,
      "tags": {
        "amenity": "shelter",
        "shelter_type": "picnic_shelter"
      }
    },
    {
      "type": "node",
      "id": 4307034589,
      "lat": 68.4580763,
      "lon": 18.457506,
      "timestamp": "2019-04-01T14:37:52Z",
      "version": 3,
      "changeset": 68757181,
      "user": "Michal Grňo",
      "uid": 389627,
      "tags": {
        "camp_type": "wildcamp",
        "tourism": "camp_site"
      }
    },
    {
      "type": "node",
      "id": 4338034689,
      "lat": 68.4325359,
      "lon": 18.6707731,
      "timestamp": "2020-04-11T16:45:49Z",
      "version": 2,
      "changeset": 83405145,
      "user": "SverigeFan",
      "uid": 32112,
      "tags": {
        "amenity": "shelter",
        "fireplace": "yes",
        "shelter_type": "picnic_shelter"
      }
    },
    {
      "type": "node",
      "id": 4472161256,
      "lat": 68.4256052,
      "lon": 18.3545713,
      "timestamp": "2016-10-31T04:57:02Z",
      "version": 1,
      "changeset": 43296270,
      "user": "derkemiker",
      "uid": 1800823,
      "tags": {
        "name": "Låktatjåkka",
        "natural": "spring"
      }
    },
    {
      "type": "node",
      "id": 4770599203,
      "lat": 68.4090175,
      "lon": 18.666663,
      "timestamp": "2019-03-28T23:03:07Z",
      "version": 3,
      "changeset": 68646586,
      "user": "It's so funny",
      "uid": 191979,
      "tags": {
        "amenity": "shelter",
        "heated": "yes",
        "name": "Aurora view point - Björkliden picnic shelter with self-service cafe",
        "shelter_type": "picnic_shelter",
        "source": "GPS",
        "tourism": "viewpoint"
      }
    },
    {
      "type": "node",
      "id": 5981708157,
      "lat": 68.493204,
      "lon": 18.6143656,
      "timestamp": "2022-01-02T08:03:56Z",
      "version": 3,
      "changeset": 115659923,
      "user": "k_b",
      "uid": 7822,
      "tags": {
        "designation": "STF (open)",
        "name": "Pålnostugan",
        "tourism": "alpine_hut"
      }
    },
    {
      "type": "node",
      "id": 6376076035,
      "lat": 68.5055773,
      "lon": 18.4333742,
      "timestamp": "2019-04-01T14:37:02Z",
      "version": 1,
      "changeset": 68757181,
      "user": "Michal Grňo",
      "uid": 389627,
      "tags": {
        "camp_type": "wildcamp",
        "tourism": "camp_site"
      }
    },
    {
      "type": "way",
      "id": 228067110,
      "timestamp": "2019-03-18T01:13:39Z",
      "version": 5,
      "changeset": 68243616,
      "user": "b-jazz-bot",
      "uid": 9451067,
      "center": {
        "lat": 68.4053272,
        "lon": 18.6822065
      },
      "nodes": [],
      "tags": {
        "addr:city": "Björklidens",
        "addr:postcode": "981 93",
        "capacity": "100",
        "fee": "yes",
        "name": "Björklidens Camping",
        "name:ru": "Бьёрклиденс кемпинг",
        "operator": "Hotell Fjället",
        "tourism": "camp_site",
        "website": "https://bjorkliden.com/resa-bo/camping/"
      }
    },
    {
      "type": "way",
      "id": 292628044,
      "timestamp": "2014-07-13T18:40:12Z",
      "version": 1,
      "changeset": 24126727,
      "user": "SverigeFan",
      "uid": 32112,
      "center": {
        "lat": 68.4212706,
        "lon": 18.6232187
      },
      "nodes": [],
      "tags": {
        "amenity": "shelter",
        "building": "hut"
      }
    },
    {
      "type": "way",
      "id": 522795772,
      "timestamp": "2017-09-09T07:00:43Z",
      "version": 1,
      "changeset": 51870685,
      "user": "Fjellrev",
      "uid": 674625,
      "center": {
        "lat": 68.4957195,
        "lon": 18.3168915
      },
      "nodes": [],
      "tags": {
        "amenity": "shelter",
        "building": "yes"
      }
    },
    {
      "type": "way",
      "id": 686143598,
      "timestamp": "2022-05-22T19:34:28Z",
      "version": 3,
      "changeset": 121333566,
      "user": "b-jazz-bot",
      "uid": 9451067,
      "center": {
        "lat": 68.513876,
        "lon": 18.631648
      },
      "nodes": [],
      "tags": {
        "building": "cabin",
        "capacity": "14",
        "designation": "DNT (locked)",
        "dnt:classification": "ubetjent",
        "dnt:iid": "76",
        "dnt:lock": "yes",
        "ele": "544",
        "idrettsanleggregisteret:iid": "1919002001",
        "name": "Lappjordhytta",
        "network": "Den Norske Turistforening",
        "operator": "DNT Oslo og Omegn",
        "owner": "Den Norske Turistforening",
        "ref:bygningsnr": "191306473",
        "service": "no",
        "tourism": "wilderness_hut",
        "website": "https://ut.no/hytte/lappjordhytta"
      }
    }
  ]
}