{
  "osm3s": {
    "timestamp_osm_date": "2022-03-24T23:59:59Z",
    "timestamp_osm_base": "2022-03-25T05:29:47Z",
    "copyright": "The data included in this document is from www.openstreetmap.org. The data is made available under ODbL."
  },
  "elements": [
    {
      "type": "node",
      "id": 26863350,
      "lat": 68.1448882,
      "lon": 18.6217824,
      "timestamp": "2019-10-15T10:57:59Z",
      "version": 7,
      "changeset": 75713743,
      "user": "mirelon",
      "uid": 1270972,
      "tags": {
        "description": "summit",
        "ele": "1991",
        "name": "Kåtotjåkka",
        "name:se": "Godučohkka",
        "name:sv": "Kåtotjåkka",
        "natural": "peak",
        "prominence": "1111",
        "wikidata": "Q19378657"
      }
    },
    {
      "type": "node",
      "id": 26863367,
      "lat": 68.1977004,
      "lon": 18.8264559,
      "timestamp": "2019-10-17T11:09:17Z",
      "version": 6,
      "changeset": 75830382,
      "user": "mirelon",
      "uid": 1270972,
      "tags": {
        "ele": "1803",
        "name": "Gielasčohkka",
        "name:se": "Gielasčohkka",
        "natural": "peak",
        "prominence": "1003",
        "wikidata": "Q11971958"
      }
    },
    {
      "type": "node",
      "id": 289406212,
      "lat": 68.2860112,
      "lon": 18.5913218,
      "timestamp": "2022-01-02T08:03:56Z",
      "version": 14,
      "changeset": 115659923,
      "user": "k_b",
      "uid": 7822,
      "tags": {
        "affiliation": "Svenska Turistföreningen",
        "capacity": "75",
        "description": "accept creditcard,cabin host, safety room when not opened, emergency phone",
        "dnt:classification": "selvbetjent",
        "dnt:discount": "yes",
        "dnt:iid": "1552",
        "ele": "490",
        "name": "Abiskojaure Fjällstuga",
        "opening_hours": "Feb 14-May 3,Jun 15-Sep 20",
        "operator": "Svenska Turistföreningen",
        "sauna": "yes",
        "service": "self",
        "shop": "convenience",
        "stf:classification": "självhushåll",
        "stf:discount": "yes",
        "tourism": "alpine_hut",
        "website": "https://www.svenskaturistforeningen.se/anlaggningar/stf-abiskojaure-fjallstuga/"
      }
    },
    {
      "type": "node",
      "id": 388483157,
      "lat": 68.3501695,
      "lon": 18.8300059,
      "timestamp": "2019-04-10T22:38:30Z",
      "version": 10,
      "changeset": 69099157,
      "user": "Essin",
      "uid": 438299,
      "tags": {
        "ele": "385",
        "name": "Abisko",
        "name:ru": "Абиско",
        "name:se": "Ábeskovvu",
        "name:sv": "Abisko",
        "place": "village",
        "population": "85",
        "ref:se:pts:postort": "ABISKO",
        "wikidata": "Q321471",
        "wikipedia": "en:Abisko"
      }
    },
    {
      "type": "node",
      "id": 510337249,
      "lat": 68.3727123,
      "lon": 18.6980983,
      "timestamp": "2019-05-02T12:05:02Z",
      "version": 2,
      "changeset": 69801202,
      "user": "pangoSE",
      "uid": 987207,
      "tags": {
        "ele": "1164",
        "name": "Nuolja",
        "natural": "peak",
        "wikidata": "Q1668760"
      }
    },
    {
      "type": "node",
      "id": 564239031,
      "lat": 68.3646917,
      "lon": 18.7845903,
      "timestamp": "2013-06-30T12:17:07Z",
      "version": 2,
      "changeset": 16763773,
      "user": "SverigeFan",
      "uid": 32112,
      "tags": {
        "amenity": "shelter"
      }
    },
    {
      "type": "node",
      "id": 884024075,
      "lat": 68.3503105,
      "lon": 18.8317992,
      "timestamp": "2021-08-20T20:37:02Z",
      "version": 8,
      "changeset": 110005632,
      "user": "_Mathieu_",
      "uid": 53964,
      "tags": {
        "addr:city": "Abisko",
        "addr:country": "SE",
        "addr:housenumber": "1",
        "addr:postcode": "98107",
        "addr:street": "Kalle Jons väg",
        "contact:facebook": "https://www.facebook.com/godisfabbrikenabisko/",
        "name": "Godisfabriken",
        "opening_hours": "Mo-Su 10:00-18:00",
        "phone": "+46 980 400 50",
        "shop": "supermarket",
        "website": "https://www.godisfabriken.se/supermarket",
        "wheelchair": "yes"
      }
    },
    {
      "type": "node",
      "id": 1356402131,
      "lat": 68.3345508,
      "lon": 18.5012853,
      "timestamp": "2019-05-27T16:08:23Z",
      "version": 4,
      "changeset": 70667071,
      "user": "settler_",
      "uid": 2485465,
      "tags": {
        "affiliation": "Den Norske Turistforening",
        "amenity": "shelter",
        "capacity": "10",
        "dnt:classification": "ubetjent",
        "dnt:discount": "yes",
        "dnt:iid": "1554",
        "name": "Kårsavagge Fjällstuga",
        "service": "no",
        "snowmobile": "yes",
        "source:date": "2011-05-07 12:59:26",
        "tourism": "cabin",
        "website": "http://ut.no/hytte/kaarsavagge-fj%C3%A4llstuga"
      }
    },
    {
      "type": "node",
      "id": 1356458489,
      "lat": 68.3985852,
      "lon": 18.4608589,
      "timestamp": "2019-08-13T08:24:57Z",
      "version": 3,
      "changeset": 73295869,
      "user": "fatuus",
      "uid": 2696386,
      "tags": {
        "affiliation": "Den Norske Turistforening",
        "amenity": "cafe",
        "dnt:classification": "betjent",
        "dnt:iid": "1583",
        "name": "Låktatjåkkastugan",
        "service": "full",
        "snowmobile": "yes",
        "source": "Den Norske Turistforening",
        "source:date": "2011-05-07 13:00:36",
        "tourism": "alpine_hut",
        "website": "http://ut.no/hytte/laaktjatjaakkastugan"
      }
    },
    {
      "type": "node",
      "id": 1884069954,
      "lat": 68.2859654,
      "lon": 18.5913154,
      "timestamp": "2021-08-21T18:02:45Z",
      "version": 4,
      "changeset": 110037611,
      "user": "Willian Paixao",
      "uid": 11376120,
      "tags": {
        "brand": "STF",
        "name": "Abiskojaurestugorna",
        "payment:cash": "yes",
        "payment:debit_cards": "yes",
        "shop": "convenience"
      }
    },
    {
      "type": "node",
      "id": 1884082965,
      "lat": 68.3584861,
      "lon": 18.7837453,
      "timestamp": "2021-07-30T13:43:48Z",
      "version": 8,
      "changeset": 108894610,
      "user": "Chris Kerr",
      "uid": 22485,
      "tags": {
        "description": "Offers items from the shop types convenience;sports;clothes;outdoor",
        "name": "Fjällboden",
        "opening_hours": "PH,Mo-Su 08:00-19:00",
        "operator": "Svenska Turistföreningen",
        "organic": "yes",
        "payment:cash": "no",
        "shop": "convenience",
        "wheelchair": "yes"
      }
    },
    {
      "type": "node",
      "id": 2399590109,
      "lat": 68.1943425,
      "lon": 18.5055816,
      "timestamp": "2016-08-27T20:01:02Z",
      "version": 4,
      "changeset": 41743377,
      "user": "unixasket",
      "uid": 661499,
      "tags": {
        "amenity": "shelter",
        "ele": "795",
        "ele:source": "GPS; barometric",
        "shelter_type": "basic_hut"
      }
    },
    {
      "type": "node",
      "id": 4085352857,
      "lat": 68.3274886,
      "lon": 18.7533421,
      "timestamp": "2020-07-30T00:17:25Z",
      "version": 4,
      "changeset": 88702275,
      "user": "thumbsup",
      "uid": 6508691,
      "tags": {
        "amenity": "shelter",
        "ele": "415",
        "name": "Nissonjokk",
        "shelter_type": "lean_to"
      }
    },
    {
      "type": "node",
      "id": 4310353116,
      "lat": 68.2241565,
      "lon": 18.4071315,
      "timestamp": "2018-05-16T10:49:48Z",
      "version": 2,
      "changeset": 59013152,
      "user": "nurdafur",
      "uid": 3172019,
      "tags": {
        "camp_type": "wildcamp",
        "tourism": "camp_site"
      }
    },
    {
      "type": "node",
      "id": 4310360696,
      "lat": 68.227446,
      "lon": 18.3474531,
      "timestamp": "2018-05-16T10:49:48Z",
      "version": 2,
      "changeset": 59013152,
      "user": "nurdafur",
      "uid": 3172019,
      "tags": {
        "camp_type": "wildcamp",
        "tourism": "camp_site"
      }
    },
    {
      "type": "node",
      "id": 4326853334,
      "lat": 68.3026208,
      "lon": 18.3471474,
      "timestamp": "2018-05-16T10:44:58Z",
      "version": 2,
      "changeset": 59013021,
      "user": "nurdafur",
      "uid": 3172019,
      "tags": {
        "camp_type": "wildcamp",
        "tourism": "camp_site"
      }
    },
    {
      "type": "node",
      "id": 4341560647,
      "lat": 68.194074,
      "lon": 18.5054259,
      "timestamp": "2018-05-16T10:53:34Z",
      "version": 2,
      "changeset": 59013254,
      "user": "nurdafur",
      "uid": 3172019,
      "tags": {
        "camp_type": "wildcamp",
        "tourism": "camp_site"
      }
    },
    {
      "type": "node",
      "id": 4341577625,
      "lat": 68.2629033,
      "lon": 18.5841454,
      "timestamp": "2018-05-16T10:51:12Z",
      "version": 2,
      "changeset": 59013195,
      "user": "nurdafur",
      "uid": 3172019,
      "tags": {
        "camp_type": "wildcamp",
        "tourism": "camp_site"
      }
    },
    {
      "type": "node",
      "id": 4341597597,
      "lat": 68.2865417,
      "lon": 18.5902732,
      "timestamp": "2018-06-18T15:39:52Z",
      "version": 2,
      "changeset": 59949454,
      "user": "Dalkvist",
      "uid": 12140,
      "tags": {
        "tourism": "camp_site"
      }
    },
    {
      "type": "node",
      "id": 4347709496,
      "lat": 68.139964,
      "lon": 18.8361543,
      "timestamp": "2018-05-16T12:23:27Z",
      "version": 2,
      "changeset": 59016060,
      "user": "nurdafur",
      "uid": 3172019,
      "tags": {
        "camp_type": "wildcamp",
        "tourism": "camp_site"
      }
    },
    {
      "type": "node",
      "id": 4347720292,
      "lat": 68.1582681,
      "lon": 18.858985,
      "timestamp": "2018-05-16T12:24:19Z",
      "version": 2,
      "changeset": 59016090,
      "user": "nurdafur",
      "uid": 3172019,
      "tags": {
        "camp_type": "wildcamp",
        "tourism": "camp_site"
      }
    },
    {
      "type": "node",
      "id": 4347753997,
      "lat": 68.168896,
      "lon": 18.8396667,
      "timestamp": "2018-05-16T12:26:19Z",
      "version": 2,
      "changeset": 59016176,
      "user": "nurdafur",
      "uid": 3172019,
      "tags": {
        "camp_type": "wildcamp",
        "tourism": "camp_site"
      }
    },
    {
      "type": "node",
      "id": 4347754791,
      "lat": 68.1656207,
      "lon": 18.8432133,
      "timestamp": "2018-05-16T12:26:19Z",
      "version": 2,
      "changeset": 59016176,
      "user": "nurdafur",
      "uid": 3172019,
      "tags": {
        "camp_type": "wildcamp",
        "tourism": "camp_site"
      }
    },
    {
      "type": "node",
      "id": 4394926500,
      "lat": 68.3271136,
      "lon": 18.7542302,
      "timestamp": "2016-09-10T16:11:53Z",
      "version": 1,
      "changeset": 42062034,
      "user": "Fjellrev",
      "uid": 674625,
      "tags": {
        "backcountry": "yes",
        "camp_site": "basic",
        "description": "One of the 3 places (Abisko Turiststation, Abiskojaurestugorna) in Abisko Nationalpark where you are allowed to pitch a tent",
        "name": "Nissonjokk tältplats",
        "tourism": "camp_site"
      }
    },
    {
      "type": "node",
      "id": 5031900436,
      "lat": 68.3724954,
      "lon": 18.5435804,
      "timestamp": "2017-10-29T21:07:10Z",
      "version": 2,
      "changeset": 53352571,
      "user": "sperlingskauz",
      "uid": 1858485,
      "tags": {
        "access": "yes",
        "bin": "no",
        "fee": "no",
        "name": "Kåppatjåkka",
        "tourism": "wilderness_hut"
      }
    },
    {
      "type": "node",
      "id": 5031942962,
      "lat": 68.3809695,
      "lon": 18.6626608,
      "timestamp": "2017-08-13T10:36:13Z",
      "version": 1,
      "changeset": 51077998,
      "user": "Peaceandcarrots",
      "uid": 3175307,
      "tags": {
        "amenity": "shelter",
        "bin": "no",
        "shelter_type": "basic_hut"
      }
    },
    {
      "type": "node",
      "id": 5818188874,
      "lat": 68.2800132,
      "lon": 18.5514343,
      "timestamp": "2018-08-08T14:27:10Z",
      "version": 1,
      "changeset": 61470837,
      "user": "Václav Fanta",
      "uid": 4846445,
      "tags": {
        "name": "good place for camping",
        "tourism": "camp_site"
      }
    },
    {
      "type": "node",
      "id": 5938138597,
      "lat": 68.1925949,
      "lon": 18.5427419,
      "timestamp": "2018-09-29T04:33:40Z",
      "version": 1,
      "changeset": 63027841,
      "user": "OK-Photography",
      "uid": 8649165,
      "tags": {
        "amenity": "shelter",
        "description": "small dug in shelter for motorsleds. will keep you from the wind.",
        "name": "Shelter"
      }
    },
    {
      "type": "node",
      "id": 5938140096,
      "lat": 68.2435957,
      "lon": 18.4795366,
      "timestamp": "2019-05-12T02:33:39Z",
      "version": 3,
      "changeset": 70150487,
      "user": "Federico Explorador",
      "uid": 293454,
      "tags": {
        "name": "Rovvidievvá",
        "name:se": "Rovvidievvá",
        "place": "hamlet"
      }
    },
    {
      "type": "node",
      "id": 5938141116,
      "lat": 68.1431474,
      "lon": 18.442401,
      "timestamp": "2019-05-11T22:14:06Z",
      "version": 3,
      "changeset": 70148318,
      "user": "Federico Explorador",
      "uid": 293454,
      "tags": {
        "description": "several huts.",
        "name": "Alisjávri",
        "name:se": "Alisjávri",
        "place": "hamlet"
      }
    },
    {
      "type": "node",
      "id": 5938141248,
      "lat": 68.177405,
      "lon": 18.7418937,
      "timestamp": "2018-09-29T04:39:46Z",
      "version": 1,
      "changeset": 63027884,
      "user": "OK-Photography",
      "uid": 8649165,
      "tags": {
        "description": "flat nice grass spot at the river.",
        "name": "Possible Camping",
        "tourism": "camp_site"
      }
    },
    {
      "type": "node",
      "id": 5938144015,
      "lat": 68.1716507,
      "lon": 18.8458462,
      "timestamp": "2018-09-29T04:42:22Z",
      "version": 1,
      "changeset": 63027920,
      "user": "OK-Photography",
      "uid": 8649165,
      "tags": {
        "amenity": "shelter",
        "description": "an old cabin with a view",
        "name": "Old cabin"
      }
    },
    {
      "type": "node",
      "id": 6484228087,
      "lat": 68.2978947,
      "lon": 18.7517551,
      "timestamp": "2019-05-19T17:07:29Z",
      "version": 1,
      "changeset": 70416083,
      "user": "berberber",
      "uid": 1707364,
      "tags": {
        "access": "yes",
        "internet_access": "no",
        "name": "Teltlägret",
        "tourism": "camp_site"
      }
    },
    {
      "type": "node",
      "id": 7125728380,
      "lat": 68.3984756,
      "lon": 18.4654427,
      "timestamp": "2020-01-15T17:06:55Z",
      "version": 2,
      "changeset": 79615419,
      "user": "pangoSE",
      "uid": 987207,
      "tags": {
        "amenity": "shelter",
        "fixme": "Position may be off ± 50 meters. What type of shelter is this?",
        "source": "Facebook group Vindskydd i Norden",
        "source:url": "https://www.google.com/maps/d/viewer?mid=1doLXXvokOtiMzthVz0SLFjEPmD4"
      }
    },
    {
      "type": "node",
      "id": 7125728381,
      "lat": 68.3804512,
      "lon": 18.6613083,
      "timestamp": "2020-01-15T17:06:55Z",
      "version": 2,
      "changeset": 79615419,
      "user": "pangoSE",
      "uid": 987207,
      "tags": {
        "amenity": "shelter",
        "fixme": "Position may be off ± 50 meters. What type of shelter is this?",
        "source": "Facebook group Vindskydd i Norden",
        "source:url": "https://www.google.com/maps/d/viewer?mid=1doLXXvokOtiMzthVz0SLFjEPmD4"
      }
    },
    {
      "type": "node",
      "id": 7125728799,
      "lat": 68.1839848,
      "lon": 18.6672306,
      "timestamp": "2020-01-15T17:06:55Z",
      "version": 2,
      "changeset": 79615419,
      "user": "pangoSE",
      "uid": 987207,
      "tags": {
        "amenity": "shelter",
        "fixme": "Position may be off ± 50 meters. What type of shelter is this?",
        "source": "Facebook group Vindskydd i Norden",
        "source:url": "https://www.google.com/maps/d/viewer?mid=1doLXXvokOtiMzthVz0SLFjEPmD4"
      }
    },
    {
      "type": "node",
      "id": 7125728810,
      "lat": 68.2967502,
      "lon": 18.7504381,
      "timestamp": "2020-01-15T17:06:55Z",
      "version": 2,
      "changeset": 79615419,
      "user": "pangoSE",
      "uid": 987207,
      "tags": {
        "amenity": "shelter",
        "fixme": "Position may be off ± 50 meters. What type of shelter is this?",
        "source": "Facebook group Vindskydd i Norden",
        "source:url": "https://www.google.com/maps/d/viewer?mid=1doLXXvokOtiMzthVz0SLFjEPmD4"
      }
    },
    {
      "type": "node",
      "id": 7125728821,
      "lat": 68.2848358,
      "lon": 18.5871506,
      "timestamp": "2020-01-15T17:06:55Z",
      "version": 2,
      "changeset": 79615419,
      "user": "pangoSE",
      "uid": 987207,
      "tags": {
        "amenity": "shelter",
        "fixme": "Position may be off ± 50 meters. What type of shelter is this?",
        "source": "Facebook group Vindskydd i Norden",
        "source:url": "https://www.google.com/maps/d/viewer?mid=1doLXXvokOtiMzthVz0SLFjEPmD4"
      }
    },
    {
      "type": "node",
      "id": 7125728831,
      "lat": 68.371852,
      "lon": 18.5444552,
      "timestamp": "2020-01-15T17:06:55Z",
      "version": 2,
      "changeset": 79615419,
      "user": "pangoSE",
      "uid": 987207,
      "tags": {
        "amenity": "shelter",
        "fixme": "Position may be off ± 50 meters. What type of shelter is this?",
        "source": "Facebook group Vindskydd i Norden",
        "source:url": "https://www.google.com/maps/d/viewer?mid=1doLXXvokOtiMzthVz0SLFjEPmD4"
      }
    },
    {
      "type": "way",
      "id": 150662394,
      "timestamp": "2012-02-16T18:39:05Z",
      "version": 1,
      "changeset": 10704411,
      "user": "staeublec",
      "uid": 101334,
      "center": {
        "lat": 68.3578789,
        "lon": 18.7778851
      },
      "nodes": [],
      "tags": {
        "amenity": "shelter",
        "shelter_type": "weather_shelter"
      }
    },
    {
      "type": "way",
      "id": 150741216,
      "timestamp": "2018-03-17T17:17:14Z",
      "version": 2,
      "changeset": 57271683,
      "user": "schoschi",
      "uid": 231006,
      "center": {
        "lat": 68.359581,
        "lon": 18.7779139
      },
      "nodes": [],
      "tags": {
        "affiliation": "Svenska Turistföreningen",
        "building": "yes",
        "capacity": "11-25",
        "name": "Abiskojåkka Fjällstuga",
        "name:en": "Noulja Ski Hut",
        "opening_hours": "closed; Feb 16-Apr 30 Mo-Su,PH 00:00-24:00; Jun 15-Sep 30 Mo-Su,PH 00:00-24:00",
        "operator": "Svenska Turistföreningen",
        "service": "self",
        "shop": "yes",
        "stf:classification": "självhushåll",
        "stf:discount": "yes",
        "tourism": "alpine_hut",
        "website": "https://www.svenskaturistforeningen.se/anlaggningar/abiskojakka-stf-fjallstuga/"
      }
    },
    {
      "type": "way",
      "id": 437014430,
      "timestamp": "2017-06-26T13:21:07Z",
      "version": 2,
      "changeset": 49836281,
      "user": "cobzcs",
      "uid": 166202,
      "center": {
        "lat": 68.357616,
        "lon": 18.7930953
      },
      "nodes": [],
      "tags": {
        "caravans": "no",
        "fee": "yes",
        "internet_access": "no",
        "name": "Abisko turiststation",
        "operator": "STF",
        "tents": "yes",
        "tourism": "camp_site",
        "wheelchair": "no"
      }
    },
    {
      "type": "way",
      "id": 840443465,
      "timestamp": "2020-08-25T07:48:43Z",
      "version": 1,
      "changeset": 89898160,
      "user": "Benedikt Lohmann",
      "uid": 5846758,
      "center": {
        "lat": 68.1828168,
        "lon": 18.4708542
      },
      "nodes": [],
      "tags": {
        "amenity": "shelter",
        "building": "yes"
      }
    }
  ]
}