{
  "osm3s": {
    "timestamp_osm_date": "2022-04-21T23:59:59Z",
    "timestamp_osm_base": "2022-04-22T07:11:40Z",
    "copyright": "The data included in this document is from www.openstreetmap.org. The data is made available under ODbL."
  },
  "elements": [
    {
      "type": "node",
      "id": 766944217,
      "lat": 27.5785122,
      "lon": 86.4980399,
      "timestamp": "2020-12-16T18:11:27Z",
      "version": 6,
      "changeset": 95957797,
      "user": "seichter",
      "uid": 66497,
      "tags": {
        "ele": "3530",
        "mountain_pass": "yes",
        "name": "Lamjura La",
        "natural": "saddle"
      }
    },
    {
      "type": "node",
      "id": 766944739,
      "lat": 27.5921794,
      "lon": 86.6172709,
      "timestamp": "2019-07-25T03:20:37Z",
      "version": 7,
      "changeset": 72624661,
      "user": "Vanny22",
      "uid": 10129370,
      "tags": {
        "ele": "3071",
        "mountain_pass": "yes",
        "name": "Taksindu La",
        "natural": "saddle"
      }
    },
    {
      "type": "node",
      "id": 1303891320,
      "lat": 27.5731133,
      "lon": 86.5832609,
      "timestamp": "2011-05-28T17:58:31Z",
      "version": 1,
      "changeset": 8274158,
      "user": "Lukas Carpelan",
      "uid": 362212,
      "tags": {
        "name": "Salung",
        "place": "village"
      }
    },
    {
      "type": "node",
      "id": 1889979864,
      "lat": 27.5863713,
      "lon": 86.7448874,
      "timestamp": "2020-12-13T23:23:17Z",
      "version": 4,
      "changeset": 95774195,
      "user": "seichter",
      "uid": 66497,
      "tags": {
        "name": "Panggom",
        "place": "village",
        "population": "100"
      }
    },
    {
      "type": "node",
      "id": 1890719594,
      "lat": 27.5692878,
      "lon": 86.7998419,
      "timestamp": "2012-08-30T22:58:57Z",
      "version": 1,
      "changeset": 12924615,
      "user": "Pumori",
      "uid": 821965,
      "tags": {
        "name": "Najingdingma",
        "place": "hamlet",
        "population": "10"
      }
    },
    {
      "type": "node",
      "id": 1890719596,
      "lat": 27.5832727,
      "lon": 86.7696732,
      "timestamp": "2016-12-28T14:06:44Z",
      "version": 4,
      "changeset": 44731769,
      "user": "Ketchup99",
      "uid": 1769257,
      "tags": {
        "name": "Namaste Lodge",
        "tourism": "alpine_hut"
      }
    },
    {
      "type": "node",
      "id": 1890719849,
      "lat": 27.5689557,
      "lon": 86.799819,
      "timestamp": "2012-09-23T16:20:48Z",
      "version": 2,
      "changeset": 13222324,
      "user": "Pumori",
      "uid": 821965,
      "tags": {
        "name": "Sherpa Lodge",
        "tourism": "alpine_hut"
      }
    },
    {
      "type": "node",
      "id": 1890719850,
      "lat": 27.5832954,
      "lon": 86.7736796,
      "timestamp": "2021-06-03T19:14:28Z",
      "version": 2,
      "changeset": 105796806,
      "user": "seichter",
      "uid": 66497,
      "tags": {
        "name": "Sibuje / Chatuk",
        "place": "hamlet",
        "population": "100"
      }
    },
    {
      "type": "node",
      "id": 1910207684,
      "lat": 27.5403097,
      "lon": 86.8151153,
      "timestamp": "2021-06-03T20:26:03Z",
      "version": 4,
      "changeset": 105799676,
      "user": "seichter",
      "uid": 66497,
      "tags": {
        "name": "Kiraule",
        "place": "hamlet",
        "population": "100"
      }
    },
    {
      "type": "node",
      "id": 1910207708,
      "lat": 27.569281,
      "lon": 86.7986722,
      "timestamp": "2012-09-23T16:20:48Z",
      "version": 2,
      "changeset": 13222324,
      "user": "Pumori",
      "uid": 821965,
      "tags": {
        "name": "Namaste Lodge",
        "tourism": "alpine_hut"
      }
    },
    {
      "type": "node",
      "id": 1910208517,
      "lat": 27.5811192,
      "lon": 86.7531636,
      "timestamp": "2015-01-14T20:05:32Z",
      "version": 4,
      "changeset": 28146581,
      "user": "geow",
      "uid": 223093,
      "tags": {
        "ele": "3174",
        "mountain_pass": "yes",
        "name": "Panggom La",
        "natural": "saddle"
      }
    },
    {
      "type": "node",
      "id": 1910208992,
      "lat": 27.5651448,
      "lon": 86.8101105,
      "timestamp": "2015-01-14T20:05:32Z",
      "version": 2,
      "changeset": 28146581,
      "user": "geow",
      "uid": 223093,
      "tags": {
        "ele": "3085",
        "mountain_pass": "yes",
        "name": "Surki La",
        "natural": "saddle"
      }
    },
    {
      "type": "node",
      "id": 1919108589,
      "lat": 27.501961,
      "lon": 86.850624,
      "timestamp": "2017-02-09T14:17:30Z",
      "version": 4,
      "changeset": 45947878,
      "user": "iWowik",
      "uid": 481934,
      "tags": {
        "name": "Gudel",
        "place": "village",
        "population": "400",
        "wikidata": "Q3429300",
        "wikipedia": "en:Gudel"
      }
    },
    {
      "type": "node",
      "id": 1920650337,
      "lat": 27.4407881,
      "lon": 86.9245827,
      "timestamp": "2015-01-14T20:05:32Z",
      "version": 4,
      "changeset": 28146581,
      "user": "geow",
      "uid": 223093,
      "tags": {
        "ele": "3349",
        "mountain_pass": "yes",
        "name": "Salpa Bhanjyang",
        "natural": "saddle"
      }
    },
    {
      "type": "node",
      "id": 1920650818,
      "lat": 27.4583288,
      "lon": 86.8956878,
      "timestamp": "2012-09-18T19:28:06Z",
      "version": 1,
      "changeset": 13161070,
      "user": "Pumori",
      "uid": 821965,
      "tags": {
        "name": "Sanam",
        "place": "village",
        "population": "40"
      }
    },
    {
      "type": "node",
      "id": 1920661199,
      "lat": 27.406828,
      "lon": 86.978989,
      "timestamp": "2017-02-09T14:17:30Z",
      "version": 3,
      "changeset": 45947878,
      "user": "iWowik",
      "uid": 481934,
      "tags": {
        "name": "Phedi",
        "place": "village",
        "population": "200",
        "wikidata": "Q3423610",
        "wikipedia": "en:Phedi"
      }
    },
    {
      "type": "node",
      "id": 1927037378,
      "lat": 27.3862344,
      "lon": 87.0263253,
      "timestamp": "2012-09-22T10:43:18Z",
      "version": 1,
      "changeset": 13205891,
      "user": "Pumori",
      "uid": 821965,
      "tags": {
        "name": "Doban",
        "place": "village",
        "population": "50"
      }
    },
    {
      "type": "node",
      "id": 1927037382,
      "lat": 27.4028043,
      "lon": 87.0649215,
      "timestamp": "2016-11-05T20:27:45Z",
      "version": 2,
      "changeset": 43429720,
      "user": "No-YouDontNeedAGuide",
      "uid": 4809804,
      "tags": {
        "name": "Gothe Bazar",
        "place": "village",
        "population": "50"
      }
    },
    {
      "type": "node",
      "id": 1927038019,
      "lat": 27.3997174,
      "lon": 87.007349,
      "timestamp": "2012-09-22T10:43:31Z",
      "version": 1,
      "changeset": 13205891,
      "user": "Pumori",
      "uid": 821965,
      "tags": {
        "name": "Sarmatar",
        "place": "village",
        "population": "80"
      }
    },
    {
      "type": "node",
      "id": 1927038021,
      "lat": 27.3980911,
      "lon": 86.9867732,
      "timestamp": "2012-09-22T10:43:31Z",
      "version": 1,
      "changeset": 13205891,
      "user": "Pumori",
      "uid": 821965,
      "tags": {
        "name": "Tendo",
        "place": "village",
        "population": "100"
      }
    },
    {
      "type": "node",
      "id": 1927152461,
      "lat": 27.407402,
      "lon": 87.1147428,
      "timestamp": "2012-09-22T12:07:34Z",
      "version": 1,
      "changeset": 13206673,
      "user": "Pumori",
      "uid": 821965,
      "tags": {
        "name": "Annapurna Lodge",
        "tourism": "alpine_hut"
      }
    },
    {
      "type": "node",
      "id": 1927152464,
      "lat": 27.3815655,
      "lon": 87.1595131,
      "timestamp": "2021-09-03T09:17:35Z",
      "version": 3,
      "changeset": 110664886,
      "user": "Sundar1",
      "uid": 9530130,
      "tags": {
        "name": "Chewabesi",
        "place": "hamlet"
      }
    },
    {
      "type": "node",
      "id": 1927152478,
      "lat": 27.392688,
      "lon": 87.1410877,
      "timestamp": "2021-09-03T09:17:35Z",
      "version": 3,
      "changeset": 110664886,
      "user": "Sundar1",
      "uid": 9530130,
      "tags": {
        "name": "Kattike Gath",
        "place": "hamlet",
        "population": "200"
      }
    },
    {
      "type": "node",
      "id": 1927152480,
      "lat": 27.4033968,
      "lon": 87.0653411,
      "timestamp": "2017-06-18T06:50:38Z",
      "version": 3,
      "changeset": 49627963,
      "user": "ptityeti",
      "uid": 57872,
      "tags": {
        "name": "Kirat Lodge",
        "tourism": "alpine_hut"
      }
    },
    {
      "type": "node",
      "id": 1927152481,
      "lat": 27.4093209,
      "lon": 87.1171782,
      "timestamp": "2021-09-03T09:17:35Z",
      "version": 2,
      "changeset": 110664886,
      "user": "Sundar1",
      "uid": 9530130,
      "tags": {
        "name": "Majhuwagadhi",
        "place": "hamlet",
        "population": "300"
      }
    },
    {
      "type": "node",
      "id": 1929099889,
      "lat": 27.4647111,
      "lon": 86.8847534,
      "timestamp": "2012-09-23T15:54:37Z",
      "version": 1,
      "changeset": 13221929,
      "user": "Pumori",
      "uid": 821965,
      "tags": {
        "name": "Arun Lodge",
        "tourism": "alpine_hut"
      }
    },
    {
      "type": "node",
      "id": 1929099890,
      "lat": 27.4325174,
      "lon": 86.936255,
      "timestamp": "2016-11-05T20:57:34Z",
      "version": 2,
      "changeset": 43430215,
      "user": "No-YouDontNeedAGuide",
      "uid": 4809804,
      "tags": {
        "name": "Gurase",
        "place": "hamlet",
        "population": "10"
      }
    },
    {
      "type": "node",
      "id": 1929099891,
      "lat": 27.4065367,
      "lon": 86.978551,
      "timestamp": "2012-09-23T15:54:38Z",
      "version": 1,
      "changeset": 13221929,
      "user": "Pumori",
      "uid": 821965,
      "tags": {
        "name": "Irkuwa Lodge",
        "tourism": "alpine_hut"
      }
    },
    {
      "type": "node",
      "id": 1929099892,
      "lat": 27.4087608,
      "lon": 86.9710999,
      "timestamp": "2012-09-23T15:54:38Z",
      "version": 1,
      "changeset": 13221929,
      "user": "Pumori",
      "uid": 821965,
      "tags": {
        "name": "Jaubari",
        "place": "village",
        "population": "100"
      }
    },
    {
      "type": "node",
      "id": 1929099893,
      "lat": 27.4293262,
      "lon": 86.9391045,
      "timestamp": "2016-11-05T20:57:34Z",
      "version": 2,
      "changeset": 43430215,
      "user": "No-YouDontNeedAGuide",
      "uid": 4809804,
      "tags": {
        "name": "Salpa Lodge",
        "tourism": "alpine_hut"
      }
    },
    {
      "type": "node",
      "id": 1929099894,
      "lat": 27.4582588,
      "lon": 86.8961577,
      "timestamp": "2012-09-23T15:54:38Z",
      "version": 1,
      "changeset": 13221929,
      "user": "Pumori",
      "uid": 821965,
      "tags": {
        "name": "Sanam Lodge",
        "tourism": "alpine_hut"
      }
    },
    {
      "type": "node",
      "id": 1929099911,
      "lat": 27.406508,
      "lon": 86.9787475,
      "timestamp": "2012-09-23T15:54:38Z",
      "version": 1,
      "changeset": 13221929,
      "user": "Pumori",
      "uid": 821965,
      "tags": {
        "name": "Sherpa Lodge",
        "tourism": "alpine_hut"
      }
    },
    {
      "type": "node",
      "id": 1929099915,
      "lat": 27.4085864,
      "lon": 86.9711133,
      "timestamp": "2012-09-23T15:54:38Z",
      "version": 1,
      "changeset": 13221929,
      "user": "Pumori",
      "uid": 821965,
      "tags": {
        "name": "Sherpa Lodge",
        "tourism": "alpine_hut"
      }
    },
    {
      "type": "node",
      "id": 1929099918,
      "lat": 27.4129316,
      "lon": 86.9650574,
      "timestamp": "2012-09-23T15:54:38Z",
      "version": 1,
      "changeset": 13221929,
      "user": "Pumori",
      "uid": 821965,
      "tags": {
        "name": "Sherpa Lodge",
        "tourism": "alpine_hut"
      }
    },
    {
      "type": "node",
      "id": 1929142828,
      "lat": 27.5115424,
      "lon": 86.8385282,
      "timestamp": "2012-09-23T16:20:47Z",
      "version": 1,
      "changeset": 13222324,
      "user": "Pumori",
      "uid": 821965,
      "tags": {
        "name": "Bung",
        "place": "village",
        "population": "500"
      }
    },
    {
      "type": "node",
      "id": 1929142834,
      "lat": 27.5131587,
      "lon": 86.8313536,
      "timestamp": "2021-06-24T20:27:02Z",
      "version": 2,
      "changeset": 106921411,
      "user": "piaco_dk",
      "uid": 3442203,
      "tags": {
        "name": "Pumori Lodge",
        "tourism": "alpine_hut"
      }
    },
    {
      "type": "node",
      "id": 1929142836,
      "lat": 27.5110737,
      "lon": 86.8387285,
      "timestamp": "2021-06-24T20:27:02Z",
      "version": 2,
      "changeset": 106921411,
      "user": "piaco_dk",
      "uid": 3442203,
      "tags": {
        "name": "Sagarmatha Lodge",
        "tourism": "alpine_hut"
      }
    },
    {
      "type": "node",
      "id": 1929142855,
      "lat": 27.4935979,
      "lon": 86.8475131,
      "timestamp": "2015-06-01T20:06:58Z",
      "version": 2,
      "changeset": 31646874,
      "user": "vichada",
      "uid": 2246826,
      "tags": {
        "name": "Tatsalung",
        "place": "village",
        "population": "300"
      }
    },
    {
      "type": "node",
      "id": 1930991950,
      "lat": 27.597586,
      "lon": 86.68618,
      "timestamp": "2019-11-05T08:44:38Z",
      "version": 5,
      "changeset": 76632535,
      "user": "bcd4e6",
      "uid": 8407331,
      "tags": {
        "alt_name": "Jubhing",
        "ele": "1680",
        "name": "Jubing",
        "place": "village",
        "population": "2300",
        "wikidata": "Q3417025",
        "wikipedia": "en:Jubing"
      }
    },
    {
      "type": "node",
      "id": 1930991951,
      "lat": 27.6034532,
      "lon": 86.7045226,
      "timestamp": "2014-11-23T19:23:17Z",
      "version": 3,
      "changeset": 26980797,
      "user": "palimpadum",
      "uid": 155936,
      "tags": {
        "ele": "2035",
        "name": "Kharikola",
        "place": "village",
        "population": "500"
      }
    },
    {
      "type": "node",
      "id": 1930991962,
      "lat": 27.5945826,
      "lon": 86.6203122,
      "timestamp": "2014-11-16T18:48:55Z",
      "version": 2,
      "changeset": 26828684,
      "user": "palimpadum",
      "uid": 155936,
      "tags": {
        "name": "Lodges",
        "tourism": "alpine_hut"
      }
    },
    {
      "type": "node",
      "id": 1930991964,
      "lat": 27.5882157,
      "lon": 86.6461915,
      "timestamp": "2019-11-05T04:28:03Z",
      "version": 3,
      "changeset": 76622380,
      "user": "bcd4e6",
      "uid": 8407331,
      "tags": {
        "ele": "2220",
        "name": "Nunthala",
        "place": "village",
        "population": "200",
        "wikidata": "Q3429279",
        "wikipedia": "en:Nunthala"
      }
    },
    {
      "type": "node",
      "id": 1930991965,
      "lat": 27.5900676,
      "lon": 86.6079543,
      "timestamp": "2019-11-05T04:28:03Z",
      "version": 5,
      "changeset": 76622380,
      "user": "bcd4e6",
      "uid": 8407331,
      "tags": {
        "ele": "2785",
        "name": "Ringmu",
        "place": "village",
        "population": "200"
      }
    },
    {
      "type": "node",
      "id": 1930991971,
      "lat": 27.5932388,
      "lon": 86.6219847,
      "timestamp": "2019-11-05T04:28:03Z",
      "version": 4,
      "changeset": 76622380,
      "user": "bcd4e6",
      "uid": 8407331,
      "tags": {
        "ele": "2925",
        "name": "Taksindu",
        "place": "hamlet",
        "population": "100"
      }
    },
    {
      "type": "node",
      "id": 1931048203,
      "lat": 27.5821955,
      "lon": 86.5468645,
      "timestamp": "2015-04-26T15:37:31Z",
      "version": 2,
      "changeset": 30507005,
      "user": "slint",
      "uid": 81113,
      "tags": {
        "name": "Junbesi",
        "place": "village",
        "population": "500"
      }
    },
    {
      "type": "node",
      "id": 1931048271,
      "lat": 27.5636789,
      "lon": 86.5766587,
      "timestamp": "2014-11-15T18:16:38Z",
      "version": 4,
      "changeset": 26804665,
      "user": "palimpadum",
      "uid": 155936,
      "tags": {
        "name": "Phurtheng",
        "name:tt": "50 ел",
        "place": "hamlet"
      }
    },
    {
      "type": "node",
      "id": 1931048275,
      "lat": 27.5725252,
      "lon": 86.5288258,
      "timestamp": "2012-09-24T19:33:42Z",
      "version": 1,
      "changeset": 13238076,
      "user": "Pumori",
      "uid": 821965,
      "tags": {
        "name": "Tragdobuk",
        "place": "village",
        "population": "50"
      }
    },
    {
      "type": "node",
      "id": 2252555888,
      "lat": 27.614002,
      "lon": 86.7145647,
      "timestamp": "2018-12-13T20:38:20Z",
      "version": 2,
      "changeset": 65454034,
      "user": "<0174",
      "uid": 172147,
      "tags": {
        "alt_name": "Buksa",
        "ele": "2350",
        "name": "Bupsa",
        "place": "village"
      }
    },
    {
      "type": "node",
      "id": 2252555899,
      "lat": 27.65618,
      "lon": 86.71296,
      "timestamp": "2015-01-14T20:05:30Z",
      "version": 2,
      "changeset": 28146581,
      "user": "geow",
      "uid": 223093,
      "tags": {
        "ele": "2775",
        "mountain_pass": "yes",
        "name": "Chutok La",
        "natural": "saddle"
      }
    },
    {
      "type": "node",
      "id": 2252555944,
      "lat": 27.6330876,
      "lon": 86.7112468,
      "timestamp": "2015-05-31T19:34:10Z",
      "version": 3,
      "changeset": 31617305,
      "user": "ninjamask",
      "uid": 527721,
      "tags": {
        "ele": "2820",
        "mountain_pass": "yes",
        "name": "Kari La",
        "natural": "saddle"
      }
    },
    {
      "type": "node",
      "id": 2252555946,
      "lat": 27.62418,
      "lon": 86.71809,
      "timestamp": "2021-06-03T19:14:28Z",
      "version": 4,
      "changeset": 105796806,
      "user": "seichter",
      "uid": 66497,
      "tags": {
        "ele": "2565",
        "name": "Kharte",
        "name:en": "Kare",
        "name:tr": "Kare",
        "place": "hamlet"
      }
    },
    {
      "type": "node",
      "id": 2252556004,
      "lat": 27.64145,
      "lon": 86.73107,
      "timestamp": "2013-04-07T12:51:05Z",
      "version": 2,
      "changeset": 15639911,
      "user": "andreas-42",
      "uid": 471322,
      "tags": {
        "name": "Puiya",
        "place": "village"
      }
    },
    {
      "type": "node",
      "id": 2252556071,
      "lat": 27.6718789,
      "lon": 86.7195005,
      "timestamp": "2022-04-18T15:21:56Z",
      "version": 2,
      "changeset": 119864788,
      "user": "baum10",
      "uid": 5507919,
      "tags": {
        "ele": "2300",
        "name": "Surke",
        "place": "village"
      }
    },
    {
      "type": "node",
      "id": 2865686329,
      "lat": 27.2042141,
      "lon": 86.7948548,
      "timestamp": "2021-04-16T09:49:55Z",
      "version": 2,
      "changeset": 103048929,
      "user": "Sundar1",
      "uid": 9530130,
      "tags": {
        "amenity": "place_of_worship",
        "name": "Budeshwar Mahadev cave",
        "natural": "cave_entrance",
        "opening_hours": "24/7",
        "religion": "hindu"
      }
    },
    {
      "type": "node",
      "id": 2866568480,
      "lat": 27.1757335,
      "lon": 87.0405038,
      "timestamp": "2019-08-02T10:17:24Z",
      "version": 3,
      "changeset": 72932241,
      "user": "Sundar1",
      "uid": 9530130,
      "tags": {
        "exit_to": "Khatang",
        "name": "Deurali",
        "place": "hamlet"
      }
    },
    {
      "type": "node",
      "id": 3147289353,
      "lat": 27.5828514,
      "lon": 86.6025962,
      "timestamp": "2014-10-24T12:41:22Z",
      "version": 1,
      "changeset": 26298769,
      "user": "codavr",
      "uid": 403962,
      "tags": {
        "name": "Daltsangma",
        "place": "village"
      }
    },
    {
      "type": "node",
      "id": 3147289354,
      "lat": 27.5956828,
      "lon": 86.5452688,
      "timestamp": "2014-10-24T12:49:21Z",
      "version": 2,
      "changeset": 26298922,
      "user": "codavr",
      "uid": 403962,
      "tags": {
        "name": "Dzumshimta",
        "place": "village"
      }
    },
    {
      "type": "node",
      "id": 3147289355,
      "lat": 27.5922611,
      "lon": 86.5973248,
      "timestamp": "2014-10-24T12:41:22Z",
      "version": 1,
      "changeset": 26298769,
      "user": "codavr",
      "uid": 403962,
      "tags": {
        "name": "Gonbo",
        "place": "village"
      }
    },
    {
      "type": "node",
      "id": 3147289356,
      "lat": 27.5981059,
      "lon": 86.5493475,
      "timestamp": "2014-10-24T12:41:22Z",
      "version": 1,
      "changeset": 26298769,
      "user": "codavr",
      "uid": 403962,
      "tags": {
        "name": "Moping",
        "place": "village"
      }
    },
    {
      "type": "node",
      "id": 3147289357,
      "lat": 27.6038067,
      "lon": 86.5414494,
      "timestamp": "2020-12-16T18:11:27Z",
      "version": 2,
      "changeset": 95957797,
      "user": "seichter",
      "uid": 66497,
      "tags": {
        "name": "Panykarma",
        "place": "village"
      }
    },
    {
      "type": "node",
      "id": 3147289358,
      "lat": 27.6071523,
      "lon": 86.5501855,
      "timestamp": "2016-08-10T05:21:24Z",
      "version": 2,
      "changeset": 41359435,
      "user": "Parassrest",
      "uid": 3569249,
      "tags": {
        "name": "Thubten Choling",
        "name:ne": "थुबतेन छोलिङ्ग",
        "place": "village"
      }
    },
    {
      "type": "node",
      "id": 3147289359,
      "lat": 27.5923512,
      "lon": 86.5866086,
      "timestamp": "2014-10-24T12:41:22Z",
      "version": 1,
      "changeset": 26298769,
      "user": "codavr",
      "uid": 403962,
      "tags": {
        "name": "Tongnasa",
        "place": "village"
      }
    },
    {
      "type": "node",
      "id": 3158870707,
      "lat": 27.2162823,
      "lon": 86.5497402,
      "timestamp": "2017-08-24T14:14:26Z",
      "version": 4,
      "changeset": 51408415,
      "user": "GuyPa",
      "uid": 6526727,
      "tags": {
        "name": "Ghopatar Ward no 2",
        "place": "village"
      }
    },
    {
      "type": "node",
      "id": 3174073677,
      "lat": 27.2035718,
      "lon": 86.5597072,
      "timestamp": "2018-01-02T10:59:27Z",
      "version": 2,
      "changeset": 55097073,
      "user": "Tej Shrestha",
      "uid": 3175868,
      "tags": {
        "addr:city": "Halesi Tuwachung Municipality",
        "amenity": "drinking_water",
        "drinking_water": "yes",
        "man_made": "water_tap",
        "operator:type": "public"
      }
    },
    {
      "type": "node",
      "id": 3174073686,
      "lat": 27.2038429,
      "lon": 86.5643994,
      "timestamp": "2014-11-08T03:40:15Z",
      "version": 1,
      "changeset": 26634051,
      "user": "nrcs khotang",
      "uid": 2435868,
      "tags": {
        "amenity": "drinking_water",
        "water_source": "tap"
      }
    },
    {
      "type": "node",
      "id": 3174073695,
      "lat": 27.2044558,
      "lon": 86.5596636,
      "timestamp": "2014-11-08T03:40:15Z",
      "version": 1,
      "changeset": 26634051,
      "user": "nrcs khotang",
      "uid": 2435868,
      "tags": {
        "amenity": "drinking_water",
        "water_source": "tap"
      }
    },
    {
      "type": "node",
      "id": 3174073713,
      "lat": 27.2056353,
      "lon": 86.5645024,
      "timestamp": "2014-11-08T03:40:15Z",
      "version": 1,
      "changeset": 26634051,
      "user": "nrcs khotang",
      "uid": 2435868,
      "tags": {
        "amenity": "drinking_water",
        "water": "yes"
      }
    },
    {
      "type": "node",
      "id": 3174073714,
      "lat": 27.2057075,
      "lon": 86.5613997,
      "timestamp": "2014-11-08T03:40:16Z",
      "version": 1,
      "changeset": 26634051,
      "user": "nrcs khotang",
      "uid": 2435868,
      "tags": {
        "amenity": "drinking_water",
        "water_source": "tap"
      }
    },
    {
      "type": "node",
      "id": 3174073751,
      "lat": 27.2065371,
      "lon": 86.5609662,
      "timestamp": "2014-11-08T03:40:16Z",
      "version": 1,
      "changeset": 26634051,
      "user": "nrcs khotang",
      "uid": 2435868,
      "tags": {
        "amenity": "drinking_water",
        "water_source": "tap"
      }
    },
    {
      "type": "node",
      "id": 3174073811,
      "lat": 27.2084821,
      "lon": 86.5591931,
      "timestamp": "2014-11-08T03:40:17Z",
      "version": 1,
      "changeset": 26634051,
      "user": "nrcs khotang",
      "uid": 2435868,
      "tags": {
        "amenity": "drinking_water",
        "water_source": "tap"
      }
    },
    {
      "type": "node",
      "id": 3174073836,
      "lat": 27.2093903,
      "lon": 86.5579036,
      "timestamp": "2014-11-08T03:40:18Z",
      "version": 1,
      "changeset": 26634051,
      "user": "nrcs khotang",
      "uid": 2435868,
      "tags": {
        "amenity": "drinking_water",
        "water_source": "tap"
      }
    },
    {
      "type": "node",
      "id": 3174073865,
      "lat": 27.2120721,
      "lon": 86.5566892,
      "timestamp": "2014-11-08T03:40:18Z",
      "version": 1,
      "changeset": 26634051,
      "user": "nrcs khotang",
      "uid": 2435868,
      "tags": {
        "amenity": "drinking_water",
        "water_source": "tap"
      }
    },
    {
      "type": "node",
      "id": 3174111261,
      "lat": 27.2060229,
      "lon": 86.5611427,
      "timestamp": "2021-07-01T21:41:44Z",
      "version": 4,
      "changeset": 107280620,
      "user": "seichter",
      "uid": 66497,
      "tags": {
        "name": "khokseli ward no 1",
        "place": "village"
      }
    },
    {
      "type": "node",
      "id": 3174301506,
      "lat": 27.2042977,
      "lon": 86.5521506,
      "timestamp": "2021-07-07T19:34:43Z",
      "version": 7,
      "changeset": 107586610,
      "user": "seichter",
      "uid": 66497,
      "tags": {
        "name": "Badhare ward no 4",
        "place": "hamlet"
      }
    },
    {
      "type": "node",
      "id": 3174305261,
      "lat": 27.2022421,
      "lon": 86.5463399,
      "timestamp": "2014-11-08T07:29:42Z",
      "version": 1,
      "changeset": 26635876,
      "user": "nrcs khotang",
      "uid": 2435868,
      "tags": {
        "amenity": "drinking_water"
      }
    },
    {
      "type": "node",
      "id": 3188795442,
      "lat": 27.514402,
      "lon": 86.584885,
      "timestamp": "2021-06-06T10:53:50Z",
      "version": 5,
      "changeset": 105912056,
      "user": "seichter",
      "uid": 66497,
      "tags": {
        "alt_name": "Phaphlu",
        "ele": "2413",
        "name": "Phaplu",
        "place": "village",
        "wikidata": "Q7180665",
        "wikipedia": "en:Phaphlu"
      }
    },
    {
      "type": "node",
      "id": 3188799346,
      "lat": 27.5026073,
      "lon": 86.585868,
      "timestamp": "2019-11-05T04:28:03Z",
      "version": 5,
      "changeset": 76622380,
      "user": "bcd4e6",
      "uid": 8407331,
      "tags": {
        "ele": "2362",
        "name": "Salleri",
        "name:ja": "サッレリ",
        "place": "town"
      }
    },
    {
      "type": "node",
      "id": 3190449366,
      "lat": 27.5929681,
      "lon": 86.621959,
      "timestamp": "2014-11-16T18:48:27Z",
      "version": 1,
      "changeset": 26828684,
      "user": "palimpadum",
      "uid": 155936,
      "tags": {
        "tourism": "camp_site"
      }
    },
    {
      "type": "node",
      "id": 3190449989,
      "lat": 27.6034258,
      "lon": 86.7006658,
      "timestamp": "2014-11-16T18:48:37Z",
      "version": 1,
      "changeset": 26828684,
      "user": "palimpadum",
      "uid": 155936,
      "tags": {
        "tourism": "camp_site"
      }
    },
    {
      "type": "node",
      "id": 3201178843,
      "lat": 27.5872053,
      "lon": 86.6650484,
      "timestamp": "2014-11-23T08:58:29Z",
      "version": 1,
      "changeset": 26967840,
      "user": "palimpadum",
      "uid": 155936,
      "tags": {
        "name": "Chhigaun",
        "place": "hamlet"
      }
    },
    {
      "type": "node",
      "id": 3202078947,
      "lat": 27.5871479,
      "lon": 86.7455182,
      "timestamp": "2014-11-23T19:22:59Z",
      "version": 1,
      "changeset": 26980797,
      "user": "palimpadum",
      "uid": 155936,
      "tags": {
        "tourism": "camp_site"
      }
    },
    {
      "type": "node",
      "id": 3207901879,
      "lat": 27.302221,
      "lon": 86.54834,
      "timestamp": "2017-02-09T14:17:50Z",
      "version": 5,
      "changeset": 45947878,
      "user": "iWowik",
      "uid": 481934,
      "tags": {
        "name": "Rumjatar",
        "name:ne": "रुमजाटार",
        "place": "village",
        "wikidata": "Q3415355",
        "wikipedia": "en:Rumjatar"
      }
    },
    {
      "type": "node",
      "id": 3208572169,
      "lat": 27.677334,
      "lon": 86.5907522,
      "timestamp": "2020-12-16T00:21:03Z",
      "version": 4,
      "changeset": 95905562,
      "user": "seichter",
      "uid": 66497,
      "tags": {
        "name": "Saharsbeni",
        "place": "hamlet"
      }
    },
    {
      "type": "node",
      "id": 3222956215,
      "lat": 27.1683756,
      "lon": 86.497488,
      "timestamp": "2020-11-11T15:45:01Z",
      "version": 2,
      "changeset": 93937848,
      "user": "seichter",
      "uid": 66497,
      "tags": {
        "amenity": "drinking_water",
        "water_source": "tap"
      }
    },
    {
      "type": "node",
      "id": 3222956244,
      "lat": 27.1690426,
      "lon": 86.4965503,
      "timestamp": "2020-11-11T15:45:01Z",
      "version": 2,
      "changeset": 93937848,
      "user": "seichter",
      "uid": 66497,
      "tags": {
        "amenity": "drinking_water",
        "water_source": "tap"
      }
    },
    {
      "type": "node",
      "id": 3222956481,
      "lat": 27.1694665,
      "lon": 86.4954283,
      "timestamp": "2020-11-11T12:39:50Z",
      "version": 2,
      "changeset": 93928548,
      "user": "seichter",
      "uid": 66497,
      "tags": {
        "amenity": "drinking_water",
        "water_source": "tap"
      }
    },
    {
      "type": "node",
      "id": 3237652707,
      "lat": 27.1669463,
      "lon": 86.4858599,
      "timestamp": "2021-07-06T22:11:20Z",
      "version": 4,
      "changeset": 107523277,
      "user": "seichter",
      "uid": 66497,
      "tags": {
        "name": "Bahunidanda 5 Malibas",
        "place": "hamlet"
      }
    },
    {
      "type": "node",
      "id": 3238945095,
      "lat": 27.1661385,
      "lon": 86.4864958,
      "timestamp": "2015-02-22T15:17:26Z",
      "version": 2,
      "changeset": 29023502,
      "user": "Manu1400",
      "uid": 181135,
      "tags": {
        "amenity": "drinking_water",
        "water_source": "tap"
      }
    },
    {
      "type": "node",
      "id": 3238945096,
      "lat": 27.1663137,
      "lon": 86.4849686,
      "timestamp": "2015-02-22T15:17:26Z",
      "version": 2,
      "changeset": 29023502,
      "user": "Manu1400",
      "uid": 181135,
      "tags": {
        "amenity": "drinking_water",
        "water_source": "tap"
      }
    },
    {
      "type": "node",
      "id": 3238945098,
      "lat": 27.167665,
      "lon": 86.4851259,
      "timestamp": "2015-02-22T15:17:26Z",
      "version": 2,
      "changeset": 29023502,
      "user": "Manu1400",
      "uid": 181135,
      "tags": {
        "amenity": "drinking_water",
        "water_source": "tap"
      }
    },
    {
      "type": "node",
      "id": 3316182267,
      "lat": 27.1755575,
      "lon": 86.4949124,
      "timestamp": "2020-11-13T22:10:48Z",
      "version": 6,
      "changeset": 94088194,
      "user": "seichter",
      "uid": 66497,
      "tags": {
        "name": "Kaduwa",
        "place": "hamlet"
      }
    },
    {
      "type": "node",
      "id": 3381834048,
      "lat": 27.213278,
      "lon": 86.793175,
      "timestamp": "2017-02-09T14:17:51Z",
      "version": 4,
      "changeset": 45947878,
      "user": "iWowik",
      "uid": 481934,
      "tags": {
        "name": "Diktel",
        "name:ja": "ディクテル",
        "place": "village",
        "wikidata": "Q1988964",
        "wikipedia": "en:Diktel"
      }
    },
    {
      "type": "node",
      "id": 3388922070,
      "lat": 27.317984,
      "lon": 86.501404,
      "timestamp": "2021-01-20T12:18:08Z",
      "version": 7,
      "changeset": 97836923,
      "user": "Poliakoff Mykhailo",
      "uid": 6110846,
      "tags": {
        "name": "Okhaldhunga",
        "name:ja": "オカルドゥンガ",
        "name:ne": "ओखलढुङ्गा",
        "name:uk": "Окгалдгунґа",
        "place": "town",
        "source:name:uk": "https://1drv.ms/b/s!Ar-WXIFaX7UdgQs-x7Qj83y_IvGR",
        "wikidata": "Q952901",
        "wikipedia": "en:Okhaldhunga"
      }
    },
    {
      "type": "node",
      "id": 3502673882,
      "lat": 27.166632,
      "lon": 87.0510921,
      "timestamp": "2017-03-15T07:35:28Z",
      "version": 3,
      "changeset": 46860995,
      "user": "marek kleciak",
      "uid": 338611,
      "tags": {
        "name": "Bhojpur",
        "name:ja": "ボージプル",
        "place": "village"
      }
    },
    {
      "type": "node",
      "id": 3518025494,
      "lat": 27.3280945,
      "lon": 86.5459669,
      "timestamp": "2015-05-14T20:36:37Z",
      "version": 1,
      "changeset": 31153585,
      "user": "Natuser",
      "uid": 1319999,
      "tags": {
        "name": "Deorali",
        "place": "village"
      }
    },
    {
      "type": "node",
      "id": 3524599639,
      "lat": 27.3831991,
      "lon": 86.6308459,
      "timestamp": "2015-05-18T00:33:07Z",
      "version": 1,
      "changeset": 31242526,
      "user": "Natuser",
      "uid": 1319999,
      "tags": {
        "name": "Sallyan",
        "place": "hamlet",
        "source": "mapwarper.net"
      }
    },
    {
      "type": "node",
      "id": 3908325399,
      "lat": 27.4986808,
      "lon": 86.7070947,
      "timestamp": "2015-12-24T15:37:36Z",
      "version": 1,
      "changeset": 36146923,
      "user": "pcgis",
      "uid": 131100,
      "tags": {
        "name": "Waku",
        "place": "village"
      }
    },
    {
      "type": "node",
      "id": 4577200737,
      "lat": 27.6000588,
      "lon": 86.7685881,
      "timestamp": "2016-12-28T11:32:04Z",
      "version": 1,
      "changeset": 44728205,
      "user": "Ketchup99",
      "uid": 1769257,
      "tags": {
        "ele": "2850",
        "name": "Ning Saw",
        "tourism": "camp_site"
      }
    },
    {
      "type": "node",
      "id": 4577443220,
      "lat": 27.6518027,
      "lon": 86.7629554,
      "timestamp": "2016-12-28T14:06:38Z",
      "version": 1,
      "changeset": 44731769,
      "user": "Ketchup99",
      "uid": 1769257,
      "tags": {
        "ele": "4620",
        "mountain_pass": "yes",
        "name": "Zatrwa La",
        "natural": "saddle"
      }
    },
    {
      "type": "node",
      "id": 4577539453,
      "lat": 27.6637839,
      "lon": 86.8141954,
      "timestamp": "2016-12-28T16:57:47Z",
      "version": 2,
      "changeset": 44735879,
      "user": "Ketchup99",
      "uid": 1769257,
      "tags": {
        "ele": "3580",
        "name": "Kothe",
        "place": "village"
      }
    },
    {
      "type": "node",
      "id": 4577620204,
      "lat": 27.6263968,
      "lon": 86.797163,
      "timestamp": "2020-12-13T21:25:33Z",
      "version": 2,
      "changeset": 95771518,
      "user": "seichter",
      "uid": 66497,
      "tags": {
        "ele": "3150",
        "name": "Chatra Khola",
        "tourism": "camp_site"
      }
    },
    {
      "type": "node",
      "id": 4578179393,
      "lat": 27.632832,
      "lon": 86.7188571,
      "timestamp": "2022-04-18T15:21:56Z",
      "version": 3,
      "changeset": 119864788,
      "user": "baum10",
      "uid": 5507919,
      "tags": {
        "ele": "3080",
        "mountain_pass": "yes",
        "name": "Khari La",
        "natural": "saddle"
      }
    },
    {
      "type": "node",
      "id": 4583315525,
      "lat": 27.3430689,
      "lon": 86.4965323,
      "timestamp": "2016-12-31T21:49:45Z",
      "version": 1,
      "changeset": 44814463,
      "user": "larsalonian",
      "uid": 422573,
      "tags": {
        "name": "Dandagau",
        "place": "village"
      }
    },
    {
      "type": "node",
      "id": 4818356223,
      "lat": 27.2199671,
      "lon": 86.9721963,
      "timestamp": "2017-04-26T15:38:07Z",
      "version": 1,
      "changeset": 48166998,
      "user": "Max Dmitriev",
      "uid": 5611666,
      "tags": {
        "amenity": "shelter"
      }
    },
    {
      "type": "node",
      "id": 4818356423,
      "lat": 27.3051073,
      "lon": 86.9795841,
      "timestamp": "2017-04-26T15:38:03Z",
      "version": 1,
      "changeset": 48166998,
      "user": "Max Dmitriev",
      "uid": 5611666,
      "tags": {
        "name:en": "Mayung hill",
        "tourism": "camp_site"
      }
    },
    {
      "type": "node",
      "id": 4827120314,
      "lat": 27.3567136,
      "lon": 87.1359459,
      "timestamp": "2021-07-11T19:16:13Z",
      "version": 3,
      "changeset": 107795042,
      "user": "Władysław Komorek",
      "uid": 693154,
      "tags": {
        "name": "Dingla",
        "name:ne": "दिङ्गला",
        "place": "village",
        "wikidata": "Q15214064",
        "wikipedia": "en:Dingla"
      }
    },
    {
      "type": "node",
      "id": 4832051679,
      "lat": 27.1976372,
      "lon": 86.8066806,
      "timestamp": "2019-05-07T11:55:06Z",
      "version": 2,
      "changeset": 69972783,
      "user": "Sundar1",
      "uid": 9530130,
      "tags": {
        "name": "Megechautra",
        "name:en": "Megechautra",
        "place": "hamlet"
      }
    },
    {
      "type": "node",
      "id": 4987931954,
      "lat": 27.3057445,
      "lon": 86.5214979,
      "timestamp": "2017-07-23T10:23:47Z",
      "version": 1,
      "changeset": 50498197,
      "user": "Bishal9841",
      "uid": 3573216,
      "tags": {
        "name": "Narayansthan",
        "name:ne": "नारायनस्थान",
        "place": "village"
      }
    },
    {
      "type": "node",
      "id": 4987950971,
      "lat": 27.2398893,
      "lon": 86.5173173,
      "timestamp": "2017-07-23T10:35:19Z",
      "version": 1,
      "changeset": 50498397,
      "user": "Bishal9841",
      "uid": 3573216,
      "tags": {
        "name": "Waksa",
        "name:ne": "वाक्सा",
        "place": "village"
      }
    },
    {
      "type": "node",
      "id": 4994233301,
      "lat": 27.33065,
      "lon": 86.6036651,
      "timestamp": "2021-06-12T11:17:34Z",
      "version": 2,
      "changeset": 106249572,
      "user": "seichter",
      "uid": 66497,
      "tags": {
        "name": "Ratmate",
        "name:ne": "रातमाटे",
        "place": "hamlet"
      }
    },
    {
      "type": "node",
      "id": 4994577095,
      "lat": 27.2553275,
      "lon": 86.5729795,
      "timestamp": "2017-07-26T11:04:14Z",
      "version": 1,
      "changeset": 50585003,
      "user": "Bishal9841",
      "uid": 3573216,
      "tags": {
        "name": "Thulachhap",
        "name:ne": "ठुलाछाप",
        "place": "village"
      }
    },
    {
      "type": "node",
      "id": 4995982059,
      "lat": 27.1946117,
      "lon": 86.5157525,
      "timestamp": "2021-07-01T18:32:15Z",
      "version": 2,
      "changeset": 107274838,
      "user": "seichter",
      "uid": 66497,
      "tags": {
        "name": "Umbu",
        "name:ne": "युम्बु",
        "place": "hamlet"
      }
    },
    {
      "type": "node",
      "id": 5059757722,
      "lat": 27.2011582,
      "lon": 86.9322553,
      "timestamp": "2017-08-26T08:41:42Z",
      "version": 1,
      "changeset": 51453347,
      "user": "Heinz_V",
      "uid": 91490,
      "tags": {
        "name": "Nagi",
        "place": "hamlet"
      }
    },
    {
      "type": "node",
      "id": 5059757725,
      "lat": 27.1884553,
      "lon": 87.1824412,
      "timestamp": "2017-08-26T08:41:42Z",
      "version": 1,
      "changeset": 51453347,
      "user": "Heinz_V",
      "uid": 91490,
      "tags": {
        "name": "Yaku Chepar",
        "place": "village"
      }
    },
    {
      "type": "node",
      "id": 5059757726,
      "lat": 27.1799332,
      "lon": 87.1352419,
      "timestamp": "2017-08-26T08:41:42Z",
      "version": 1,
      "changeset": 51453347,
      "user": "Heinz_V",
      "uid": 91490,
      "tags": {
        "name": "Tiwari Bhanjyang",
        "place": "village"
      }
    },
    {
      "type": "node",
      "id": 5059757727,
      "lat": 27.1754768,
      "lon": 87.0530876,
      "timestamp": "2017-08-26T08:41:42Z",
      "version": 1,
      "changeset": 51453347,
      "user": "Heinz_V",
      "uid": 91490,
      "tags": {
        "name": "Panityanki",
        "place": "village"
      }
    },
    {
      "type": "node",
      "id": 5060267919,
      "lat": 27.2020358,
      "lon": 87.0084405,
      "timestamp": "2017-08-26T13:44:14Z",
      "version": 1,
      "changeset": 51459511,
      "user": "Heinz_V",
      "uid": 91490,
      "tags": {
        "name": "Dawa",
        "place": "village"
      }
    },
    {
      "type": "node",
      "id": 5063646369,
      "lat": 27.2425762,
      "lon": 86.5828688,
      "timestamp": "2017-08-28T08:38:23Z",
      "version": 1,
      "changeset": 51501409,
      "user": "Helprich",
      "uid": 6528804,
      "tags": {
        "natural": "spring"
      }
    },
    {
      "type": "node",
      "id": 5227889872,
      "lat": 27.1932959,
      "lon": 86.6171055,
      "timestamp": "2017-11-14T09:36:36Z",
      "version": 1,
      "changeset": 53765950,
      "user": "loku011",
      "uid": 6977238,
      "tags": {
        "access": "public",
        "addr:city": "Haleshi Tuwachung 7",
        "addr:place": "Malkhu",
        "amenity": "drinking_water",
        "drinking_water": "yes",
        "man_made": "storage_tank"
      }
    },
    {
      "type": "node",
      "id": 5286790630,
      "lat": 27.1818431,
      "lon": 86.5500683,
      "timestamp": "2021-07-07T11:57:58Z",
      "version": 3,
      "changeset": 107561740,
      "user": "seichter",
      "uid": 66497,
      "tags": {
        "addr:city": "Halesi Tuwachung Municipality",
        "addr:suburb": "Badahare, Bojhe-4",
        "amenity": "drinking_water",
        "drinking_water": "yes",
        "man_made": "water_well",
        "opening_hours": "Su-Sa 01:00-24:00",
        "operator": "public"
      }
    },
    {
      "type": "node",
      "id": 5286840831,
      "lat": 27.1850421,
      "lon": 86.553122,
      "timestamp": "2021-07-07T11:57:58Z",
      "version": 2,
      "changeset": 107561740,
      "user": "seichter",
      "uid": 66497,
      "tags": {
        "addr:city": "Halesi Tuwachung Municipality",
        "addr:suburb": "Badahare, Bojhe-4",
        "amenity": "drinking_water",
        "drinking_water": "yes",
        "man_made": "water_well",
        "name": "Simal Padhera",
        "operator": "public"
      }
    },
    {
      "type": "node",
      "id": 5286855632,
      "lat": 27.1921781,
      "lon": 86.5515845,
      "timestamp": "2021-07-07T11:57:58Z",
      "version": 3,
      "changeset": 107561740,
      "user": "seichter",
      "uid": 66497,
      "tags": {
        "addr:city": "Haleshi Tuwachung Municipality",
        "addr:suburb": "Badahare, Bungdel-4",
        "amenity": "drinking_water",
        "drinking_water": "yes",
        "man_made": "water_tap",
        "name": "Simal bote Padhero",
        "operator": "public"
      }
    },
    {
      "type": "node",
      "id": 5287001073,
      "lat": 27.1977893,
      "lon": 86.5708387,
      "timestamp": "2021-07-07T11:57:58Z",
      "version": 5,
      "changeset": 107561740,
      "user": "seichter",
      "uid": 66497,
      "tags": {
        "access": "yes",
        "addr:city": "Halesi Tuwachung Municipality",
        "addr:street": "Madhya Pahadi Lokmarga",
        "addr:suburb": "Badahare, Papidanda-4",
        "amenity": "drinking_water",
        "drinking_water": "yes",
        "man_made": "storage_tank",
        "name": "Patidandan DW tank",
        "opening_hours": "Su-Sa 06:00-09:00, 16:00-19:00"
      }
    },
    {
      "type": "node",
      "id": 5314527199,
      "lat": 27.1985086,
      "lon": 86.5560262,
      "timestamp": "2021-07-07T19:34:43Z",
      "version": 3,
      "changeset": 107586610,
      "user": "seichter",
      "uid": 66497,
      "tags": {
        "amenity": "drinking_water",
        "drinking_water": "yes",
        "man_made": "water_well",
        "name": "Khokseli well"
      }
    },
    {
      "type": "node",
      "id": 5315807815,
      "lat": 27.1931324,
      "lon": 86.556226,
      "timestamp": "2021-07-07T11:57:58Z",
      "version": 2,
      "changeset": 107561740,
      "user": "seichter",
      "uid": 66497,
      "tags": {
        "addr:city": "Halesi Tuwachung Municipality",
        "addr:street": "Madhya Pahadi Lokmarga way to Diktel",
        "addr:suburb": "Badahare, Khokseli-4",
        "amenity": "drinking_water",
        "drinking_water": "yes",
        "man_made": "water_well",
        "name": "Khokseli well",
        "opening_hours": "Su-Sa 01:00-24:00",
        "operator": "public"
      }
    },
    {
      "type": "node",
      "id": 5316001529,
      "lat": 27.1941034,
      "lon": 86.5520766,
      "timestamp": "2021-07-07T11:57:58Z",
      "version": 2,
      "changeset": 107561740,
      "user": "seichter",
      "uid": 66497,
      "tags": {
        "addr:city": "Halesi Tuwachung Municipality",
        "addr:street": "Madhya Pahadi Lokmarga way to Diktel",
        "addr:suburb": "Badahare, Bangma-4",
        "amenity": "drinking_water",
        "drinking_water": "yes",
        "man_made": "water_well",
        "name": "Bangma well",
        "opening_hours": "Su-Sa 01:00-24:00",
        "operator": "public"
      }
    },
    {
      "type": "node",
      "id": 5316267833,
      "lat": 27.1986553,
      "lon": 86.5404251,
      "timestamp": "2021-07-07T11:57:58Z",
      "version": 2,
      "changeset": 107561740,
      "user": "seichter",
      "uid": 66497,
      "tags": {
        "addr:city": "Halesi Tuwachung Municipality",
        "addr:suburb": "Badahare, Hattiban-4",
        "amenity": "drinking_water",
        "drinking_water": "yes",
        "man_made": "water_well",
        "name": "Badahare, Hattiban",
        "operator:type": "public"
      }
    },
    {
      "type": "node",
      "id": 5321630998,
      "lat": 27.1743765,
      "lon": 86.4959393,
      "timestamp": "2021-07-07T19:34:43Z",
      "version": 3,
      "changeset": 107586610,
      "user": "seichter",
      "uid": 66497,
      "tags": {
        "amenity": "drinking_water"
      }
    },
    {
      "type": "node",
      "id": 5321631007,
      "lat": 27.1778149,
      "lon": 86.4970042,
      "timestamp": "2021-07-07T19:34:43Z",
      "version": 3,
      "changeset": 107586610,
      "user": "seichter",
      "uid": 66497,
      "tags": {
        "amenity": "drinking_water",
        "man_made": "water_tap",
        "operator": "public"
      }
    },
    {
      "type": "node",
      "id": 5321631012,
      "lat": 27.1793038,
      "lon": 86.4978424,
      "timestamp": "2021-07-07T11:57:58Z",
      "version": 2,
      "changeset": 107561740,
      "user": "seichter",
      "uid": 66497,
      "tags": {
        "addr:city": "Halesi Tuwachung municipality",
        "addr:suburb": "Bahunidanda,Tallogaun -1",
        "amenity": "drinking_water",
        "man_made": "water_tap",
        "operator": "public"
      }
    },
    {
      "type": "node",
      "id": 5724854422,
      "lat": 27.4198533,
      "lon": 86.5527551,
      "timestamp": "2018-06-28T06:50:34Z",
      "version": 1,
      "changeset": 60237516,
      "user": "Sushmita Timilslna",
      "uid": 1238251,
      "tags": {
        "amenity": "shelter"
      }
    },
    {
      "type": "node",
      "id": 6136775736,
      "lat": 27.1998422,
      "lon": 87.1838079,
      "timestamp": "2018-12-14T09:01:30Z",
      "version": 1,
      "changeset": 65466104,
      "user": "Bipanashakya987",
      "uid": 9036858,
      "tags": {
        "addr:city": "Arun rural municipality 4",
        "addr:place": "laguwa danda",
        "amenity": "drinking_water",
        "drinking_water": "yes",
        "man_made": "water_well",
        "operator": "public"
      }
    },
    {
      "type": "node",
      "id": 6139931186,
      "lat": 27.174775,
      "lon": 87.1871352,
      "timestamp": "2018-12-16T08:38:23Z",
      "version": 1,
      "changeset": 65516384,
      "user": "Bipanashakya987",
      "uid": 9036858,
      "tags": {
        "addr:city": "Arun rural municipality 4",
        "addr:place": "Katwal gau",
        "amenity": "drinking_water",
        "drinking_water": "yes",
        "man_made": "storage_tank",
        "name": "Khana pani tanki",
        "operator": "public"
      }
    },
    {
      "type": "node",
      "id": 6141943094,
      "lat": 27.1963651,
      "lon": 87.1816662,
      "timestamp": "2018-12-17T08:21:44Z",
      "version": 1,
      "changeset": 65541755,
      "user": "Bipanashakya987",
      "uid": 9036858,
      "tags": {
        "addr:city": "Arun rural municipality 4",
        "addr:place": "Golatar",
        "amenity": "drinking_water",
        "drinking_water": "yes",
        "man_made": "storage_tank",
        "name": "Khamtala"
      }
    },
    {
      "type": "node",
      "id": 6301604836,
      "lat": 27.4215145,
      "lon": 87.1863968,
      "timestamp": "2019-02-25T16:22:10Z",
      "version": 1,
      "changeset": 67554080,
      "user": "saranotsarah",
      "uid": 9008117,
      "tags": {
        "name": "Gairi Pangma",
        "place": "village"
      }
    },
    {
      "type": "node",
      "id": 6959122188,
      "lat": 27.4450081,
      "lon": 86.5724086,
      "timestamp": "2021-06-29T20:12:54Z",
      "version": 2,
      "changeset": 107168937,
      "user": "seichter",
      "uid": 66497,
      "tags": {
        "name": "Salme Bazar",
        "place": "hamlet"
      }
    },
    {
      "type": "node",
      "id": 8108693027,
      "lat": 27.1689153,
      "lon": 86.4965589,
      "timestamp": "2020-11-11T15:45:01Z",
      "version": 1,
      "changeset": 93937848,
      "user": "seichter",
      "uid": 66497,
      "tags": {
        "amenity": "drinking_water",
        "water_source": "tap"
      }
    },
    {
      "type": "node",
      "id": 8117037001,
      "lat": 27.160789,
      "lon": 86.4907801,
      "timestamp": "2020-11-13T20:12:12Z",
      "version": 1,
      "changeset": 94084107,
      "user": "seichter",
      "uid": 66497,
      "tags": {
        "name": "Beta",
        "place": "hamlet"
      }
    },
    {
      "type": "node",
      "id": 8117286143,
      "lat": 27.1829129,
      "lon": 86.511665,
      "timestamp": "2020-11-13T22:10:48Z",
      "version": 1,
      "changeset": 94088194,
      "user": "seichter",
      "uid": 66497,
      "tags": {
        "name": "Beshitole",
        "place": "hamlet"
      }
    },
    {
      "type": "node",
      "id": 8117312365,
      "lat": 27.1751291,
      "lon": 86.4956326,
      "timestamp": "2021-07-12T17:25:06Z",
      "version": 2,
      "changeset": 107854475,
      "user": "seichter",
      "uid": 66497,
      "tags": {
        "name": "Bhanjyang",
        "place": "hamlet"
      }
    },
    {
      "type": "node",
      "id": 8117312367,
      "lat": 27.1779676,
      "lon": 86.4956671,
      "timestamp": "2020-11-13T22:10:48Z",
      "version": 1,
      "changeset": 94088194,
      "user": "seichter",
      "uid": 66497,
      "tags": {
        "name": "Tallogaun",
        "place": "hamlet"
      }
    },
    {
      "type": "node",
      "id": 8179020316,
      "lat": 27.19164,
      "lon": 86.6228149,
      "timestamp": "2021-08-19T07:10:28Z",
      "version": 2,
      "changeset": 109913016,
      "user": "Sundar1",
      "uid": 9530130,
      "tags": {
        "alt_name": "Haleshi",
        "name": "Halesi",
        "place": "village"
      }
    },
    {
      "type": "node",
      "id": 8221119379,
      "lat": 27.4381897,
      "lon": 86.6359842,
      "timestamp": "2020-12-11T23:40:41Z",
      "version": 1,
      "changeset": 95708059,
      "user": "seichter",
      "uid": 66497,
      "tags": {
        "name": "Nele Bazar",
        "place": "town"
      }
    },
    {
      "type": "node",
      "id": 8812588587,
      "lat": 27.3516337,
      "lon": 86.5648026,
      "timestamp": "2021-06-07T19:33:00Z",
      "version": 1,
      "changeset": 105991958,
      "user": "seichter",
      "uid": 66497,
      "tags": {
        "name": "Gairhigaon",
        "place": "village"
      }
    },
    {
      "type": "node",
      "id": 8812605737,
      "lat": 27.4157764,
      "lon": 86.5302782,
      "timestamp": "2021-06-07T19:33:09Z",
      "version": 1,
      "changeset": 105991958,
      "user": "seichter",
      "uid": 66497,
      "tags": {
        "name": "Lakhop",
        "place": "village"
      }
    },
    {
      "type": "node",
      "id": 8812605738,
      "lat": 27.4351976,
      "lon": 86.5418819,
      "timestamp": "2021-06-07T19:33:09Z",
      "version": 1,
      "changeset": 105991958,
      "user": "seichter",
      "uid": 66497,
      "tags": {
        "name": "Kerung",
        "place": "village"
      }
    },
    {
      "type": "node",
      "id": 8812605739,
      "lat": 27.4310103,
      "lon": 86.5848967,
      "timestamp": "2021-08-19T06:47:35Z",
      "version": 2,
      "changeset": 109911768,
      "user": "Sundar1",
      "uid": 9530130,
      "tags": {
        "name": "Tingnasa",
        "place": "hamlet"
      }
    },
    {
      "type": "node",
      "id": 8812605740,
      "lat": 27.41565,
      "lon": 86.607529,
      "timestamp": "2021-06-07T19:33:09Z",
      "version": 1,
      "changeset": 105991958,
      "user": "seichter",
      "uid": 66497,
      "tags": {
        "name": "Tingla",
        "place": "hamlet"
      }
    },
    {
      "type": "node",
      "id": 8812605741,
      "lat": 27.4799359,
      "lon": 86.5603633,
      "timestamp": "2021-06-07T19:33:09Z",
      "version": 1,
      "changeset": 105991958,
      "user": "seichter",
      "uid": 66497,
      "tags": {
        "name": "khoria",
        "place": "hamlet"
      }
    },
    {
      "type": "node",
      "id": 8812605742,
      "lat": 27.4773137,
      "lon": 86.5867895,
      "timestamp": "2021-08-19T06:47:35Z",
      "version": 2,
      "changeset": 109911768,
      "user": "Sundar1",
      "uid": 9530130,
      "tags": {
        "name": "Chhukyamu",
        "place": "hamlet"
      }
    },
    {
      "type": "node",
      "id": 8812605743,
      "lat": 27.4581303,
      "lon": 86.5720433,
      "timestamp": "2021-06-07T19:33:09Z",
      "version": 1,
      "changeset": 105991958,
      "user": "seichter",
      "uid": 66497,
      "tags": {
        "name": "Garma",
        "place": "village"
      }
    },
    {
      "type": "node",
      "id": 9602652217,
      "lat": 27.6318451,
      "lon": 86.61534,
      "timestamp": "2022-03-24T08:29:41Z",
      "version": 1,
      "changeset": 118852699,
      "user": "Jameswrc",
      "uid": 8764181,
      "tags": {
        "addr:street": "Dhudhkund Trail",
        "name:en": "Kamodanda",
        "tourism": "camp_site"
      }
    },
    {
      "type": "node",
      "id": 9608322417,
      "lat": 27.6186842,
      "lon": 86.6115623,
      "timestamp": "2022-03-26T08:56:45Z",
      "version": 1,
      "changeset": 118938425,
      "user": "Jameswrc",
      "uid": 8764181,
      "tags": {
        "name:en": "Bhedigoth",
        "tourism": "camp_site"
      }
    },
    {
      "type": "node",
      "id": 9608324017,
      "lat": 27.6207631,
      "lon": 86.6112005,
      "timestamp": "2022-03-26T08:57:07Z",
      "version": 1,
      "changeset": 118938433,
      "user": "Jameswrc",
      "uid": 8764181,
      "tags": {
        "addr:street": "Dhudhkunda Trail",
        "name:en": "Sarkari Pati",
        "tourism": "camp_site"
      }
    },
    {
      "type": "way",
      "id": 314876720,
      "timestamp": "2021-08-19T07:10:28Z",
      "version": 3,
      "changeset": 109913016,
      "user": "Sundar1",
      "uid": 9530130,
      "center": {
        "lat": 27.2535637,
        "lon": 86.67208
      },
      "nodes": [],
      "tags": {
        "name": "Lamidanda",
        "place": "hamlet"
      }
    },
    {
      "type": "way",
      "id": 462340079,
      "timestamp": "2016-12-28T14:39:57Z",
      "version": 2,
      "changeset": 44732627,
      "user": "Ketchup99",
      "uid": 1769257,
      "center": {
        "lat": 27.6711675,
        "lon": 86.7595887
      },
      "nodes": [],
      "tags": {
        "building": "yes",
        "name": "Chutanga Lodge",
        "tourism": "alpine_hut"
      }
    },
    {
      "type": "way",
      "id": 462340085,
      "timestamp": "2020-12-13T21:25:33Z",
      "version": 2,
      "changeset": 95771518,
      "user": "seichter",
      "uid": 66497,
      "center": {
        "lat": 27.64164,
        "lon": 86.7760549
      },
      "nodes": [],
      "tags": {
        "building": "yes",
        "ele": "4220",
        "name": "Thuli Kharka Lodge",
        "tourism": "alpine_hut"
      }
    },
    {
      "type": "way",
      "id": 950180202,
      "timestamp": "2021-06-03T20:26:03Z",
      "version": 1,
      "changeset": 105799676,
      "user": "seichter",
      "uid": 66497,
      "center": {
        "lat": 27.5463219,
        "lon": 86.8154924
      },
      "nodes": [],
      "tags": {
        "building": "yes",
        "name": "Himalayan Lodge - Kiraule",
        "tourism": "alpine_hut"
      }
    }
  ]
}