{
  "osm3s": {
    "timestamp_osm_date": "2021-08-21T23:59:59Z",
    "timestamp_osm_base": "2021-08-22T04:28:11Z",
    "copyright": "The data included in this document is from www.openstreetmap.org. The data is made available under ODbL."
  },
  "elements": [
    {
      "type": "node",
      "id": 26694667,
      "lat": 45.5892481,
      "lon": 2.7401614,
      "timestamp": "2020-04-21T11:30:49Z",
      "version": 11,
      "changeset": 83877714,
      "user": "oc-OpenStreetMap",
      "uid": 4224320,
      "tags": {
        "addr:postcode": "63150",
        "name": "La Bourboule",
        "name:oc": "La Borbola",
        "place": "village",
        "ref:FR:SIREN": "216300475",
        "source:name:oc": "ieo-bdtopoc"
      }
    },
    {
      "type": "node",
      "id": 26694886,
      "lat": 45.9546896,
      "lon": 2.1672725,
      "timestamp": "2020-11-13T00:03:48Z",
      "version": 18,
      "changeset": 94023789,
      "user": "Olyon",
      "uid": 1443767,
      "tags": {
        "addr:postcode": "23200",
        "capital": "7",
        "name": "Aubusson",
        "name:fr": "Aubusson",
        "name:oc": "Lo Buçon",
        "place": "town",
        "population": "3366",
        "ref:FR:SIREN": "212300800",
        "source:name:oc": "ieo-bdtopoc"
      }
    },
    {
      "type": "node",
      "id": 27273436,
      "lat": 45.597743,
      "lon": 2.7337149,
      "timestamp": "2020-04-16T19:21:28Z",
      "version": 10,
      "changeset": 83664582,
      "user": "oc-OpenStreetMap",
      "uid": 4224320,
      "tags": {
        "addr:postcode": "63150",
        "name": "Murat-le-Quaire",
        "name:oc": "Murat e lo Caire",
        "place": "village",
        "source": "gns",
        "source:name:oc": "ieo-bdtopoc"
      }
    },
    {
      "type": "node",
      "id": 279846377,
      "lat": 45.8680597,
      "lon": 2.6755139,
      "timestamp": "2020-08-21T09:09:39Z",
      "version": 19,
      "changeset": 89735095,
      "user": "ËdzëronK",
      "uid": 211154,
      "tags": {
        "addr:postcode": "63380",
        "name": "Pontaumur",
        "name:oc": "Pontaumur",
        "place": "village",
        "ref:FR:SIREN": "216302836",
        "source:name:oc": "ieo-bdtopoc"
      }
    },
    {
      "type": "node",
      "id": 279849641,
      "lat": 45.9119372,
      "lon": 2.3729439,
      "timestamp": "2013-01-09T19:47:28Z",
      "version": 3,
      "changeset": 14589283,
      "user": "rabeyroux",
      "uid": 805590,
      "tags": {
        "name": "Naleichard",
        "place": "hamlet"
      }
    },
    {
      "type": "node",
      "id": 279896391,
      "lat": 45.926637,
      "lon": 2.31346,
      "timestamp": "2008-09-09T08:46:09Z",
      "version": 2,
      "changeset": 585800,
      "user": "Pmz",
      "uid": 4363,
      "tags": {
        "name": "Les Roches",
        "place": "hamlet"
      }
    },
    {
      "type": "node",
      "id": 279896803,
      "lat": 45.9282202,
      "lon": 2.3034972,
      "timestamp": "2019-03-07T23:40:33Z",
      "version": 4,
      "changeset": 67904238,
      "user": "ËdzëronK",
      "uid": 211154,
      "tags": {
        "name": "Les Puids",
        "place": "hamlet"
      }
    },
    {
      "type": "node",
      "id": 279906744,
      "lat": 45.9496728,
      "lon": 2.1305212,
      "timestamp": "2019-11-15T15:28:19Z",
      "version": 3,
      "changeset": 77135700,
      "user": "MacDony",
      "uid": 3701940,
      "tags": {
        "name": "La Borderie",
        "place": "hamlet"
      }
    },
    {
      "type": "node",
      "id": 279907918,
      "lat": 45.9470555,
      "lon": 2.120684,
      "timestamp": "2013-04-16T10:21:46Z",
      "version": 6,
      "changeset": 15747770,
      "user": "cquest",
      "uid": 158826,
      "tags": {
        "name": "Farges",
        "place": "hamlet"
      }
    },
    {
      "type": "node",
      "id": 279921792,
      "lat": 45.8435303,
      "lon": 2.7893539,
      "timestamp": "2012-01-22T12:47:00Z",
      "version": 2,
      "changeset": 10464103,
      "user": "PhQ",
      "uid": 141978,
      "tags": {
        "tourism": "camp_site"
      }
    },
    {
      "type": "node",
      "id": 279921802,
      "lat": 45.8679321,
      "lon": 2.6760118,
      "timestamp": "2020-04-15T16:43:45Z",
      "version": 4,
      "changeset": 83603386,
      "user": "FRichard44",
      "uid": 2516858,
      "tags": {
        "brand": "Casino",
        "brand:wikidata": "Q89029184",
        "name": "Casino",
        "operator": "Casino",
        "shop": "supermarket"
      }
    },
    {
      "type": "node",
      "id": 389597616,
      "lat": 45.9133856,
      "lon": 2.645576,
      "timestamp": "2020-11-17T02:40:50Z",
      "version": 15,
      "changeset": 94236741,
      "user": "Olyon",
      "uid": 1443767,
      "tags": {
        "addr:postcode": "63380",
        "name": "Villossanges",
        "name:oc": "Vilosanja",
        "old_name": "Villosanges",
        "place": "village",
        "ref:FR:SIREN": "216304600",
        "source": "http://fr.wikipedia.org/wiki/Villosanges",
        "source:name:oc": "ieo-bdtopoc"
      }
    },
    {
      "type": "node",
      "id": 449037321,
      "lat": 45.5990184,
      "lon": 2.7895439,
      "timestamp": "2021-03-07T21:05:16Z",
      "version": 3,
      "changeset": 100592052,
      "user": "GeoMechain",
      "uid": 10398640,
      "tags": {
        "ele": "1485",
        "name": "Puy Gros",
        "natural": "peak",
        "wikidata": "Q31642259"
      }
    },
    {
      "type": "node",
      "id": 470934445,
      "lat": 45.9920042,
      "lon": 2.7641296,
      "timestamp": "2020-04-19T11:36:13Z",
      "version": 13,
      "changeset": 83769597,
      "user": "oc-OpenStreetMap",
      "uid": 4224320,
      "tags": {
        "addr:postcode": "63640",
        "name": "Saint-Priest-des-Champs",
        "name:oc": "Sent Priest daus Champs",
        "place": "village",
        "ref:FR:SIREN": "216303883",
        "source:name:oc": "ieo-bdtopoc"
      }
    },
    {
      "type": "node",
      "id": 519339277,
      "lat": 45.7701915,
      "lon": 2.6179834,
      "timestamp": "2020-04-19T18:04:22Z",
      "version": 10,
      "changeset": 83781067,
      "user": "oc-OpenStreetMap",
      "uid": 4224320,
      "tags": {
        "addr:postcode": "63470",
        "name": "Sauvagnat",
        "name:oc": "Sauvanhac",
        "place": "village",
        "source:name:oc": "ieo-bdtopoc"
      }
    },
    {
      "type": "node",
      "id": 520597540,
      "lat": 45.8471576,
      "lon": 2.7496494,
      "timestamp": "2012-07-18T17:08:59Z",
      "version": 4,
      "changeset": 12290050,
      "user": "mnebjb",
      "uid": 564122,
      "tags": {
        "name": "La Ganne",
        "place": "hamlet"
      }
    },
    {
      "type": "node",
      "id": 520597600,
      "lat": 45.8509365,
      "lon": 2.7381614,
      "timestamp": "2016-05-30T12:48:34Z",
      "version": 4,
      "changeset": 39664868,
      "user": "Orikrin1998",
      "uid": 1675650,
      "tags": {
        "name": "Fontéte",
        "place": "hamlet"
      }
    },
    {
      "type": "node",
      "id": 520607953,
      "lat": 45.8995994,
      "lon": 2.7853745,
      "timestamp": "2014-07-11T11:35:27Z",
      "version": 4,
      "changeset": 24080532,
      "user": "LGENDRONNEAU",
      "uid": 1434102,
      "tags": {
        "name": "La Serre",
        "place": "hamlet"
      }
    },
    {
      "type": "node",
      "id": 520607957,
      "lat": 45.9023662,
      "lon": 2.7767588,
      "timestamp": "2020-02-08T01:27:20Z",
      "version": 13,
      "changeset": 80713306,
      "user": "vincent_95",
      "uid": 49047,
      "tags": {
        "addr:postcode": "63230",
        "name": "Saint-Jacques-d'Ambur",
        "name:uk": "Сен-Жак-д'Амбюр",
        "place": "village",
        "wikidata": "Q1214488",
        "wikipedia": "fr:Saint-Jacques-d'Ambur"
      }
    },
    {
      "type": "node",
      "id": 522417502,
      "lat": 45.8993557,
      "lon": 2.7140485,
      "timestamp": "2020-04-16T19:21:37Z",
      "version": 15,
      "changeset": 83664582,
      "user": "oc-OpenStreetMap",
      "uid": 4224320,
      "tags": {
        "addr:postcode": "63380",
        "name": "Miremont",
        "name:oc": "Miremont",
        "name:uk": "Мірмон",
        "place": "village",
        "ref:FR:SIREN": "216302281",
        "source:name:oc": "ieo-bdtopoc",
        "wikidata": "Q659568",
        "wikipedia": "fr:Miremont (Puy-de-Dôme)"
      }
    },
    {
      "type": "node",
      "id": 522417511,
      "lat": 45.9089178,
      "lon": 2.7020658,
      "timestamp": "2019-11-11T18:33:13Z",
      "version": 4,
      "changeset": 76925328,
      "user": "JMBOGROS",
      "uid": 823845,
      "tags": {
        "name": "Grégottier",
        "place": "hamlet",
        "source": "local knowledge"
      }
    },
    {
      "type": "node",
      "id": 522417518,
      "lat": 45.9006326,
      "lon": 2.5929166,
      "timestamp": "2020-04-19T18:04:23Z",
      "version": 11,
      "changeset": 83781067,
      "user": "oc-OpenStreetMap",
      "uid": 4224320,
      "tags": {
        "addr:postcode": "63380",
        "name": "Tralaigues",
        "name:oc": "Tras las aigas",
        "place": "village",
        "ref:FR:SIREN": "216304360",
        "source:name:oc": "ieo-bdtopoc"
      }
    },
    {
      "type": "node",
      "id": 522417526,
      "lat": 45.8798797,
      "lon": 2.5661324,
      "timestamp": "2012-07-17T09:34:22Z",
      "version": 5,
      "changeset": 12261856,
      "user": "mnebjb",
      "uid": 564122,
      "tags": {
        "name": "Clergoux",
        "place": "hamlet"
      }
    },
    {
      "type": "node",
      "id": 670193215,
      "lat": 45.6112268,
      "lon": 2.7726021,
      "timestamp": "2021-07-26T10:04:13Z",
      "version": 5,
      "changeset": 108613211,
      "user": "Pierre59650",
      "uid": 12392723,
      "tags": {
        "description": "Borne en granit gravée IGN (1954) - Point vu en place en 1960",
        "ele": "1512.56",
        "man_made": "survey_point",
        "name": "La Banne d'Ordanche",
        "natural": "peak",
        "note": "Ne pas déplacer ce point, cf. - Do not move this node, see - http://wiki.openstreetmap.org/wiki/WikiProject_France/Repères_Géodésiques#Permanence_des_rep.C3.A8res",
        "ref": "6324601 - A",
        "source": "©IGN 2010 dans le cadre de la cartographie réglementaire",
        "tourism": "viewpoint",
        "url": "http://geodesie.ign.fr/fiches/index.php?module=e&action=fichepdf&source=carte&sit_no=6324601",
        "wheelchair": "no",
        "wikidata": "Q2882838"
      }
    },
    {
      "type": "node",
      "id": 920036649,
      "lat": 46.0318047,
      "lon": 2.2800061,
      "timestamp": "2019-03-05T03:30:38Z",
      "version": 5,
      "changeset": 67789347,
      "user": "b-jazz-bot",
      "uid": 9451067,
      "tags": {
        "name": "La Naute",
        "phone": "+33 5 55 67 12 54",
        "stars": "2",
        "tourism": "camp_site",
        "website": "https://www.lanaute.com/dodo-camping-et-gites-camping-at-la-naute-bye-byes/"
      }
    },
    {
      "type": "node",
      "id": 920515197,
      "lat": 45.883745,
      "lon": 2.172826,
      "timestamp": "2020-03-27T05:20:34Z",
      "version": 3,
      "changeset": 82693630,
      "user": "Olyon",
      "uid": 1443767,
      "tags": {
        "brand": "Carrefour Express",
        "brand:wikidata": "Q2940190",
        "brand:wikipedia": "fr:Carrefour Express",
        "name": "Carrefour Express",
        "operator": "8 à Huit",
        "shop": "convenience"
      }
    },
    {
      "type": "node",
      "id": 941763535,
      "lat": 45.6478141,
      "lon": 2.7066159,
      "timestamp": "2021-02-04T21:10:17Z",
      "version": 2,
      "changeset": 98727170,
      "user": "zorglubu",
      "uid": 6466263,
      "tags": {
        "name": "Gare de Laqueuille",
        "place": "hamlet"
      }
    },
    {
      "type": "node",
      "id": 942905185,
      "lat": 45.6621594,
      "lon": 2.7566144,
      "timestamp": "2010-10-09T21:02:16Z",
      "version": 1,
      "changeset": 5997220,
      "user": "Pantoine",
      "uid": 339468,
      "tags": {
        "name": "La Chabanne",
        "place": "hamlet"
      }
    },
    {
      "type": "node",
      "id": 942906431,
      "lat": 45.6507627,
      "lon": 2.7320917,
      "timestamp": "2020-04-21T11:31:29Z",
      "version": 8,
      "changeset": 83877714,
      "user": "oc-OpenStreetMap",
      "uid": 4224320,
      "tags": {
        "addr:postcode": "63820",
        "name": "Laqueuille",
        "name:oc": "La Cuelha de Perpesac",
        "place": "village",
        "source:name:oc": "ieo-bdtopoc"
      }
    },
    {
      "type": "node",
      "id": 942923070,
      "lat": 45.6608964,
      "lon": 2.7506428,
      "timestamp": "2010-10-09T21:18:37Z",
      "version": 1,
      "changeset": 5997351,
      "user": "Pantoine",
      "uid": 339468,
      "tags": {
        "name": "Le Foueix",
        "place": "hamlet"
      }
    },
    {
      "type": "node",
      "id": 942927323,
      "lat": 45.6665136,
      "lon": 2.7474678,
      "timestamp": "2010-10-09T21:21:49Z",
      "version": 1,
      "changeset": 5997382,
      "user": "Pantoine",
      "uid": 339468,
      "tags": {
        "name": "Villevialle",
        "place": "hamlet"
      }
    },
    {
      "type": "node",
      "id": 942928873,
      "lat": 45.6618931,
      "lon": 2.7322778,
      "timestamp": "2010-10-09T21:23:16Z",
      "version": 1,
      "changeset": 5997397,
      "user": "Pantoine",
      "uid": 339468,
      "tags": {
        "name": "Orbevialle",
        "place": "hamlet"
      }
    },
    {
      "type": "node",
      "id": 942930380,
      "lat": 45.6403326,
      "lon": 2.7301248,
      "timestamp": "2010-10-09T21:24:51Z",
      "version": 1,
      "changeset": 5997415,
      "user": "Pantoine",
      "uid": 339468,
      "tags": {
        "name": "Le Trador",
        "place": "hamlet"
      }
    },
    {
      "type": "node",
      "id": 942930387,
      "lat": 45.6368801,
      "lon": 2.7442039,
      "timestamp": "2019-10-01T21:32:28Z",
      "version": 2,
      "changeset": 75171926,
      "user": "Sept Carto",
      "uid": 7664547,
      "tags": {
        "name": "Les Razats",
        "place": "hamlet"
      }
    },
    {
      "type": "node",
      "id": 944305083,
      "lat": 45.6160984,
      "lon": 2.3826829,
      "timestamp": "2020-04-21T12:02:01Z",
      "version": 10,
      "changeset": 83879493,
      "user": "oc-OpenStreetMap",
      "uid": 4224320,
      "tags": {
        "addr:postcode": "19200",
        "census": "2007",
        "name": "Aix",
        "name:oc": "Ais (de Corresa)",
        "place": "village",
        "population": "385",
        "ref:FR:SIREN": "211900204",
        "source:name:oc": "ieo-bdtopoc",
        "source:population": "INSEE 2013"
      }
    },
    {
      "type": "node",
      "id": 945354716,
      "lat": 45.6476261,
      "lon": 2.5575506,
      "timestamp": "2020-04-20T15:30:15Z",
      "version": 8,
      "changeset": 83830088,
      "user": "oc-OpenStreetMap",
      "uid": 4224320,
      "tags": {
        "addr:postcode": "63760",
        "name": "Bourg-Lastic",
        "name:oc": "Lo Borc",
        "place": "village",
        "source:name:oc": "ieo-bdtopoc"
      }
    },
    {
      "type": "node",
      "id": 945356426,
      "lat": 45.6838904,
      "lon": 2.8050875,
      "timestamp": "2020-04-18T19:16:37Z",
      "version": 8,
      "changeset": 83752746,
      "user": "oc-OpenStreetMap",
      "uid": 4224320,
      "tags": {
        "addr:postcode": "63210",
        "name": "Rochefort-Montagne",
        "name:oc": "Rochafòrt (de la Montanha)",
        "place": "village",
        "source:name:oc": "ieo-bdtopoc"
      }
    },
    {
      "type": "node",
      "id": 948538875,
      "lat": 45.6464934,
      "lon": 2.4605547,
      "timestamp": "2020-04-22T15:11:53Z",
      "version": 9,
      "changeset": 83948855,
      "user": "oc-OpenStreetMap",
      "uid": 4224320,
      "tags": {
        "addr:postcode": "19340",
        "name": "Merlines",
        "name:oc": "Merlinas",
        "place": "village",
        "population": "803",
        "source:name:oc": "ieo-bdtopoc",
        "source:population": "INSEE 2013",
        "wikidata": "Q315162",
        "wikipedia": "fr:Merlines"
      }
    },
    {
      "type": "node",
      "id": 948538878,
      "lat": 45.6624703,
      "lon": 2.4520498,
      "timestamp": "2020-04-21T13:50:40Z",
      "version": 10,
      "changeset": 83885052,
      "user": "oc-OpenStreetMap",
      "uid": 4224320,
      "tags": {
        "addr:postcode": "19340",
        "census": "2007",
        "name": "Eygurande",
        "name:oc": "Aiguranda",
        "place": "village",
        "population": "710",
        "ref:FR:SIREN": "211908009",
        "source:name:oc": "ieo-bdtopoc"
      }
    },
    {
      "type": "node",
      "id": 970325813,
      "lat": 45.6164973,
      "lon": 2.5545233,
      "timestamp": "2012-03-27T09:40:36Z",
      "version": 2,
      "changeset": 11114443,
      "user": "ClaudeMarani",
      "uid": 289618,
      "tags": {
        "addr:postcode": "63750",
        "name": "Les Gannes",
        "place": "village"
      }
    },
    {
      "type": "node",
      "id": 970325817,
      "lat": 45.6155014,
      "lon": 2.5403548,
      "timestamp": "2020-04-16T19:21:49Z",
      "version": 9,
      "changeset": 83664582,
      "user": "oc-OpenStreetMap",
      "uid": 4224320,
      "tags": {
        "addr:postcode": "63750",
        "census": "2007",
        "name": "Messeix",
        "name:oc": "Messèir",
        "place": "village",
        "ref:FR:SIREN": "216302257",
        "source:name:oc": "ieo-bdtopoc"
      }
    },
    {
      "type": "node",
      "id": 972692717,
      "lat": 45.7021268,
      "lon": 2.2613053,
      "timestamp": "2020-04-22T19:21:06Z",
      "version": 10,
      "changeset": 83958637,
      "user": "oc-OpenStreetMap",
      "uid": 4224320,
      "tags": {
        "addr:postcode": "23100",
        "census": "2007",
        "name": "La Courtine",
        "name:oc": "La Cortina",
        "place": "village",
        "ref:FR:SIREN": "212306708",
        "source:name:oc": "ieo-bdtopoc"
      }
    },
    {
      "type": "node",
      "id": 973817550,
      "lat": 45.7318497,
      "lon": 2.1947704,
      "timestamp": "2020-04-23T10:52:34Z",
      "version": 6,
      "changeset": 83996487,
      "user": "oc-OpenStreetMap",
      "uid": 4224320,
      "tags": {
        "addr:postcode": "23100",
        "census": "2007",
        "name": "Le Mas-d'Artige",
        "name:oc": "Lo Mas de L'Artija",
        "place": "village",
        "ref:FR:SIREN": "212312508",
        "source:name:oc": "ieo-bdtopoc"
      }
    },
    {
      "type": "node",
      "id": 973817554,
      "lat": 45.7341223,
      "lon": 2.2026828,
      "timestamp": "2010-11-01T17:29:02Z",
      "version": 2,
      "changeset": 6258057,
      "user": "Pantoine",
      "uid": 339468,
      "tags": {
        "name": "La Ganne",
        "place": "hamlet"
      }
    },
    {
      "type": "node",
      "id": 973817562,
      "lat": 45.7375255,
      "lon": 2.2055738,
      "timestamp": "2010-11-01T16:15:52Z",
      "version": 1,
      "changeset": 6256802,
      "user": "Pantoine",
      "uid": 339468,
      "tags": {
        "name": "Le Pomet",
        "place": "hamlet"
      }
    },
    {
      "type": "node",
      "id": 973850514,
      "lat": 45.7442341,
      "lon": 2.1783237,
      "timestamp": "2020-07-22T10:33:31Z",
      "version": 2,
      "changeset": 88342473,
      "user": "Joan Francés Blanc",
      "uid": 4946198,
      "tags": {
        "name": "Crépiat",
        "name:oc": "Crepiat",
        "place": "hamlet"
      }
    },
    {
      "type": "node",
      "id": 973851277,
      "lat": 45.7362609,
      "lon": 2.1818782,
      "timestamp": "2020-07-22T10:37:27Z",
      "version": 2,
      "changeset": 88342730,
      "user": "Joan Francés Blanc",
      "uid": 4946198,
      "tags": {
        "name": "Artige",
        "name:oc": "L'Artija",
        "place": "hamlet"
      }
    },
    {
      "type": "node",
      "id": 973862721,
      "lat": 45.7255734,
      "lon": 2.2360991,
      "timestamp": "2010-11-01T17:58:55Z",
      "version": 1,
      "changeset": 6258497,
      "user": "Pantoine",
      "uid": 339468,
      "tags": {
        "name": "Lombarteix",
        "place": "hamlet"
      }
    },
    {
      "type": "node",
      "id": 973876830,
      "lat": 45.7472271,
      "lon": 2.1131643,
      "timestamp": "2010-11-01T18:29:09Z",
      "version": 1,
      "changeset": 6259120,
      "user": "Pantoine",
      "uid": 339468,
      "tags": {
        "name": "Le Petit Meymat",
        "place": "hamlet",
        "source": "cadastre-dgi-fr source : Direction Générale des Impôts - Cadastre ; mise à jour : 2009"
      }
    },
    {
      "type": "node",
      "id": 973876831,
      "lat": 45.7506829,
      "lon": 2.1267292,
      "timestamp": "2020-04-22T19:21:06Z",
      "version": 9,
      "changeset": 83958637,
      "user": "oc-OpenStreetMap",
      "uid": 4224320,
      "tags": {
        "addr:postcode": "23100",
        "census": "2007",
        "name": "Féniers",
        "name:oc": "Feniers",
        "place": "village",
        "ref:FR:SIREN": "212308001",
        "source:name:oc": "ieo-bdtopoc"
      }
    },
    {
      "type": "node",
      "id": 973879579,
      "lat": 45.7616756,
      "lon": 2.1273612,
      "timestamp": "2010-11-01T18:32:33Z",
      "version": 1,
      "changeset": 6259176,
      "user": "Pantoine",
      "uid": 339468,
      "tags": {
        "name": "Louage",
        "place": "hamlet"
      }
    },
    {
      "type": "node",
      "id": 973879594,
      "lat": 45.7315034,
      "lon": 2.1411469,
      "timestamp": "2010-11-01T18:32:33Z",
      "version": 1,
      "changeset": 6259176,
      "user": "Pantoine",
      "uid": 339468,
      "tags": {
        "name": "Crabanat",
        "place": "hamlet"
      }
    },
    {
      "type": "node",
      "id": 973879606,
      "lat": 45.7420573,
      "lon": 2.1467122,
      "timestamp": "2010-11-01T18:32:34Z",
      "version": 1,
      "changeset": 6259176,
      "user": "Pantoine",
      "uid": 339468,
      "tags": {
        "name": "La Vialle",
        "place": "hamlet"
      }
    },
    {
      "type": "node",
      "id": 973879610,
      "lat": 45.7453076,
      "lon": 2.1588069,
      "timestamp": "2020-07-22T10:33:01Z",
      "version": 2,
      "changeset": 88342437,
      "user": "Joan Francés Blanc",
      "uid": 4946198,
      "tags": {
        "name": "Villefert",
        "name:oc": "Vilafèrt",
        "place": "hamlet",
        "source": "cadastre-dgi-fr source : Direction Générale des Impôts - Cadastre;mise à jour : 2009"
      }
    },
    {
      "type": "node",
      "id": 974087224,
      "lat": 45.6666351,
      "lon": 2.1939208,
      "timestamp": "2020-04-22T15:11:56Z",
      "version": 10,
      "changeset": 83948855,
      "user": "oc-OpenStreetMap",
      "uid": 4224320,
      "tags": {
        "addr:postcode": "19290",
        "name": "Sornac",
        "name:oc": "Saurnac",
        "place": "village",
        "population": "830",
        "ref:FR:SIREN": "211926118",
        "source:name:oc": "ieo-bdtopoc",
        "source:population": "INSEE 2013",
        "wikidata": "Q471676",
        "wikipedia": "fr:Sornac"
      }
    },
    {
      "type": "node",
      "id": 979292291,
      "lat": 45.6146497,
      "lon": 2.1449567,
      "timestamp": "2020-04-22T15:11:58Z",
      "version": 3,
      "changeset": 83948855,
      "user": "oc-OpenStreetMap",
      "uid": 4224320,
      "tags": {
        "name": "L'Arfeuillère",
        "name:oc": "L'Arfulhera",
        "place": "hamlet",
        "source": "cadastre-dgi-fr source : Direction Générale des Impôts - Cadastre ; mise à jour : 2009",
        "source:name:oc": "ieo-bdtopoc"
      }
    },
    {
      "type": "node",
      "id": 984401638,
      "lat": 45.7021273,
      "lon": 2.8120746,
      "timestamp": "2010-11-10T15:24:07Z",
      "version": 1,
      "changeset": 6336709,
      "user": "Pantoine",
      "uid": 339468,
      "tags": {
        "name": "Montcheneix",
        "place": "hamlet",
        "source": "cadastre-dgi-fr source : Direction Générale des Impôts - Cadastre. Mise à jour : 2009"
      }
    },
    {
      "type": "node",
      "id": 984403924,
      "lat": 45.6941534,
      "lon": 2.7895051,
      "timestamp": "2010-11-10T15:26:28Z",
      "version": 1,
      "changeset": 6336725,
      "user": "Pantoine",
      "uid": 339468,
      "tags": {
        "name": "Le Bouchetel",
        "place": "hamlet",
        "source": "cadastre-dgi-fr source : Direction Générale des Impôts - Cadastre. Mise à jour : 2009"
      }
    },
    {
      "type": "node",
      "id": 984404729,
      "lat": 45.6870688,
      "lon": 2.7887558,
      "timestamp": "2010-11-10T15:27:15Z",
      "version": 1,
      "changeset": 6336730,
      "user": "Pantoine",
      "uid": 339468,
      "tags": {
        "name": "Ourceyre",
        "place": "hamlet",
        "source": "cadastre-dgi-fr source : Direction Générale des Impôts - Cadastre. Mise à jour : 2009"
      }
    },
    {
      "type": "node",
      "id": 984405523,
      "lat": 45.6830604,
      "lon": 2.7930844,
      "timestamp": "2010-11-10T15:28:05Z",
      "version": 1,
      "changeset": 6336741,
      "user": "Pantoine",
      "uid": 339468,
      "tags": {
        "name": "Bomparent",
        "place": "hamlet",
        "source": "cadastre-dgi-fr source : Direction Générale des Impôts - Cadastre. Mise à jour : 2009"
      }
    },
    {
      "type": "node",
      "id": 986596262,
      "lat": 45.6787928,
      "lon": 2.7742636,
      "timestamp": "2020-04-18T14:57:10Z",
      "version": 12,
      "changeset": 83745846,
      "user": "oc-OpenStreetMap",
      "uid": 4224320,
      "tags": {
        "addr:postcode": "63210",
        "census": "1999",
        "name": "Perpezat",
        "name:oc": "Perpesac",
        "place": "village",
        "ref:FR:SIREN": "216302745",
        "source:name:oc": "ieo-bdtopoc"
      }
    },
    {
      "type": "node",
      "id": 986791832,
      "lat": 45.835386,
      "lon": 2.526529,
      "timestamp": "2012-09-27T16:36:51Z",
      "version": 2,
      "changeset": 13274337,
      "user": "mnebjb",
      "uid": 564122,
      "tags": {
        "name": "Le Romaneix",
        "place": "hamlet"
      }
    },
    {
      "type": "node",
      "id": 986827532,
      "lat": 45.8652575,
      "lon": 2.5631419,
      "timestamp": "2012-07-17T15:02:21Z",
      "version": 2,
      "changeset": 12267893,
      "user": "mnebjb",
      "uid": 564122,
      "tags": {
        "name": "Le Cheval Blanc",
        "place": "hamlet"
      }
    },
    {
      "type": "node",
      "id": 986827553,
      "lat": 45.8588224,
      "lon": 2.5797821,
      "timestamp": "2010-11-12T18:08:09Z",
      "version": 1,
      "changeset": 6352793,
      "user": "PhQ",
      "uid": 141978,
      "tags": {
        "name": "Puy Maury",
        "place": "hamlet"
      }
    },
    {
      "type": "node",
      "id": 986827576,
      "lat": 45.8709962,
      "lon": 2.517749,
      "timestamp": "2010-11-12T18:08:10Z",
      "version": 1,
      "changeset": 6352793,
      "user": "PhQ",
      "uid": 141978,
      "tags": {
        "name": "Le Guet",
        "place": "hamlet"
      }
    },
    {
      "type": "node",
      "id": 986827592,
      "lat": 45.8718983,
      "lon": 2.525503,
      "timestamp": "2020-02-08T01:27:20Z",
      "version": 7,
      "changeset": 80713306,
      "user": "vincent_95",
      "uid": 49047,
      "tags": {
        "addr:postcode": "63380",
        "name": "Saint-Avit",
        "place": "village"
      }
    },
    {
      "type": "node",
      "id": 986827712,
      "lat": 45.8660303,
      "lon": 2.5339998,
      "timestamp": "2010-11-12T18:08:14Z",
      "version": 1,
      "changeset": 6352793,
      "user": "PhQ",
      "uid": 141978,
      "tags": {
        "name": "Bavard",
        "place": "hamlet"
      }
    },
    {
      "type": "node",
      "id": 986827743,
      "lat": 45.8871355,
      "lon": 2.4910201,
      "timestamp": "2016-02-24T17:12:07Z",
      "version": 3,
      "changeset": 37416934,
      "user": "philBr",
      "uid": 3631894,
      "tags": {
        "addr:city": "Mérinchal",
        "addr:postcode": "23420",
        "name": "Létrade",
        "place": "hamlet"
      }
    },
    {
      "type": "node",
      "id": 986860333,
      "lat": 45.860499,
      "lon": 2.6335404,
      "timestamp": "2010-11-12T18:47:34Z",
      "version": 1,
      "changeset": 6353115,
      "user": "PhQ",
      "uid": 141978,
      "tags": {
        "name": "La Roche",
        "place": "hamlet"
      }
    },
    {
      "type": "node",
      "id": 986860407,
      "lat": 45.8604283,
      "lon": 2.5927318,
      "timestamp": "2010-11-12T18:47:35Z",
      "version": 1,
      "changeset": 6353115,
      "user": "PhQ",
      "uid": 141978,
      "tags": {
        "name": "La Baraque",
        "place": "hamlet"
      }
    },
    {
      "type": "node",
      "id": 986860542,
      "lat": 45.8609365,
      "lon": 2.6393839,
      "timestamp": "2010-11-12T18:47:37Z",
      "version": 1,
      "changeset": 6353115,
      "user": "PhQ",
      "uid": 141978,
      "tags": {
        "name": "Le Boueix",
        "place": "hamlet"
      }
    },
    {
      "type": "node",
      "id": 986900923,
      "lat": 45.8348417,
      "lon": 2.7236941,
      "timestamp": "2011-09-04T14:04:48Z",
      "version": 2,
      "changeset": 9209229,
      "user": "Jean Luc",
      "uid": 336355,
      "tags": {
        "name": "Ballot",
        "place": "hamlet"
      }
    },
    {
      "type": "node",
      "id": 986900948,
      "lat": 45.8432241,
      "lon": 2.7737946,
      "timestamp": "2012-01-22T12:46:58Z",
      "version": 2,
      "changeset": 10464103,
      "user": "PhQ",
      "uid": 141978,
      "tags": {
        "name": "La Fayolle",
        "place": "hamlet"
      }
    },
    {
      "type": "node",
      "id": 986900983,
      "lat": 45.842035,
      "lon": 2.759199,
      "timestamp": "2020-04-21T11:31:30Z",
      "version": 5,
      "changeset": 83877714,
      "user": "oc-OpenStreetMap",
      "uid": 4224320,
      "tags": {
        "addr:postcode": "63230",
        "name": "La Goutelle",
        "name:oc": "La Gotèla",
        "place": "village",
        "source:name:oc": "ieo-bdtopoc"
      }
    },
    {
      "type": "node",
      "id": 988993517,
      "lat": 45.6588888,
      "lon": 2.8042747,
      "timestamp": "2010-11-14T17:33:44Z",
      "version": 1,
      "changeset": 6368860,
      "user": "Pantoine",
      "uid": 339468,
      "tags": {
        "name": "La Gratade",
        "place": "hamlet"
      }
    },
    {
      "type": "node",
      "id": 988995664,
      "lat": 45.674648,
      "lon": 2.8070854,
      "timestamp": "2017-01-02T16:24:31Z",
      "version": 2,
      "changeset": 44849099,
      "user": "MRaynaud",
      "uid": 207395,
      "tags": {
        "name": "Largillier",
        "place": "hamlet"
      }
    },
    {
      "type": "node",
      "id": 988996286,
      "lat": 45.6732239,
      "lon": 2.7856912,
      "timestamp": "2010-11-14T17:37:48Z",
      "version": 1,
      "changeset": 6368912,
      "user": "Pantoine",
      "uid": 339468,
      "tags": {
        "name": "Les Buges",
        "place": "hamlet"
      }
    },
    {
      "type": "node",
      "id": 990036916,
      "lat": 45.6870504,
      "lon": 2.7412586,
      "timestamp": "2010-11-15T13:14:34Z",
      "version": 1,
      "changeset": 6377278,
      "user": "Pantoine",
      "uid": 339468,
      "tags": {
        "name": "Géollère",
        "place": "hamlet"
      }
    },
    {
      "type": "node",
      "id": 990042685,
      "lat": 45.627732,
      "lon": 2.7326907,
      "timestamp": "2019-10-01T21:32:28Z",
      "version": 2,
      "changeset": 75171926,
      "user": "Sept Carto",
      "uid": 7664547,
      "tags": {
        "name": "L'Estomble",
        "place": "hamlet"
      }
    },
    {
      "type": "node",
      "id": 990043893,
      "lat": 45.6264362,
      "lon": 2.7266811,
      "timestamp": "2019-10-01T21:32:28Z",
      "version": 2,
      "changeset": 75171926,
      "user": "Sept Carto",
      "uid": 7664547,
      "tags": {
        "name": "La Croze",
        "place": "hamlet"
      }
    },
    {
      "type": "node",
      "id": 990209452,
      "lat": 45.6156438,
      "lon": 2.7041435,
      "timestamp": "2010-11-15T16:57:00Z",
      "version": 1,
      "changeset": 6378771,
      "user": "Pantoine",
      "uid": 339468,
      "tags": {
        "name": "Hors",
        "place": "hamlet"
      }
    },
    {
      "type": "node",
      "id": 990215997,
      "lat": 45.6148575,
      "lon": 2.717699,
      "timestamp": "2010-11-15T17:14:13Z",
      "version": 1,
      "changeset": 6378863,
      "user": "Pantoine",
      "uid": 339468,
      "tags": {
        "name": "Paillers",
        "place": "hamlet",
        "source": "Orthophotographie CRAIG/TopoGEODIS 2009"
      }
    },
    {
      "type": "node",
      "id": 990217145,
      "lat": 45.6158199,
      "lon": 2.6695427,
      "timestamp": "2010-11-15T17:18:12Z",
      "version": 1,
      "changeset": 6378884,
      "user": "Pantoine",
      "uid": 339468,
      "tags": {
        "name": "Choriol",
        "place": "hamlet"
      }
    },
    {
      "type": "node",
      "id": 990217150,
      "lat": 45.6062946,
      "lon": 2.6882708,
      "timestamp": "2020-04-19T18:04:40Z",
      "version": 9,
      "changeset": 83781067,
      "user": "oc-OpenStreetMap",
      "uid": 4224320,
      "tags": {
        "addr:postcode": "63950",
        "census": "2006",
        "name": "Saint-Sauves-d'Auvergne",
        "name:oc": "Sent Sauve d'Auvèrnhe",
        "place": "village",
        "ref:FR:SIREN": "216303974",
        "source:name:oc": "ieo-bdtopoc"
      }
    },
    {
      "type": "node",
      "id": 990220413,
      "lat": 45.5968238,
      "lon": 2.6916217,
      "timestamp": "2015-01-14T15:17:41Z",
      "version": 2,
      "changeset": 28139781,
      "user": "Aroche",
      "uid": 50179,
      "tags": {
        "name": "Châteauneuf",
        "place": "hamlet"
      }
    },
    {
      "type": "node",
      "id": 990229567,
      "lat": 45.6412031,
      "lon": 2.6937202,
      "timestamp": "2010-11-15T17:51:06Z",
      "version": 1,
      "changeset": 6379140,
      "user": "Pantoine",
      "uid": 339468,
      "tags": {
        "name": "La Cluze",
        "place": "hamlet"
      }
    },
    {
      "type": "node",
      "id": 990229568,
      "lat": 45.6354645,
      "lon": 2.6942179,
      "timestamp": "2010-11-15T17:51:06Z",
      "version": 1,
      "changeset": 6379140,
      "user": "Pantoine",
      "uid": 339468,
      "tags": {
        "name": "Goulandre",
        "place": "hamlet"
      }
    },
    {
      "type": "node",
      "id": 990229575,
      "lat": 45.6453049,
      "lon": 2.7178785,
      "timestamp": "2021-03-02T20:29:14Z",
      "version": 2,
      "changeset": 100303413,
      "user": "Capello13",
      "uid": 2255719,
      "tags": {
        "name": "Terrisse",
        "place": "hamlet"
      }
    },
    {
      "type": "node",
      "id": 990233029,
      "lat": 45.6993536,
      "lon": 2.6567564,
      "timestamp": "2020-04-20T15:30:16Z",
      "version": 8,
      "changeset": 83830088,
      "user": "oc-OpenStreetMap",
      "uid": 4224320,
      "tags": {
        "addr:postcode": "63820",
        "name": "Briffons",
        "name:oc": "Aprifons",
        "place": "village",
        "source:name:oc": "ieo-bdtopoc"
      }
    },
    {
      "type": "node",
      "id": 990237771,
      "lat": 45.665626,
      "lon": 2.6724466,
      "timestamp": "2020-02-08T01:27:20Z",
      "version": 7,
      "changeset": 80713306,
      "user": "vincent_95",
      "uid": 49047,
      "tags": {
        "addr:postcode": "63820",
        "name": "Saint-Julien-Puy-Lavèze",
        "place": "village"
      }
    },
    {
      "type": "node",
      "id": 990237860,
      "lat": 45.6762561,
      "lon": 2.6808268,
      "timestamp": "2010-11-15T18:07:45Z",
      "version": 1,
      "changeset": 6379273,
      "user": "Pantoine",
      "uid": 339468,
      "tags": {
        "name": "Bajouve",
        "place": "hamlet"
      }
    },
    {
      "type": "node",
      "id": 990237861,
      "lat": 45.6709386,
      "lon": 2.6963246,
      "timestamp": "2010-11-15T18:07:45Z",
      "version": 1,
      "changeset": 6379273,
      "user": "Pantoine",
      "uid": 339468,
      "tags": {
        "name": "Puy-Lavèze",
        "place": "hamlet"
      }
    },
    {
      "type": "node",
      "id": 990239201,
      "lat": 45.6558577,
      "lon": 2.6661117,
      "timestamp": "2010-11-15T18:11:05Z",
      "version": 1,
      "changeset": 6379309,
      "user": "Pantoine",
      "uid": 339468,
      "tags": {
        "name": "Feix",
        "place": "hamlet"
      }
    },
    {
      "type": "node",
      "id": 990317226,
      "lat": 45.6672775,
      "lon": 2.6464289,
      "timestamp": "2010-11-15T20:02:51Z",
      "version": 1,
      "changeset": 6380145,
      "user": "Pantoine",
      "uid": 339468,
      "tags": {
        "name": "La Vezolle",
        "place": "hamlet"
      }
    },
    {
      "type": "node",
      "id": 990317246,
      "lat": 45.6921969,
      "lon": 2.6839786,
      "timestamp": "2010-11-15T20:02:52Z",
      "version": 1,
      "changeset": 6380145,
      "user": "Pantoine",
      "uid": 339468,
      "tags": {
        "name": "Soulier",
        "place": "hamlet"
      }
    },
    {
      "type": "node",
      "id": 990380391,
      "lat": 45.6243319,
      "lon": 2.522893,
      "timestamp": "2010-11-15T21:07:16Z",
      "version": 1,
      "changeset": 6380750,
      "user": "Pantoine",
      "uid": 339468,
      "tags": {
        "name": "Bialon",
        "place": "hamlet"
      }
    },
    {
      "type": "node",
      "id": 990380496,
      "lat": 45.639216,
      "lon": 2.5252061,
      "timestamp": "2014-09-10T22:31:46Z",
      "version": 2,
      "changeset": 25357957,
      "user": "Olyon",
      "uid": 1443767,
      "tags": {
        "name": "Tauvert",
        "place": "hamlet"
      }
    },
    {
      "type": "node",
      "id": 990380555,
      "lat": 45.6389362,
      "lon": 2.5799272,
      "timestamp": "2010-11-15T21:07:19Z",
      "version": 1,
      "changeset": 6380750,
      "user": "Pantoine",
      "uid": 339468,
      "tags": {
        "name": "Farreyrolles",
        "place": "hamlet"
      }
    },
    {
      "type": "node",
      "id": 990914498,
      "lat": 45.6528686,
      "lon": 2.4633802,
      "timestamp": "2017-10-16T18:07:06Z",
      "version": 2,
      "changeset": 52988407,
      "user": "FrViPofm",
      "uid": 107257,
      "tags": {
        "name": "Labeille",
        "place": "hamlet"
      }
    },
    {
      "type": "node",
      "id": 990961886,
      "lat": 45.5900981,
      "lon": 2.4933762,
      "timestamp": "2020-04-19T18:04:41Z",
      "version": 9,
      "changeset": 83781067,
      "user": "oc-OpenStreetMap",
      "uid": 4224320,
      "tags": {
        "addr:postcode": "63750",
        "census": "2006",
        "name": "Savennes",
        "name:oc": "Cevena",
        "place": "village",
        "ref:FR:SIREN": "216304162",
        "source:name:oc": "ieo-bdtopoc"
      }
    },
    {
      "type": "node",
      "id": 991017893,
      "lat": 45.5914979,
      "lon": 2.4821609,
      "timestamp": "2020-12-28T10:28:16Z",
      "version": 3,
      "changeset": 96527577,
      "user": "Hervé TUC",
      "uid": 922338,
      "tags": {
        "name": "Feix",
        "place": "hamlet"
      }
    },
    {
      "type": "node",
      "id": 991249809,
      "lat": 45.5992707,
      "lon": 2.5058465,
      "timestamp": "2010-11-16T13:41:00Z",
      "version": 1,
      "changeset": 6385152,
      "user": "Pantoine",
      "uid": 339468,
      "tags": {
        "name": "Ruère",
        "place": "hamlet"
      }
    },
    {
      "type": "node",
      "id": 991277994,
      "lat": 45.6001379,
      "lon": 2.5226686,
      "timestamp": "2010-11-16T13:56:07Z",
      "version": 1,
      "changeset": 6385246,
      "user": "Pantoine",
      "uid": 339468,
      "tags": {
        "name": "La Brugière",
        "place": "hamlet"
      }
    },
    {
      "type": "node",
      "id": 991280125,
      "lat": 45.5871653,
      "lon": 2.5325077,
      "timestamp": "2010-11-16T14:00:11Z",
      "version": 1,
      "changeset": 6385259,
      "user": "Pantoine",
      "uid": 339468,
      "tags": {
        "name": "Planchadel",
        "place": "hamlet"
      }
    },
    {
      "type": "node",
      "id": 1018389864,
      "lat": 45.8064884,
      "lon": 2.5376633,
      "timestamp": "2020-04-19T18:04:41Z",
      "version": 8,
      "changeset": 83781067,
      "user": "oc-OpenStreetMap",
      "uid": 4224320,
      "tags": {
        "addr:postcode": "63620",
        "name": "Voingt",
        "name:oc": "Vint",
        "place": "village",
        "source:name:oc": "ieo-bdtopoc"
      }
    },
    {
      "type": "node",
      "id": 1018390258,
      "lat": 45.8285713,
      "lon": 2.5279966,
      "timestamp": "2012-10-22T12:47:14Z",
      "version": 2,
      "changeset": 13592473,
      "user": "mnebjb",
      "uid": 564122,
      "tags": {
        "name": "Trachaize",
        "place": "hamlet"
      }
    },
    {
      "type": "node",
      "id": 1067435158,
      "lat": 45.8599587,
      "lon": 2.5141157,
      "timestamp": "2012-09-26T18:57:04Z",
      "version": 2,
      "changeset": 13263373,
      "user": "mnebjb",
      "uid": 564122,
      "tags": {
        "name": "Tyx",
        "place": "hamlet"
      }
    },
    {
      "type": "node",
      "id": 1070490238,
      "lat": 45.8303625,
      "lon": 2.4940752,
      "timestamp": "2013-02-05T15:08:50Z",
      "version": 2,
      "changeset": 14922991,
      "user": "mnebjb",
      "uid": 564122,
      "tags": {
        "name": "Neuvialle",
        "place": "hamlet"
      }
    },
    {
      "type": "node",
      "id": 1072773477,
      "lat": 45.7695305,
      "lon": 2.5603679,
      "timestamp": "2013-01-16T11:15:06Z",
      "version": 2,
      "changeset": 14671241,
      "user": "mnebjb",
      "uid": 564122,
      "tags": {
        "name": "Les Granges",
        "place": "hamlet"
      }
    },
    {
      "type": "node",
      "id": 1072895301,
      "lat": 45.7492033,
      "lon": 2.579349,
      "timestamp": "2013-01-16T10:24:50Z",
      "version": 2,
      "changeset": 14670745,
      "user": "mnebjb",
      "uid": 564122,
      "tags": {
        "name": "Chez Denis",
        "place": "hamlet"
      }
    },
    {
      "type": "node",
      "id": 1072895811,
      "lat": 45.7441122,
      "lon": 2.5526208,
      "timestamp": "2013-01-15T15:12:29Z",
      "version": 2,
      "changeset": 14661944,
      "user": "mnebjb",
      "uid": 564122,
      "tags": {
        "name": "Villedemange",
        "place": "hamlet"
      }
    },
    {
      "type": "node",
      "id": 1184211174,
      "lat": 45.9097976,
      "lon": 2.389226,
      "timestamp": "2011-03-03T11:01:45Z",
      "version": 1,
      "changeset": 7444768,
      "user": "RatZillaS",
      "uid": 24207,
      "tags": {
        "name": "Chazepeau",
        "place": "hamlet"
      }
    },
    {
      "type": "node",
      "id": 1210237487,
      "lat": 45.9000611,
      "lon": 2.4067295,
      "timestamp": "2011-03-20T09:59:03Z",
      "version": 1,
      "changeset": 7614322,
      "user": "PhQ",
      "uid": 141978,
      "tags": {
        "name": "Chaminas",
        "place": "hamlet"
      }
    },
    {
      "type": "node",
      "id": 1210237491,
      "lat": 45.9091579,
      "lon": 2.3964498,
      "timestamp": "2011-03-20T09:59:03Z",
      "version": 1,
      "changeset": 7614322,
      "user": "PhQ",
      "uid": 141978,
      "tags": {
        "name": "La Maison Rouge",
        "place": "hamlet"
      }
    },
    {
      "type": "node",
      "id": 1210237493,
      "lat": 45.8984711,
      "lon": 2.4089384,
      "timestamp": "2020-04-23T10:39:16Z",
      "version": 7,
      "changeset": 83995698,
      "user": "oc-OpenStreetMap",
      "uid": 4224320,
      "tags": {
        "addr:postcode": "23260",
        "name": "La Villeneuve",
        "name:oc": "La Vilanueva",
        "place": "village",
        "source:name:oc": "ieo-bdtopoc"
      }
    },
    {
      "type": "node",
      "id": 1210245263,
      "lat": 45.9183658,
      "lon": 2.3403508,
      "timestamp": "2020-04-23T10:39:16Z",
      "version": 7,
      "changeset": 83995698,
      "user": "oc-OpenStreetMap",
      "uid": 4224320,
      "tags": {
        "addr:postcode": "23260",
        "name": "La Villetelle",
        "name:oc": "La Vialatèla",
        "place": "village",
        "source:name:oc": "ieo-bdtopoc"
      }
    },
    {
      "type": "node",
      "id": 1241023998,
      "lat": 45.7261034,
      "lon": 2.7858637,
      "timestamp": "2014-02-03T06:11:59Z",
      "version": 2,
      "changeset": 20347212,
      "user": "rando67",
      "uid": 466374,
      "tags": {
        "name": "Le Colombier",
        "place": "hamlet"
      }
    },
    {
      "type": "node",
      "id": 1342951098,
      "lat": 45.6130698,
      "lon": 2.7771579,
      "timestamp": "2020-12-29T10:12:27Z",
      "version": 3,
      "changeset": 96591086,
      "user": "Hervé TUC",
      "uid": 922338,
      "tags": {
        "ele": "1450",
        "mountain_pass": "yes",
        "name": "Col de Saint Laurent",
        "natural": "saddle"
      }
    },
    {
      "type": "node",
      "id": 1403599492,
      "lat": 45.5946634,
      "lon": 2.7616804,
      "timestamp": "2020-03-22T19:36:51Z",
      "version": 4,
      "changeset": 82492748,
      "user": "PanierAvide",
      "uid": 214436,
      "tags": {
        "brand": "Intermarché",
        "brand:wikidata": "Q3153200",
        "brand:wikipedia": "fr:Intermarché",
        "name": "Intermarché Super",
        "operator": "Groupement des Mousquetaires",
        "shop": "supermarket"
      }
    },
    {
      "type": "node",
      "id": 1404766830,
      "lat": 45.5874179,
      "lon": 2.795352,
      "timestamp": "2011-08-19T18:52:26Z",
      "version": 1,
      "changeset": 9068172,
      "user": "PhQ",
      "uid": 141978,
      "tags": {
        "amenity": "shelter"
      }
    },
    {
      "type": "node",
      "id": 1404767093,
      "lat": 45.5894653,
      "lon": 2.7766291,
      "timestamp": "2011-08-19T18:52:33Z",
      "version": 1,
      "changeset": 9068172,
      "user": "PhQ",
      "uid": 141978,
      "tags": {
        "amenity": "drinking_water"
      }
    },
    {
      "type": "node",
      "id": 1423028875,
      "lat": 45.8854926,
      "lon": 2.7405317,
      "timestamp": "2012-07-18T19:32:06Z",
      "version": 2,
      "changeset": 12294980,
      "user": "mnebjb",
      "uid": 564122,
      "tags": {
        "name": "Banlaud",
        "place": "hamlet",
        "source": "Orthophotographie CRAIG/TopoGEODIS 2009"
      }
    },
    {
      "type": "node",
      "id": 1423028876,
      "lat": 45.8800003,
      "lon": 2.757342,
      "timestamp": "2011-09-04T13:42:09Z",
      "version": 1,
      "changeset": 9209011,
      "user": "Jean Luc",
      "uid": 336355,
      "tags": {
        "name": "Cornet",
        "place": "hamlet",
        "source": "Orthophotographie CRAIG/TopoGEODIS 2009"
      }
    },
    {
      "type": "node",
      "id": 1423028877,
      "lat": 45.8929781,
      "lon": 2.755817,
      "timestamp": "2011-09-04T13:42:09Z",
      "version": 1,
      "changeset": 9209011,
      "user": "Jean Luc",
      "uid": 336355,
      "tags": {
        "name": "La Barre",
        "place": "hamlet",
        "source": "Orthophotographie CRAIG/TopoGEODIS 2009"
      }
    },
    {
      "type": "node",
      "id": 1423032971,
      "lat": 45.9067002,
      "lon": 2.7512215,
      "timestamp": "2016-02-22T22:23:36Z",
      "version": 3,
      "changeset": 37378318,
      "user": "rabeyroux",
      "uid": 805590,
      "tags": {
        "name": "La Chazotte",
        "place": "hamlet",
        "source": "Orthophotographie CRAIG/TopoGEODIS 2009"
      }
    },
    {
      "type": "node",
      "id": 1423057029,
      "lat": 45.8274385,
      "lon": 2.7144342,
      "timestamp": "2013-03-09T22:01:02Z",
      "version": 2,
      "changeset": 15307861,
      "user": "la colle",
      "uid": 530603,
      "tags": {
        "name": "Le Cheix",
        "place": "hamlet",
        "source": "Orthophotographie CRAIG/TopoGEODIS 2009"
      }
    },
    {
      "type": "node",
      "id": 1423057030,
      "lat": 45.8132517,
      "lon": 2.71857,
      "timestamp": "2013-03-09T22:01:02Z",
      "version": 2,
      "changeset": 15307861,
      "user": "la colle",
      "uid": 530603,
      "tags": {
        "name": "Les Imbauds",
        "place": "hamlet",
        "source": "Orthophotographie CRAIG/TopoGEODIS 2009"
      }
    },
    {
      "type": "node",
      "id": 1423057033,
      "lat": 45.8251256,
      "lon": 2.721982,
      "timestamp": "2013-03-09T22:01:02Z",
      "version": 2,
      "changeset": 15307861,
      "user": "la colle",
      "uid": 530603,
      "tags": {
        "name": "Les Vialles",
        "place": "hamlet",
        "source": "Orthophotographie CRAIG/TopoGEODIS 2009"
      }
    },
    {
      "type": "node",
      "id": 1423064264,
      "lat": 45.8268284,
      "lon": 2.6848982,
      "timestamp": "2013-03-09T22:01:02Z",
      "version": 2,
      "changeset": 15307861,
      "user": "la colle",
      "uid": 530603,
      "tags": {
        "name": "La Forêt",
        "place": "hamlet",
        "source": "Orthophotographie CRAIG/TopoGEODIS 2009"
      }
    },
    {
      "type": "node",
      "id": 1423098400,
      "lat": 45.7892574,
      "lon": 2.7051954,
      "timestamp": "2020-04-20T18:59:28Z",
      "version": 8,
      "changeset": 83838518,
      "user": "oc-OpenStreetMap",
      "uid": 4224320,
      "tags": {
        "addr:postcode": "63740",
        "name": "Cisternes-la-Forêt",
        "name:oc": "Cisternas",
        "place": "village",
        "source": "Orthophotographie CRAIG/TopoGEODIS 2009",
        "source:name:oc": "ieo-bdtopoc"
      }
    },
    {
      "type": "node",
      "id": 1423106933,
      "lat": 45.7696093,
      "lon": 2.7625344,
      "timestamp": "2020-02-08T01:27:20Z",
      "version": 7,
      "changeset": 80713306,
      "user": "vincent_95",
      "uid": 49047,
      "tags": {
        "addr:postcode": "63740",
        "name": "Gelles",
        "place": "village",
        "source": "Orthophotographie CRAIG/TopoGEODIS 2009"
      }
    },
    {
      "type": "node",
      "id": 1472869066,
      "lat": 45.9930534,
      "lon": 2.8070507,
      "timestamp": "2020-04-19T18:04:44Z",
      "version": 10,
      "changeset": 83781067,
      "user": "oc-OpenStreetMap",
      "uid": 4224320,
      "tags": {
        "addr:postcode": "63390",
        "name": "Sauret-Besserve",
        "name:oc": "Sauret e Beçerva",
        "name:uk": "Соре-Бессерв",
        "place": "village",
        "source:name:oc": "ieo-bdtopoc",
        "wikidata": "Q934066",
        "wikipedia": "fr:Sauret-Besserve"
      }
    },
    {
      "type": "node",
      "id": 1482539496,
      "lat": 45.7877587,
      "lon": 2.2998575,
      "timestamp": "2013-04-28T18:44:06Z",
      "version": 3,
      "changeset": 15898960,
      "user": "rabeyroux",
      "uid": 805590,
      "tags": {
        "name": "La Besse",
        "place": "hamlet"
      }
    },
    {
      "type": "node",
      "id": 1482539558,
      "lat": 45.7641806,
      "lon": 2.2928153,
      "timestamp": "2013-04-28T18:33:19Z",
      "version": 2,
      "changeset": 15898960,
      "user": "rabeyroux",
      "uid": 805590,
      "tags": {
        "name": "Foulnoux",
        "place": "hamlet"
      }
    },
    {
      "type": "node",
      "id": 1482539573,
      "lat": 45.7860183,
      "lon": 2.2950921,
      "timestamp": "2014-03-08T21:06:45Z",
      "version": 2,
      "changeset": 20994880,
      "user": "rabeyroux",
      "uid": 805590,
      "tags": {
        "name": "Measne",
        "place": "hamlet"
      }
    },
    {
      "type": "node",
      "id": 1483540823,
      "lat": 45.698791,
      "lon": 2.6101005,
      "timestamp": "2011-11-06T10:20:58Z",
      "version": 2,
      "changeset": 9753985,
      "user": "frodrigo",
      "uid": 25762,
      "tags": {
        "name": "Combas",
        "place": "hamlet"
      }
    },
    {
      "type": "node",
      "id": 1514170891,
      "lat": 45.891816,
      "lon": 2.5416764,
      "timestamp": "2012-09-26T16:24:15Z",
      "version": 2,
      "changeset": 13261615,
      "user": "mnebjb",
      "uid": 564122,
      "tags": {
        "name": "Sonazet",
        "place": "hamlet"
      }
    },
    {
      "type": "node",
      "id": 1539884978,
      "lat": 45.9132749,
      "lon": 2.1999966,
      "timestamp": "2017-09-10T04:03:13Z",
      "version": 5,
      "changeset": 51896762,
      "user": "nyuriks",
      "uid": 339581,
      "tags": {
        "name": "Saint-Hilaire",
        "name:uk": "Мутьє-Розей",
        "place": "hamlet",
        "wikidata": "Q193334",
        "wikipedia": "fr:Saint-Hilaire (Creuse)"
      }
    },
    {
      "type": "node",
      "id": 1539885007,
      "lat": 45.9175892,
      "lon": 2.1986651,
      "timestamp": "2020-04-23T11:16:07Z",
      "version": 8,
      "changeset": 83997928,
      "user": "oc-OpenStreetMap",
      "uid": 4224320,
      "tags": {
        "addr:postcode": "23200",
        "name": "Moutier-Rozeille",
        "name:oc": "Mostier de Roselha",
        "place": "village",
        "source:name:oc": "ieo-bdtopoc",
        "wikidata": "Q193334",
        "wikipedia": "fr:Moutier-Rozeille"
      }
    },
    {
      "type": "node",
      "id": 1542822775,
      "lat": 45.7403679,
      "lon": 2.7910384,
      "timestamp": "2020-01-10T00:47:33Z",
      "version": 2,
      "changeset": 79396989,
      "user": "Olyon",
      "uid": 1443767,
      "tags": {
        "name": "Monges",
        "place": "hamlet"
      }
    },
    {
      "type": "node",
      "id": 1542822799,
      "lat": 45.7624621,
      "lon": 2.8056025,
      "timestamp": "2011-12-12T16:59:38Z",
      "version": 1,
      "changeset": 10100826,
      "user": "PhQ",
      "uid": 141978,
      "tags": {
        "name": "Say",
        "place": "hamlet"
      }
    },
    {
      "type": "node",
      "id": 1542822804,
      "lat": 45.7537937,
      "lon": 2.7998666,
      "timestamp": "2011-12-12T16:59:38Z",
      "version": 1,
      "changeset": 10100826,
      "user": "PhQ",
      "uid": 141978,
      "tags": {
        "name": "Vareilles",
        "place": "hamlet"
      }
    },
    {
      "type": "node",
      "id": 1545872089,
      "lat": 45.9263109,
      "lon": 2.5842765,
      "timestamp": "2011-12-14T15:23:59Z",
      "version": 1,
      "changeset": 10116802,
      "user": "PhQ",
      "uid": 141978,
      "tags": {
        "name": "Crosacoigne",
        "place": "hamlet"
      }
    },
    {
      "type": "node",
      "id": 1545872120,
      "lat": 45.8845585,
      "lon": 2.5847775,
      "timestamp": "2011-12-14T15:23:59Z",
      "version": 1,
      "changeset": 10116802,
      "user": "PhQ",
      "uid": 141978,
      "tags": {
        "name": "Le Cros",
        "place": "hamlet"
      }
    },
    {
      "type": "node",
      "id": 1545872127,
      "lat": 45.8978044,
      "lon": 2.5891222,
      "timestamp": "2011-12-14T15:23:59Z",
      "version": 1,
      "changeset": 10116802,
      "user": "PhQ",
      "uid": 141978,
      "tags": {
        "name": "Le Grand Tralaigues",
        "place": "hamlet"
      }
    },
    {
      "type": "node",
      "id": 1545872134,
      "lat": 45.9208054,
      "lon": 2.5910069,
      "timestamp": "2011-12-14T15:24:00Z",
      "version": 1,
      "changeset": 10116802,
      "user": "PhQ",
      "uid": 141978,
      "tags": {
        "name": "Les Breux",
        "place": "hamlet"
      }
    },
    {
      "type": "node",
      "id": 1545872142,
      "lat": 45.9048979,
      "lon": 2.5914446,
      "timestamp": "2011-12-14T15:24:00Z",
      "version": 1,
      "changeset": 10116802,
      "user": "PhQ",
      "uid": 141978,
      "tags": {
        "name": "Les Merciers",
        "place": "hamlet"
      }
    },
    {
      "type": "node",
      "id": 1545872169,
      "lat": 45.895816,
      "lon": 2.5660366,
      "timestamp": "2011-12-14T15:24:00Z",
      "version": 1,
      "changeset": 10116802,
      "user": "PhQ",
      "uid": 141978,
      "tags": {
        "name": "Saint-Bard",
        "place": "hamlet"
      }
    },
    {
      "type": "node",
      "id": 1546195747,
      "lat": 45.8391438,
      "lon": 2.6383176,
      "timestamp": "2012-12-12T10:58:08Z",
      "version": 2,
      "changeset": 14247663,
      "user": "mnebjb",
      "uid": 564122,
      "tags": {
        "name": "Le Montaurier",
        "place": "hamlet"
      }
    },
    {
      "type": "node",
      "id": 1574246514,
      "lat": 45.6131348,
      "lon": 2.327982,
      "timestamp": "2020-04-22T15:12:10Z",
      "version": 7,
      "changeset": 83948855,
      "user": "oc-OpenStreetMap",
      "uid": 4224320,
      "tags": {
        "addr:postcode": "19200",
        "name": "Saint-Pardoux-le-Neuf",
        "name:oc": "Sent Pardós Nuòu",
        "place": "village",
        "population": "70",
        "source:name:oc": "ieo-bdtopoc",
        "source:population": "INSEE 2013"
      }
    },
    {
      "type": "node",
      "id": 1574279342,
      "lat": 45.6490714,
      "lon": 2.342423,
      "timestamp": "2020-04-21T13:50:47Z",
      "version": 7,
      "changeset": 83885052,
      "user": "oc-OpenStreetMap",
      "uid": 4224320,
      "tags": {
        "addr:postcode": "19340",
        "name": "Courteix",
        "name:oc": "Cortés",
        "place": "village",
        "population": "63",
        "source:name:oc": "ieo-bdtopoc",
        "source:population": "INSEE 2013"
      }
    },
    {
      "type": "node",
      "id": 1574284264,
      "lat": 45.6612688,
      "lon": 2.3287732,
      "timestamp": "2020-04-21T13:50:48Z",
      "version": 9,
      "changeset": 83885052,
      "user": "oc-OpenStreetMap",
      "uid": 4224320,
      "tags": {
        "addr:postcode": "19340",
        "name": "Couffy-sur-Sarsonne",
        "name:oc": "Confin de Sarsòna",
        "place": "village",
        "population": "73",
        "source:name:oc": "ieo-bdtopoc",
        "source:population": "INSEE 2013"
      }
    },
    {
      "type": "node",
      "id": 1576914661,
      "lat": 45.7288261,
      "lon": 2.5844999,
      "timestamp": "2020-08-07T10:16:21Z",
      "version": 3,
      "changeset": 89085964,
      "user": "vinc44",
      "uid": 1060302,
      "tags": {
        "name": "Chadeau",
        "place": "hamlet"
      }
    },
    {
      "type": "node",
      "id": 1579313654,
      "lat": 45.6448097,
      "lon": 2.2247167,
      "timestamp": "2020-04-21T12:02:07Z",
      "version": 7,
      "changeset": 83879493,
      "user": "oc-OpenStreetMap",
      "uid": 4224320,
      "tags": {
        "addr:postcode": "19290",
        "name": "Bellechassagne",
        "name:oc": "Belachassanha",
        "place": "village",
        "population": "74",
        "source:name:oc": "ieo-bdtopoc",
        "source:population": "INSEE 2013"
      }
    },
    {
      "type": "node",
      "id": 1579619530,
      "lat": 45.6891768,
      "lon": 2.4751975,
      "timestamp": "2020-04-21T13:50:56Z",
      "version": 6,
      "changeset": 83885052,
      "user": "oc-OpenStreetMap",
      "uid": 4224320,
      "tags": {
        "addr:postcode": "19340",
        "name": "Feyt",
        "name:oc": "Fèit",
        "place": "village",
        "source:name:oc": "ieo-bdtopoc"
      }
    },
    {
      "type": "node",
      "id": 1581251808,
      "lat": 45.6710868,
      "lon": 2.3963594,
      "timestamp": "2020-04-21T20:10:28Z",
      "version": 6,
      "changeset": 83899837,
      "user": "oc-OpenStreetMap",
      "uid": 4224320,
      "tags": {
        "addr:postcode": "19340",
        "name": "Lamazière-Haute",
        "name:oc": "La Masiera Nauta",
        "place": "village",
        "source:name:oc": "ieo-bdtopoc"
      }
    },
    {
      "type": "node",
      "id": 1582223435,
      "lat": 45.7060334,
      "lon": 2.5066098,
      "timestamp": "2020-04-21T20:10:29Z",
      "version": 6,
      "changeset": 83899837,
      "user": "oc-OpenStreetMap",
      "uid": 4224320,
      "tags": {
        "addr:postcode": "19340",
        "name": "Laroche-près-Feyt",
        "name:oc": "La Ròcha (de Fait)",
        "place": "village",
        "population": "75",
        "source:name:oc": "ieo-bdtopoc"
      }
    },
    {
      "type": "node",
      "id": 1583835548,
      "lat": 45.6135987,
      "lon": 2.2961577,
      "timestamp": "2020-04-21T20:10:30Z",
      "version": 8,
      "changeset": 83899837,
      "user": "oc-OpenStreetMap",
      "uid": 4224320,
      "tags": {
        "addr:postcode": "19200",
        "name": "Lignareix",
        "name:oc": "Linhares",
        "place": "village",
        "population": "157",
        "source:name:oc": "ieo-bdtopoc",
        "source:population": "INSEE 2013"
      }
    },
    {
      "type": "node",
      "id": 1584598444,
      "lat": 45.8514106,
      "lon": 2.6618913,
      "timestamp": "2012-12-11T10:54:48Z",
      "version": 3,
      "changeset": 14236765,
      "user": "mnebjb",
      "uid": 564122,
      "tags": {
        "name": "Eyde",
        "place": "hamlet"
      }
    },
    {
      "type": "node",
      "id": 1584598556,
      "lat": 45.8358651,
      "lon": 2.6672542,
      "timestamp": "2012-12-12T10:58:08Z",
      "version": 3,
      "changeset": 14247663,
      "user": "mnebjb",
      "uid": 564122,
      "tags": {
        "name": "Les Tterrades",
        "place": "hamlet"
      }
    },
    {
      "type": "node",
      "id": 1590995735,
      "lat": 45.6007918,
      "lon": 2.1716468,
      "timestamp": "2012-01-15T15:56:17Z",
      "version": 1,
      "changeset": 10399472,
      "user": "la colle",
      "uid": 530603,
      "tags": {
        "name": "Freyte",
        "place": "hamlet"
      }
    },
    {
      "type": "node",
      "id": 1590995761,
      "lat": 45.586798,
      "lon": 2.1623074,
      "timestamp": "2012-01-15T15:56:18Z",
      "version": 1,
      "changeset": 10399472,
      "user": "la colle",
      "uid": 530603,
      "tags": {
        "name": "Lestrade",
        "place": "hamlet"
      }
    },
    {
      "type": "node",
      "id": 1591040334,
      "lat": 45.5937991,
      "lon": 2.1928363,
      "timestamp": "2012-01-15T16:19:23Z",
      "version": 1,
      "changeset": 10399472,
      "user": "la colle",
      "uid": 530603,
      "tags": {
        "name": "Le Malaurent",
        "place": "hamlet"
      }
    },
    {
      "type": "node",
      "id": 1591058673,
      "lat": 45.6126732,
      "lon": 2.206301,
      "timestamp": "2020-04-22T15:12:17Z",
      "version": 4,
      "changeset": 83948855,
      "user": "oc-OpenStreetMap",
      "uid": 4224320,
      "tags": {
        "name": "Saint-Germain-Lavolps",
        "name:oc": "Sent German (de) las Vòlps",
        "place": "village",
        "source:name:oc": "ieo-bdtopoc"
      }
    },
    {
      "type": "node",
      "id": 1591371320,
      "lat": 45.6953559,
      "lon": 2.1286442,
      "timestamp": "2020-04-22T15:12:17Z",
      "version": 6,
      "changeset": 83948855,
      "user": "oc-OpenStreetMap",
      "uid": 4224320,
      "tags": {
        "name": "Saint-Setiers",
        "name:oc": "Sent Sestari",
        "place": "village",
        "source:name:oc": "ieo-bdtopoc"
      }
    },
    {
      "type": "node",
      "id": 1591377766,
      "lat": 45.6934068,
      "lon": 2.1190179,
      "timestamp": "2020-12-26T09:37:58Z",
      "version": 3,
      "changeset": 96444173,
      "user": "Hervé TUC",
      "uid": 922338,
      "tags": {
        "ele": "909",
        "mountain_pass": "yes",
        "name": "Col de la Croix de la Mission",
        "natural": "saddle"
      }
    },
    {
      "type": "node",
      "id": 1592519237,
      "lat": 45.6058115,
      "lon": 2.2766793,
      "timestamp": "2020-04-22T15:12:18Z",
      "version": 6,
      "changeset": 83948855,
      "user": "oc-OpenStreetMap",
      "uid": 4224320,
      "tags": {
        "addr:postcode": "19200",
        "name": "Saint-Pardoux-le-Vieux",
        "name:oc": "Sent Pardós Vielh",
        "place": "village",
        "population": "281",
        "source:name:oc": "ieo-bdtopoc",
        "source:population": "INSEE 2013"
      }
    },
    {
      "type": "node",
      "id": 1597633965,
      "lat": 45.6437934,
      "lon": 2.6269095,
      "timestamp": "2020-04-19T18:04:45Z",
      "version": 8,
      "changeset": 83781067,
      "user": "oc-OpenStreetMap",
      "uid": 4224320,
      "tags": {
        "addr:postcode": "63760",
        "name": "Saint-Sulpice",
        "name:oc": "Sant Sulpici",
        "place": "village",
        "source:name:oc": "ieo-bdtopoc"
      }
    },
    {
      "type": "node",
      "id": 1601496402,
      "lat": 45.9051163,
      "lon": 2.5463626,
      "timestamp": "2012-09-26T18:20:44Z",
      "version": 2,
      "changeset": 13262855,
      "user": "mnebjb",
      "uid": 564122,
      "tags": {
        "name": "Baublange",
        "place": "hamlet"
      }
    },
    {
      "type": "node",
      "id": 1629732966,
      "lat": 45.8774485,
      "lon": 2.6178022,
      "timestamp": "2012-10-11T14:15:40Z",
      "version": 2,
      "changeset": 13454872,
      "user": "mnebjb",
      "uid": 564122,
      "tags": {
        "name": "Magnol",
        "place": "hamlet"
      }
    },
    {
      "type": "node",
      "id": 1629735182,
      "lat": 45.8800228,
      "lon": 2.6315345,
      "timestamp": "2012-10-11T14:15:40Z",
      "version": 2,
      "changeset": 13454872,
      "user": "mnebjb",
      "uid": 564122,
      "tags": {
        "name": "La Cassiére",
        "place": "hamlet"
      }
    },
    {
      "type": "node",
      "id": 1629739212,
      "lat": 45.8875334,
      "lon": 2.6253353,
      "timestamp": "2012-10-11T14:15:40Z",
      "version": 2,
      "changeset": 13454872,
      "user": "mnebjb",
      "uid": 564122,
      "tags": {
        "name": "Saunade",
        "place": "hamlet"
      }
    },
    {
      "type": "node",
      "id": 1629741070,
      "lat": 45.8954513,
      "lon": 2.6620904,
      "timestamp": "2012-10-11T13:17:23Z",
      "version": 2,
      "changeset": 13454245,
      "user": "mnebjb",
      "uid": 564122,
      "tags": {
        "name": "Les Salasses",
        "place": "hamlet"
      }
    },
    {
      "type": "node",
      "id": 1629743128,
      "lat": 45.9044426,
      "lon": 2.6738963,
      "timestamp": "2012-10-11T12:31:00Z",
      "version": 2,
      "changeset": 13453726,
      "user": "mnebjb",
      "uid": 564122,
      "tags": {
        "name": "La Peyrière",
        "place": "hamlet"
      }
    },
    {
      "type": "node",
      "id": 1642927406,
      "lat": 45.7675897,
      "lon": 2.7412464,
      "timestamp": "2012-02-22T10:34:28Z",
      "version": 1,
      "changeset": 10757864,
      "user": "PhQ",
      "uid": 141978,
      "tags": {
        "name": "La Narse",
        "place": "hamlet"
      }
    },
    {
      "type": "node",
      "id": 1642927407,
      "lat": 45.7658991,
      "lon": 2.7203809,
      "timestamp": "2012-02-22T10:34:28Z",
      "version": 1,
      "changeset": 10757864,
      "user": "PhQ",
      "uid": 141978,
      "tags": {
        "name": "Les Granges",
        "place": "hamlet"
      }
    },
    {
      "type": "node",
      "id": 1642927409,
      "lat": 45.5919451,
      "lon": 2.6621926,
      "timestamp": "2012-02-22T10:34:28Z",
      "version": 1,
      "changeset": 10757864,
      "user": "PhQ",
      "uid": 141978,
      "tags": {
        "name": "Mejanesse",
        "place": "hamlet"
      }
    },
    {
      "type": "node",
      "id": 1642927413,
      "lat": 45.7656768,
      "lon": 2.7124753,
      "timestamp": "2012-02-22T10:34:28Z",
      "version": 1,
      "changeset": 10757864,
      "user": "PhQ",
      "uid": 141978,
      "tags": {
        "name": "Pérol",
        "place": "hamlet"
      }
    },
    {
      "type": "node",
      "id": 1700568854,
      "lat": 45.6549837,
      "lon": 2.270854,
      "timestamp": "2020-04-22T15:12:27Z",
      "version": 6,
      "changeset": 83948855,
      "user": "oc-OpenStreetMap",
      "uid": 4224320,
      "tags": {
        "addr:postcode": "19290",
        "name": "Saint-Rémy",
        "name:oc": "Sent Remic",
        "place": "village",
        "population": "231",
        "source:name:oc": "ieo-bdtopoc",
        "source:population": "INSEE 2013"
      }
    },
    {
      "type": "node",
      "id": 1712663785,
      "lat": 45.8397394,
      "lon": 2.7294411,
      "timestamp": "2012-07-18T17:08:59Z",
      "version": 2,
      "changeset": 12290050,
      "user": "mnebjb",
      "uid": 564122,
      "tags": {
        "name": "Le Buchelier",
        "place": "hamlet"
      }
    },
    {
      "type": "node",
      "id": 1712673770,
      "lat": 45.8513065,
      "lon": 2.7202149,
      "timestamp": "2012-07-18T17:09:00Z",
      "version": 2,
      "changeset": 12290050,
      "user": "mnebjb",
      "uid": 564122,
      "tags": {
        "name": "Salmondèche",
        "place": "hamlet"
      }
    },
    {
      "type": "node",
      "id": 1712675774,
      "lat": 45.8552538,
      "lon": 2.7435074,
      "timestamp": "2012-07-18T17:09:00Z",
      "version": 2,
      "changeset": 12290050,
      "user": "mnebjb",
      "uid": 564122,
      "tags": {
        "name": "Pouget",
        "place": "hamlet"
      }
    },
    {
      "type": "node",
      "id": 1712676223,
      "lat": 45.8559315,
      "lon": 2.7674641,
      "timestamp": "2012-07-18T16:58:44Z",
      "version": 2,
      "changeset": 12289732,
      "user": "mnebjb",
      "uid": 564122,
      "tags": {
        "name": "Vanauze",
        "place": "hamlet"
      }
    },
    {
      "type": "node",
      "id": 1712677593,
      "lat": 45.8698568,
      "lon": 2.753983,
      "timestamp": "2012-07-18T16:58:43Z",
      "version": 2,
      "changeset": 12289732,
      "user": "mnebjb",
      "uid": 564122,
      "tags": {
        "name": "La Biot",
        "place": "hamlet"
      }
    },
    {
      "type": "node",
      "id": 1719666663,
      "lat": 45.5988,
      "lon": 2.5985,
      "timestamp": "2020-04-20T15:30:34Z",
      "version": 7,
      "changeset": 83830088,
      "user": "oc-OpenStreetMap",
      "uid": 4224320,
      "tags": {
        "addr:postcode": "63690",
        "name": "Avèze",
        "name:oc": "Avesa",
        "place": "village",
        "source:name:oc": "ieo-bdtopoc"
      }
    },
    {
      "type": "node",
      "id": 1719670631,
      "lat": 45.71897,
      "lon": 2.73261,
      "timestamp": "2020-04-21T11:31:49Z",
      "version": 9,
      "changeset": 83877714,
      "user": "oc-OpenStreetMap",
      "uid": 4224320,
      "tags": {
        "addr:postcode": "63210",
        "name": "Heume-l'Église",
        "name:oc": "Deume",
        "place": "village",
        "ref:FR:FANTOIR": "63176B052T",
        "source:name:oc": "ieo-bdtopoc"
      }
    },
    {
      "type": "node",
      "id": 1719672345,
      "lat": 45.80971,
      "lon": 2.43343,
      "timestamp": "2020-04-21T11:31:50Z",
      "version": 7,
      "changeset": 83877714,
      "user": "oc-OpenStreetMap",
      "uid": 4224320,
      "tags": {
        "addr:postcode": "63620",
        "name": "Fernoël",
        "name:oc": "Fernuel",
        "place": "village",
        "source:name:oc": "ieo-bdtopoc"
      }
    },
    {
      "type": "node",
      "id": 1721427605,
      "lat": 45.9250147,
      "lon": 2.8080693,
      "timestamp": "2020-04-21T11:31:50Z",
      "version": 7,
      "changeset": 83877714,
      "user": "oc-OpenStreetMap",
      "uid": 4224320,
      "tags": {
        "addr:postcode": "63770",
        "name": "Les Ancizes",
        "name:oc": "Las Encisas",
        "place": "village",
        "source:name:oc": "ieo-bdtopoc"
      }
    },
    {
      "type": "node",
      "id": 1721428248,
      "lat": 45.8807191,
      "lon": 2.8092311,
      "timestamp": "2020-04-16T19:22:04Z",
      "version": 8,
      "changeset": 83664582,
      "user": "oc-OpenStreetMap",
      "uid": 4224320,
      "tags": {
        "addr:postcode": "63230",
        "name": "Montfermy",
        "name:oc": "Montferm",
        "place": "village",
        "source:name:oc": "ieo-bdtopoc"
      }
    },
    {
      "type": "node",
      "id": 1721440664,
      "lat": 45.7245966,
      "lon": 2.8006419,
      "timestamp": "2012-04-18T04:20:05Z",
      "version": 1,
      "changeset": 11339790,
      "user": "la colle",
      "uid": 530603,
      "tags": {
        "name": "Massages",
        "place": "hamlet"
      }
    },
    {
      "type": "node",
      "id": 1723702928,
      "lat": 45.6583916,
      "lon": 2.5024507,
      "timestamp": "2013-05-17T11:23:38Z",
      "version": 4,
      "changeset": 16165728,
      "user": "vincent_95",
      "uid": 49047,
      "tags": {
        "name": "Veyrières",
        "place": "village"
      }
    },
    {
      "type": "node",
      "id": 1726172913,
      "lat": 45.7607014,
      "lon": 2.6771613,
      "timestamp": "2019-11-25T17:02:24Z",
      "version": 5,
      "changeset": 77535779,
      "user": "StephaneP",
      "uid": 439947,
      "tags": {
        "addr:postcode": "63470",
        "name": "Prondines",
        "place": "village",
        "population": "260",
        "source:population": "INSEE 2013"
      }
    },
    {
      "type": "node",
      "id": 1730316610,
      "lat": 45.7308239,
      "lon": 2.6519526,
      "timestamp": "2020-04-19T18:04:56Z",
      "version": 8,
      "changeset": 83781067,
      "user": "oc-OpenStreetMap",
      "uid": 4224320,
      "tags": {
        "addr:postcode": "63470",
        "name": "Tortebesse",
        "name:oc": "Tortabessa",
        "place": "village",
        "source:name:oc": "ieo-bdtopoc"
      }
    },
    {
      "type": "node",
      "id": 1730327000,
      "lat": 45.730986,
      "lon": 2.5426426,
      "timestamp": "2020-04-19T11:36:51Z",
      "version": 8,
      "changeset": 83769597,
      "user": "oc-OpenStreetMap",
      "uid": 4224320,
      "tags": {
        "addr:postcode": "63470",
        "alt_name": "Saint-Germain-près-Herment",
        "name": "Farges",
        "name:oc": "Fargas",
        "place": "village",
        "source:name:oc": "ieo-bdtopoc"
      }
    },
    {
      "type": "node",
      "id": 1730422155,
      "lat": 45.791099,
      "lon": 2.6272466,
      "timestamp": "2020-02-08T01:27:20Z",
      "version": 6,
      "changeset": 80713306,
      "user": "vincent_95",
      "uid": 49047,
      "tags": {
        "addr:postcode": "63470",
        "name": "Puy-Saint-Gulmier",
        "place": "village"
      }
    },
    {
      "type": "node",
      "id": 1730422757,
      "lat": 45.813466,
      "lon": 2.6627948,
      "timestamp": "2020-04-19T11:36:52Z",
      "version": 7,
      "changeset": 83769597,
      "user": "oc-OpenStreetMap",
      "uid": 4224320,
      "tags": {
        "addr:postcode": "63380",
        "name": "Saint-Hilaire-les-Monges",
        "name:oc": "Sent Alari de los Monges",
        "place": "village",
        "source:name:oc": "ieo-bdtopoc"
      }
    },
    {
      "type": "node",
      "id": 1730424524,
      "lat": 45.8403647,
      "lon": 2.6333844,
      "timestamp": "2020-04-21T10:00:18Z",
      "version": 6,
      "changeset": 83871813,
      "user": "oc-OpenStreetMap",
      "uid": 4224320,
      "tags": {
        "addr:postcode": "63380",
        "name": "Combrailles",
        "name:oc": "Combralha",
        "place": "village",
        "population": "218",
        "source:name:oc": "ieo-bdtopoc",
        "source:population": "INSEE 2013"
      }
    },
    {
      "type": "node",
      "id": 1730440554,
      "lat": 45.8537297,
      "lon": 2.4765359,
      "timestamp": "2019-11-25T17:02:24Z",
      "version": 8,
      "changeset": 77535779,
      "user": "StephaneP",
      "uid": 439947,
      "tags": {
        "addr:postcode": "63620",
        "name": "La Celle",
        "place": "village",
        "population": "84",
        "source:population": "INSEE 2013",
        "wikidata": "Q576664",
        "wikipedia": "fr:La Celle (Puy-de-Dôme)"
      }
    },
    {
      "type": "node",
      "id": 1730495101,
      "lat": 45.9859155,
      "lon": 2.6373315,
      "timestamp": "2020-04-21T10:00:19Z",
      "version": 8,
      "changeset": 83871813,
      "user": "oc-OpenStreetMap",
      "uid": 4224320,
      "tags": {
        "addr:postcode": "63640",
        "name": "Charensat",
        "name:oc": "Charensat",
        "place": "village",
        "source:name:oc": "ieo-bdtopoc"
      }
    },
    {
      "type": "node",
      "id": 1730496043,
      "lat": 45.9929391,
      "lon": 2.682284,
      "timestamp": "2020-04-20T15:30:38Z",
      "version": 7,
      "changeset": 83830088,
      "user": "oc-OpenStreetMap",
      "uid": 4224320,
      "tags": {
        "addr:postcode": "63640",
        "name": "Biollet",
        "name:oc": "Biollet",
        "place": "village",
        "source:name:oc": "ieo-bdtopoc"
      }
    },
    {
      "type": "node",
      "id": 1730497361,
      "lat": 46.0298795,
      "lon": 2.6150945,
      "timestamp": "2020-04-19T18:04:57Z",
      "version": 8,
      "changeset": 83781067,
      "user": "oc-OpenStreetMap",
      "uid": 4224320,
      "tags": {
        "addr:postcode": "63330",
        "name": "Vergheas",
        "name:oc": "Verjas",
        "place": "village",
        "source:name:oc": "ieo-bdtopoc"
      }
    },
    {
      "type": "node",
      "id": 1730498505,
      "lat": 46.0436008,
      "lon": 2.6317084,
      "timestamp": "2020-04-18T19:16:38Z",
      "version": 8,
      "changeset": 83752746,
      "user": "oc-OpenStreetMap",
      "uid": 4224320,
      "tags": {
        "addr:postcode": "63330",
        "name": "Roche-d'Agoux",
        "name:oc": "Ròcha d'Agolt",
        "place": "village",
        "source:name:oc": "ieo-bdtopoc"
      }
    },
    {
      "type": "node",
      "id": 1732739659,
      "lat": 45.8774412,
      "lon": 2.6567927,
      "timestamp": "2020-04-21T11:31:53Z",
      "version": 7,
      "changeset": 83877714,
      "user": "oc-OpenStreetMap",
      "uid": 4224320,
      "tags": {
        "addr:postcode": "63380",
        "name": "Landogne",
        "name:oc": "Landonha",
        "place": "village",
        "source:name:oc": "ieo-bdtopoc"
      }
    },
    {
      "type": "node",
      "id": 1732750890,
      "lat": 46.0628233,
      "lon": 2.7699886,
      "timestamp": "2020-04-21T11:31:53Z",
      "version": 7,
      "changeset": 83877714,
      "user": "oc-OpenStreetMap",
      "uid": 4224320,
      "tags": {
        "addr:postcode": "63390",
        "name": "Gouttières",
        "name:oc": "Gotira",
        "place": "village",
        "source:name:oc": "ieo-bdtopoc"
      }
    },
    {
      "type": "node",
      "id": 1732753666,
      "lat": 46.0510235,
      "lon": 2.7336874,
      "timestamp": "2020-04-19T11:36:52Z",
      "version": 7,
      "changeset": 83769597,
      "user": "oc-OpenStreetMap",
      "uid": 4224320,
      "tags": {
        "addr:postcode": "63390",
        "name": "Saint-Julien-la-Geneste",
        "name:oc": "Sant Julian de la Ginesta",
        "place": "village",
        "source:name:oc": "ieo-bdtopoc"
      }
    },
    {
      "type": "node",
      "id": 1732756429,
      "lat": 46.0381667,
      "lon": 2.7114854,
      "timestamp": "2020-04-21T11:31:53Z",
      "version": 7,
      "changeset": 83877714,
      "user": "oc-OpenStreetMap",
      "uid": 4224320,
      "tags": {
        "addr:postcode": "63390",
        "name": "Espinasse",
        "name:oc": "Espinassa",
        "place": "village",
        "source:name:oc": "ieo-bdtopoc"
      }
    },
    {
      "type": "node",
      "id": 1732757740,
      "lat": 46.0701582,
      "lon": 2.6325058,
      "timestamp": "2020-04-20T15:30:39Z",
      "version": 7,
      "changeset": 83830088,
      "user": "oc-OpenStreetMap",
      "uid": 4224320,
      "tags": {
        "addr:postcode": "63330",
        "name": "Bussières",
        "name:oc": "Bussèiras",
        "place": "village",
        "source:name:oc": "ieo-bdtopoc"
      }
    },
    {
      "type": "node",
      "id": 1732773274,
      "lat": 46.0651674,
      "lon": 2.6020552,
      "timestamp": "2020-04-19T11:36:53Z",
      "version": 7,
      "changeset": 83769597,
      "user": "oc-OpenStreetMap",
      "uid": 4224320,
      "tags": {
        "addr:postcode": "63330",
        "name": "Saint-Maurice-près-Pionsat",
        "name:oc": "Sent Maurici de Pionsac",
        "place": "village",
        "source:name:oc": "ieo-bdtopoc"
      }
    },
    {
      "type": "node",
      "id": 1741795013,
      "lat": 45.9119894,
      "lon": 2.2052552,
      "timestamp": "2012-11-01T15:57:41Z",
      "version": 3,
      "changeset": 13712129,
      "user": "rabeyroux",
      "uid": 805590,
      "tags": {
        "name": "Saint-Hilaire",
        "place": "hamlet"
      }
    },
    {
      "type": "node",
      "id": 1741795017,
      "lat": 45.9045866,
      "lon": 2.2437634,
      "timestamp": "2021-04-20T23:07:48Z",
      "version": 5,
      "changeset": 103298212,
      "user": "bobolica",
      "uid": 592978,
      "tags": {
        "name": "La Bregère",
        "place": "hamlet"
      }
    },
    {
      "type": "node",
      "id": 1741795020,
      "lat": 45.9166396,
      "lon": 2.2253413,
      "timestamp": "2012-11-01T15:40:31Z",
      "version": 3,
      "changeset": 13712129,
      "user": "rabeyroux",
      "uid": 805590,
      "tags": {
        "name": "Le Martineix",
        "place": "hamlet"
      }
    },
    {
      "type": "node",
      "id": 1751111130,
      "lat": 45.9129388,
      "lon": 2.7538597,
      "timestamp": "2012-05-13T14:54:02Z",
      "version": 1,
      "changeset": 11586659,
      "user": "FranzHoffmann",
      "uid": 42193,
      "tags": {
        "name": "Confolant",
        "place": "hamlet"
      }
    },
    {
      "type": "node",
      "id": 1768301744,
      "lat": 46.05583,
      "lon": 2.31965,
      "timestamp": "2020-04-22T19:21:11Z",
      "version": 6,
      "changeset": 83958637,
      "user": "oc-OpenStreetMap",
      "uid": 4224320,
      "tags": {
        "addr:postcode": "23190",
        "name": "La Serre-Bussière-Vieille",
        "name:oc": "La Serra e Bussiera Vielha",
        "place": "village",
        "source:name:oc": "ieo-bdtopoc"
      }
    },
    {
      "type": "node",
      "id": 1768303785,
      "lat": 46.06003,
      "lon": 2.14238,
      "timestamp": "2020-04-22T19:21:11Z",
      "version": 5,
      "changeset": 83958637,
      "user": "oc-OpenStreetMap",
      "uid": 4224320,
      "tags": {
        "addr:postcode": "23130",
        "name": "Issoudun-Létrieix",
        "name:oc": "Eissodun",
        "place": "village",
        "population": "299",
        "source:name:oc": "ieo-bdtopoc",
        "source:population": "INSEE 2013"
      }
    },
    {
      "type": "node",
      "id": 1768303885,
      "lat": 46.03806,
      "lon": 2.21772,
      "timestamp": "2020-04-23T11:54:40Z",
      "version": 6,
      "changeset": 84000229,
      "user": "oc-OpenStreetMap",
      "uid": 4224320,
      "tags": {
        "addr:postcode": "23130",
        "name": "Puy-Malsignat",
        "name:oc": "Puegmalsinhac",
        "place": "village",
        "source:name:oc": "ieo-bdtopoc"
      }
    },
    {
      "type": "node",
      "id": 1768303887,
      "lat": 46.0432725,
      "lon": 2.1465324,
      "timestamp": "2020-04-23T13:30:23Z",
      "version": 8,
      "changeset": 84005041,
      "user": "oc-OpenStreetMap",
      "uid": 4224320,
      "tags": {
        "addr:postcode": "23200",
        "name": "Saint-Médard-la-Rochette",
        "name:oc": "Sent Medard e la Rocheta",
        "place": "village",
        "source:name:oc": "ieo-bdtopoc"
      }
    },
    {
      "type": "node",
      "id": 1768304402,
      "lat": 46.06457,
      "lon": 2.43597,
      "timestamp": "2021-02-18T16:41:28Z",
      "version": 7,
      "changeset": 99537754,
      "user": "Olyon",
      "uid": 1443767,
      "tags": {
        "addr:postcode": "23700",
        "name": "Châtain",
        "name:oc": "Chastenh",
        "place": "village",
        "source:name:oc": "ieo-bdtopoc"
      }
    },
    {
      "type": "node",
      "id": 1768304419,
      "lat": 46.05973,
      "lon": 2.56279,
      "timestamp": "2020-04-22T18:27:18Z",
      "version": 5,
      "changeset": 83956735,
      "user": "oc-OpenStreetMap",
      "uid": 4224320,
      "tags": {
        "addr:postcode": "23700",
        "name": "Charron",
        "name:oc": "Charoms",
        "place": "village",
        "source:name:oc": "ieo-bdtopoc"
      }
    },
    {
      "type": "node",
      "id": 1768304420,
      "lat": 46.05317,
      "lon": 2.50076,
      "timestamp": "2020-04-23T11:54:40Z",
      "version": 5,
      "changeset": 84000229,
      "user": "oc-OpenStreetMap",
      "uid": 4224320,
      "tags": {
        "addr:postcode": "23700",
        "name": "Rougnat",
        "name:oc": "Ronhac",
        "place": "village",
        "source:name:oc": "ieo-bdtopoc"
      }
    },
    {
      "type": "node",
      "id": 1768305737,
      "lat": 46.0526356,
      "lon": 2.3868133,
      "timestamp": "2020-04-23T11:16:10Z",
      "version": 7,
      "changeset": 83997928,
      "user": "oc-OpenStreetMap",
      "uid": 4224320,
      "tags": {
        "addr:postcode": "23700",
        "name": "Mainsat",
        "name:oc": "Mançac",
        "place": "village",
        "source:name:oc": "ieo-bdtopoc"
      }
    },
    {
      "type": "node",
      "id": 1768305857,
      "lat": 46.04309,
      "lon": 2.29912,
      "timestamp": "2020-04-23T13:30:24Z",
      "version": 6,
      "changeset": 84005041,
      "user": "oc-OpenStreetMap",
      "uid": 4224320,
      "tags": {
        "addr:postcode": "23190",
        "name": "Saint-Domet",
        "name:oc": "Sent Domèt",
        "place": "village",
        "source:name:oc": "ieo-bdtopoc"
      }
    },
    {
      "type": "node",
      "id": 1768609279,
      "lat": 45.9894443,
      "lon": 2.1461052,
      "timestamp": "2021-02-23T01:36:20Z",
      "version": 10,
      "changeset": 99780142,
      "user": "Olyon",
      "uid": 1443767,
      "tags": {
        "addr:postcode": "23200",
        "name": "Alleyrat",
        "name:oc": "Alairac",
        "place": "village",
        "source:name:oc": "ieo-bdtopoc"
      }
    },
    {
      "type": "node",
      "id": 1768609588,
      "lat": 45.98126,
      "lon": 2.20819,
      "timestamp": "2020-04-23T13:30:26Z",
      "version": 6,
      "changeset": 84005041,
      "user": "oc-OpenStreetMap",
      "uid": 4224320,
      "tags": {
        "addr:postcode": "23200",
        "name": "Saint-Amand",
        "name:oc": "Sent Amand",
        "place": "village",
        "source:name:oc": "ieo-bdtopoc"
      }
    },
    {
      "type": "node",
      "id": 1768609589,
      "lat": 45.99296,
      "lon": 2.20673,
      "timestamp": "2020-04-23T13:30:27Z",
      "version": 6,
      "changeset": 84005041,
      "user": "oc-OpenStreetMap",
      "uid": 4224320,
      "tags": {
        "addr:postcode": "23200",
        "name": "Saint-Maixant",
        "name:oc": "Sent Maissenç",
        "place": "village",
        "source:name:oc": "ieo-bdtopoc"
      }
    },
    {
      "type": "node",
      "id": 1768611459,
      "lat": 45.9888882,
      "lon": 2.2348683,
      "timestamp": "2020-04-22T19:21:13Z",
      "version": 6,
      "changeset": 83958637,
      "user": "oc-OpenStreetMap",
      "uid": 4224320,
      "tags": {
        "addr:postcode": "23200",
        "name": "La Chaussade",
        "name:oc": "La Chauçada",
        "place": "village",
        "source:name:oc": "ieo-bdtopoc"
      }
    },
    {
      "type": "node",
      "id": 1768611460,
      "lat": 45.97696,
      "lon": 2.23796,
      "timestamp": "2020-04-23T13:30:27Z",
      "version": 5,
      "changeset": 84005041,
      "user": "oc-OpenStreetMap",
      "uid": 4224320,
      "tags": {
        "addr:postcode": "23200",
        "name": "Saint-Alpinien",
        "name:oc": "Sent Auprian",
        "place": "village",
        "source:name:oc": "ieo-bdtopoc"
      }
    },
    {
      "type": "node",
      "id": 1768611754,
      "lat": 45.9934098,
      "lon": 2.2501934,
      "timestamp": "2020-04-22T18:27:19Z",
      "version": 6,
      "changeset": 83956735,
      "user": "oc-OpenStreetMap",
      "uid": 4224320,
      "tags": {
        "addr:postcode": "23200",
        "name": "Bosroger",
        "name:oc": "Bòscrogier",
        "place": "village",
        "source:name:oc": "ieo-bdtopoc"
      }
    },
    {
      "type": "node",
      "id": 1768612544,
      "lat": 46.01778,
      "lon": 2.28264,
      "timestamp": "2020-04-22T18:27:19Z",
      "version": 6,
      "changeset": 83956735,
      "user": "oc-OpenStreetMap",
      "uid": 4224320,
      "tags": {
        "addr:postcode": "23190",
        "name": "Champagnat",
        "name:oc": "Champanhac",
        "place": "village",
        "source:name:oc": "ieo-bdtopoc"
      }
    },
    {
      "type": "node",
      "id": 1768612956,
      "lat": 45.98182,
      "lon": 2.29344,
      "timestamp": "2020-04-22T18:27:20Z",
      "version": 5,
      "changeset": 83956735,
      "user": "oc-OpenStreetMap",
      "uid": 4224320,
      "tags": {
        "addr:postcode": "23190",
        "name": "Bellegarde-en-Marche",
        "name:oc": "Belagarda (de la Marcha)",
        "place": "village",
        "population": "409",
        "source:name:oc": "ieo-bdtopoc",
        "source:population": "INSEE 2013"
      }
    },
    {
      "type": "node",
      "id": 1768612957,
      "lat": 45.97197,
      "lon": 2.30261,
      "timestamp": "2020-04-23T13:30:27Z",
      "version": 6,
      "changeset": 84005041,
      "user": "oc-OpenStreetMap",
      "uid": 4224320,
      "tags": {
        "addr:postcode": "23190",
        "name": "Saint-Silvain-Bellegarde",
        "name:oc": "Sauva de Belagarda",
        "place": "village",
        "source:name:oc": "ieo-bdtopoc"
      }
    },
    {
      "type": "node",
      "id": 1768613769,
      "lat": 45.9825813,
      "lon": 2.3543772,
      "timestamp": "2020-04-23T10:52:36Z",
      "version": 7,
      "changeset": 83996487,
      "user": "oc-OpenStreetMap",
      "uid": 4224320,
      "tags": {
        "addr:postcode": "23190",
        "name": "Lupersat",
        "name:oc": "Luperçac",
        "place": "village",
        "source:name:oc": "ieo-bdtopoc"
      }
    },
    {
      "type": "node",
      "id": 1768619803,
      "lat": 46.0264742,
      "lon": 2.5010036,
      "timestamp": "2020-04-22T18:27:20Z",
      "version": 5,
      "changeset": 83956735,
      "user": "oc-OpenStreetMap",
      "uid": 4224320,
      "tags": {
        "addr:postcode": "23700",
        "name": "Auzances",
        "name:oc": "Ausança",
        "place": "village",
        "source:name:oc": "ieo-bdtopoc"
      }
    },
    {
      "type": "node",
      "id": 1768619804,
      "lat": 46.01949,
      "lon": 2.4261,
      "timestamp": "2020-04-22T18:27:20Z",
      "version": 5,
      "changeset": 83956735,
      "user": "oc-OpenStreetMap",
      "uid": 4224320,
      "tags": {
        "addr:postcode": "23700",
        "name": "Bussière-Nouvelle",
        "name:oc": "Bussiera Novela",
        "place": "village",
        "source:name:oc": "ieo-bdtopoc"
      }
    },
    {
      "type": "node",
      "id": 1768620311,
      "lat": 45.9867187,
      "lon": 2.5582671,
      "timestamp": "2020-04-22T19:21:13Z",
      "version": 6,
      "changeset": 83958637,
      "user": "oc-OpenStreetMap",
      "uid": 4224320,
      "tags": {
        "addr:postcode": "23700",
        "name": "Dontreix",
        "name:oc": "Dontrés",
        "place": "village",
        "source:name:oc": "ieo-bdtopoc"
      }
    },
    {
      "type": "node",
      "id": 1768622094,
      "lat": 45.99535,
      "lon": 2.46123,
      "timestamp": "2020-04-23T10:39:17Z",
      "version": 4,
      "changeset": 83995698,
      "user": "oc-OpenStreetMap",
      "uid": 4224320,
      "tags": {
        "addr:postcode": "23700",
        "name": "Le Compas",
        "name:oc": "Lo Compàs",
        "place": "village",
        "population": "212",
        "source:name:oc": "ieo-bdtopoc"
      }
    },
    {
      "type": "node",
      "id": 1768622100,
      "lat": 45.98102,
      "lon": 2.47816,
      "timestamp": "2020-04-23T10:52:36Z",
      "version": 5,
      "changeset": 83996487,
      "user": "oc-OpenStreetMap",
      "uid": 4224320,
      "tags": {
        "addr:postcode": "23700",
        "name": "Les Mars",
        "name:oc": "Los Març",
        "place": "village",
        "source:name:oc": "ieo-bdtopoc"
      }
    },
    {
      "type": "node",
      "id": 1768624013,
      "lat": 45.97191,
      "lon": 2.455,
      "timestamp": "2020-04-22T18:27:21Z",
      "version": 5,
      "changeset": 83956735,
      "user": "oc-OpenStreetMap",
      "uid": 4224320,
      "tags": {
        "addr:postcode": "23700",
        "name": "Brousse",
        "name:oc": "Brossa",
        "place": "village",
        "population": "27",
        "source:name:oc": "ieo-bdtopoc"
      }
    },
    {
      "type": "node",
      "id": 1768624014,
      "lat": 45.97449,
      "lon": 2.43044,
      "timestamp": "2020-04-23T13:30:28Z",
      "version": 5,
      "changeset": 84005041,
      "user": "oc-OpenStreetMap",
      "uid": 4224320,
      "tags": {
        "addr:postcode": "23700",
        "name": "Sermur",
        "name:oc": "Sermur",
        "place": "village",
        "source:name:oc": "ieo-bdtopoc"
      }
    },
    {
      "type": "node",
      "id": 1768624798,
      "lat": 45.94409,
      "lon": 2.47593,
      "timestamp": "2020-04-22T18:27:21Z",
      "version": 5,
      "changeset": 83956735,
      "user": "oc-OpenStreetMap",
      "uid": 4224320,
      "tags": {
        "addr:postcode": "23700",
        "name": "Chard",
        "name:oc": "Chàrd",
        "place": "village",
        "source:name:oc": "ieo-bdtopoc"
      }
    },
    {
      "type": "node",
      "id": 1768624800,
      "lat": 45.96386,
      "lon": 2.46671,
      "timestamp": "2020-04-22T18:27:21Z",
      "version": 6,
      "changeset": 83956735,
      "user": "oc-OpenStreetMap",
      "uid": 4224320,
      "tags": {
        "addr:postcode": "23700",
        "name": "Châtelard",
        "name:oc": "Chastelar",
        "place": "village",
        "source:name:oc": "ieo-bdtopoc"
      }
    },
    {
      "type": "node",
      "id": 1768624803,
      "lat": 45.9512,
      "lon": 2.45521,
      "timestamp": "2020-04-23T10:52:36Z",
      "version": 6,
      "changeset": 83996487,
      "user": "oc-OpenStreetMap",
      "uid": 4224320,
      "tags": {
        "addr:postcode": "23700",
        "name": "Lioux-les-Monges",
        "name:oc": "Lion de las Monjas",
        "place": "village",
        "source:name:oc": "ieo-bdtopoc"
      }
    },
    {
      "type": "node",
      "id": 1774756573,
      "lat": 45.9587415,
      "lon": 2.1268076,
      "timestamp": "2020-04-22T18:27:23Z",
      "version": 6,
      "changeset": 83956735,
      "user": "oc-OpenStreetMap",
      "uid": 4224320,
      "tags": {
        "addr:postcode": "23200",
        "name": "Blessac",
        "name:oc": "Blaçac",
        "place": "village",
        "source:name:oc": "ieo-bdtopoc"
      }
    },
    {
      "type": "node",
      "id": 1774783570,
      "lat": 45.9304891,
      "lon": 2.1207995,
      "timestamp": "2020-04-23T13:30:35Z",
      "version": 6,
      "changeset": 84005041,
      "user": "oc-OpenStreetMap",
      "uid": 4224320,
      "tags": {
        "addr:postcode": "23200",
        "name": "Saint-Marc-à-Frongier",
        "name:oc": "Sent Marc de Frongier",
        "place": "village",
        "source:name:oc": "ieo-bdtopoc"
      }
    },
    {
      "type": "node",
      "id": 1774798543,
      "lat": 45.9293477,
      "lon": 2.2322005,
      "timestamp": "2020-04-23T13:30:36Z",
      "version": 6,
      "changeset": 84005041,
      "user": "oc-OpenStreetMap",
      "uid": 4224320,
      "tags": {
        "addr:postcode": "23200",
        "name": "Saint-Pardoux-le-Neuf",
        "name:oc": "Sent Pardós lo Nuòu",
        "place": "village",
        "source:name:oc": "ieo-bdtopoc"
      }
    },
    {
      "type": "node",
      "id": 1774802496,
      "lat": 45.914881,
      "lon": 2.2607553,
      "timestamp": "2020-04-23T11:16:11Z",
      "version": 7,
      "changeset": 83997928,
      "user": "oc-OpenStreetMap",
      "uid": 4224320,
      "tags": {
        "addr:postcode": "23200",
        "name": "Néoux",
        "name:oc": "Neon",
        "place": "village",
        "source:name:oc": "ieo-bdtopoc"
      }
    },
    {
      "type": "node",
      "id": 1774807569,
      "lat": 45.9187836,
      "lon": 2.2851995,
      "timestamp": "2020-04-23T13:30:36Z",
      "version": 6,
      "changeset": 84005041,
      "user": "oc-OpenStreetMap",
      "uid": 4224320,
      "tags": {
        "addr:postcode": "23200",
        "name": "Saint-Avit-de-Tardes",
        "name:oc": "Sent Avit de Tarda",
        "place": "village",
        "source:name:oc": "ieo-bdtopoc"
      }
    },
    {
      "type": "node",
      "id": 1774808846,
      "lat": 45.9439584,
      "lon": 2.3852288,
      "timestamp": "2020-04-23T11:16:12Z",
      "version": 6,
      "changeset": 83997928,
      "user": "oc-OpenStreetMap",
      "uid": 4224320,
      "tags": {
        "addr:postcode": "23190",
        "name": "Mautes",
        "name:oc": "Mautas",
        "place": "village",
        "source:name:oc": "ieo-bdtopoc"
      }
    },
    {
      "type": "node",
      "id": 1774809821,
      "lat": 45.9146163,
      "lon": 2.4008796,
      "timestamp": "2020-04-23T13:30:36Z",
      "version": 4,
      "changeset": 84005041,
      "user": "oc-OpenStreetMap",
      "uid": 4224320,
      "tags": {
        "addr:postcode": "23260",
        "name": "Saint-Bard",
        "name:oc": "Sent Bard",
        "place": "village",
        "source:name:oc": "ieo-bdtopoc"
      }
    },
    {
      "type": "node",
      "id": 1774814553,
      "lat": 45.883929,
      "lon": 2.4415998,
      "timestamp": "2020-04-22T19:21:15Z",
      "version": 6,
      "changeset": 83958637,
      "user": "oc-OpenStreetMap",
      "uid": 4224320,
      "tags": {
        "addr:postcode": "23260",
        "name": "La Mazière-aux-Bons-Hommes",
        "name:oc": "La Masèira daus Bonsòmes",
        "place": "village",
        "source:name:oc": "ieo-bdtopoc"
      }
    },