{
  "osm3s": {
    "timestamp_osm_date": "2022-07-09T23:59:59Z",
    "timestamp_osm_base": "2022-07-10T04:14:05Z",
    "copyright": "The data included in this document is from www.openstreetmap.org. The data is made available under ODbL."
  },
  "elements": [
    {
      "type": "node",
      "id": 150932316,
      "lat": 32.877844,
      "lon": -110.5837098,
      "timestamp": "2018-03-23T10:32:28Z",
      "version": 3,
      "changeset": 57451911,
      "user": "Edward",
      "uid": 364,
      "tags": {
        "ele": "774",
        "gnis:Class": "Populated Place",
        "gnis:County": "Pinal",
        "gnis:County_num": "021",
        "gnis:ST_alpha": "AZ",
        "gnis:ST_num": "04",
        "gnis:id": "24464",
        "import_uuid": "bb7269ee-502a-5391-8056-e3ce0e66489c",
        "is_in": "Pinal,Arizona,Ariz.,AZ,USA",
        "name": "Hortons Place",
        "place": "hamlet",
        "wikidata": "Q28222281"
      }
    },
    {
      "type": "node",
      "id": 150933805,
      "lat": 33.0622863,
      "lon": -110.7426052,
      "timestamp": "2008-12-06T13:18:12Z",
      "version": 2,
      "changeset": 145015,
      "user": "davidearl",
      "uid": 3582,
      "tags": {
        "ele": "815",
        "gnis:Class": "Populated Place",
        "gnis:County": "Gila",
        "gnis:County_num": "007",
        "gnis:ST_alpha": "AZ",
        "gnis:ST_num": "04",
        "gnis:id": "2897",
        "import_uuid": "bb7269ee-502a-5391-8056-e3ce0e66489c",
        "is_in": "Gila,Arizona,Ariz.,AZ,USA",
        "name": "Christmas",
        "place": "hamlet"
      }
    },
    {
      "type": "node",
      "id": 150934559,
      "lat": 33.0514532,
      "lon": -110.9117766,
      "timestamp": "2008-12-06T13:18:17Z",
      "version": 2,
      "changeset": 145015,
      "user": "davidearl",
      "uid": 3582,
      "tags": {
        "ele": "558",
        "gnis:Class": "Populated Place",
        "gnis:County": "Pinal",
        "gnis:County_num": "021",
        "gnis:ST_alpha": "AZ",
        "gnis:ST_num": "04",
        "gnis:id": "25332",
        "import_uuid": "bb7269ee-502a-5391-8056-e3ce0e66489c",
        "is_in": "Pinal,Arizona,Ariz.,AZ,USA",
        "name": "Branaman",
        "place": "hamlet"
      }
    },
    {
      "type": "node",
      "id": 150934853,
      "lat": 32.722568,
      "lon": -110.6406547,
      "timestamp": "2016-11-19T00:44:28Z",
      "version": 4,
      "changeset": 43780386,
      "user": "woodpeck_repair",
      "uid": 145231,
      "tags": {
        "census:population": "2266;2006",
        "ele": "719",
        "gnis:Class": "Populated Place",
        "gnis:County": "Pinal",
        "gnis:County_num": "021",
        "gnis:ST_alpha": "AZ",
        "gnis:ST_num": "04",
        "gnis:id": "7637",
        "import_uuid": "bb7269ee-502a-5391-8056-e3ce0e66489c",
        "is_in": "Pinal,Arizona,Ariz.,AZ,USA",
        "name": "Mammoth",
        "place": "village",
        "population": "2266"
      }
    },
    {
      "type": "node",
      "id": 150938017,
      "lat": 32.7509008,
      "lon": -110.4764825,
      "timestamp": "2018-03-23T10:32:15Z",
      "version": 3,
      "changeset": 57451911,
      "user": "Edward",
      "uid": 364,
      "tags": {
        "ele": "1214",
        "gnis:Class": "Populated Place",
        "gnis:County": "Pinal",
        "gnis:County_num": "021",
        "gnis:ST_alpha": "AZ",
        "gnis:ST_num": "04",
        "gnis:id": "24379",
        "import_uuid": "bb7269ee-502a-5391-8056-e3ce0e66489c",
        "is_in": "Pinal,Arizona,Ariz.,AZ,USA",
        "name": "Copper Creek",
        "place": "hamlet",
        "wikidata": "Q5168722"
      }
    },
    {
      "type": "node",
      "id": 150939727,
      "lat": 33.0570085,
      "lon": -110.9106656,
      "timestamp": "2016-11-19T02:38:23Z",
      "version": 4,
      "changeset": 43780386,
      "user": "woodpeck_repair",
      "uid": 145231,
      "tags": {
        "census:population": "2896;2006",
        "ele": "567",
        "gnis:Class": "Populated Place",
        "gnis:County": "Pinal",
        "gnis:County_num": "021",
        "gnis:ST_alpha": "AZ",
        "gnis:ST_num": "04",
        "gnis:id": "6633",
        "import_uuid": "bb7269ee-502a-5391-8056-e3ce0e66489c",
        "is_in": "Pinal,Arizona,Ariz.,AZ,USA",
        "name": "Kearny",
        "place": "village",
        "population": "2896"
      }
    },
    {
      "type": "node",
      "id": 150943198,
      "lat": 32.6099702,
      "lon": -110.7651843,
      "timestamp": "2019-12-18T05:48:51Z",
      "version": 3,
      "changeset": 78560882,
      "user": "n76",
      "uid": 318696,
      "tags": {
        "ele": "1379",
        "gnis:County": "Pinal",
        "gnis:County_num": "021",
        "gnis:ST_alpha": "AZ",
        "gnis:ST_num": "04",
        "gnis:id": "32541",
        "import_uuid": "bb7269ee-502a-5391-8056-e3ce0e66489c",
        "name": "Oracle",
        "place": "hamlet",
        "wikidata": "Q2740714",
        "wikipedia": "en:Oracle, Arizona"
      }
    },
    {
      "type": "node",
      "id": 150951351,
      "lat": 33.0097877,
      "lon": -110.8153845,
      "timestamp": "2017-05-19T17:42:24Z",
      "version": 3,
      "changeset": 48827578,
      "user": "hofoen",
      "uid": 52797,
      "tags": {
        "ele": "583",
        "gnis:Class": "Populated Place",
        "gnis:County": "Pinal",
        "gnis:County_num": "021",
        "gnis:ST_alpha": "AZ",
        "gnis:ST_num": "04",
        "gnis:id": "24455",
        "import_uuid": "bb7269ee-502a-5391-8056-e3ce0e66489c",
        "is_in": "Pinal,Arizona,Ariz.,AZ,USA",
        "name": "Hayden Junction",
        "place": "hamlet",
        "wikidata": "Q28222153",
        "wikipedia": "en:Hayden Junction, Arizona"
      }
    },
    {
      "type": "node",
      "id": 150952139,
      "lat": 32.5997933,
      "lon": -110.6309289,
      "timestamp": "2017-09-24T21:11:34Z",
      "version": 4,
      "changeset": 52339522,
      "user": "nyuriks",
      "uid": 339581,
      "tags": {
        "ele": "1052",
        "gnis:Class": "Populated Place",
        "gnis:County": "Pinal",
        "gnis:County_num": "021",
        "gnis:ST_alpha": "AZ",
        "gnis:ST_num": "04",
        "gnis:id": "34022",
        "import_uuid": "bb7269ee-502a-5391-8056-e3ce0e66489c",
        "is_in": "Pinal,Arizona,Ariz.,AZ,USA",
        "name": "San Manuel",
        "place": "hamlet",
        "wikidata": "Q2786066",
        "wikipedia": "en:San Manuel, Arizona"
      }
    },
    {
      "type": "node",
      "id": 150952710,
      "lat": 32.8317351,
      "lon": -110.9453863,
      "timestamp": "2018-03-23T10:32:25Z",
      "version": 3,
      "changeset": 57451911,
      "user": "Edward",
      "uid": 364,
      "tags": {
        "ele": "1190",
        "gnis:Class": "Populated Place",
        "gnis:County": "Pinal",
        "gnis:County_num": "021",
        "gnis:ST_alpha": "AZ",
        "gnis:ST_num": "04",
        "gnis:id": "24316",
        "import_uuid": "bb7269ee-502a-5391-8056-e3ce0e66489c",
        "is_in": "Pinal,Arizona,Ariz.,AZ,USA",
        "name": "Barkerville",
        "place": "hamlet",
        "wikidata": "Q24191768"
      }
    },
    {
      "type": "node",
      "id": 150953258,
      "lat": 32.9165705,
      "lon": -110.7224102,
      "timestamp": "2022-01-05T22:27:15Z",
      "version": 3,
      "changeset": 115814889,
      "user": "Buster452",
      "uid": 404027,
      "tags": {
        "ele": "593",
        "gnis:County": "Pinal",
        "gnis:County_num": "021",
        "gnis:ST_alpha": "AZ",
        "gnis:ST_num": "04",
        "gnis:id": "24402",
        "name": "Dudleyville",
        "place": "village",
        "population": "1068"
      }
    },
    {
      "type": "node",
      "id": 150959211,
      "lat": 33.0047879,
      "lon": -110.7853836,
      "timestamp": "2021-01-20T04:28:14Z",
      "version": 3,
      "changeset": 97804593,
      "user": "ZeLonewolf",
      "uid": 219297,
      "tags": {
        "ele": "623",
        "gnis:County": "Gila",
        "gnis:County_num": "007",
        "gnis:ST_alpha": "AZ",
        "gnis:ST_num": "04",
        "gnis:id": "5646",
        "import_uuid": "bb7269ee-502a-5391-8056-e3ce0e66489c",
        "is_in": "Gila,Arizona,Ariz.,AZ,USA",
        "name": "Hayden",
        "place": "hamlet"
      }
    },
    {
      "type": "node",
      "id": 150960859,
      "lat": 32.7045131,
      "lon": -110.6942675,
      "timestamp": "2018-03-23T10:32:28Z",
      "version": 3,
      "changeset": 57451911,
      "user": "Edward",
      "uid": 364,
      "tags": {
        "ele": "902",
        "gnis:Class": "Populated Place",
        "gnis:County": "Pinal",
        "gnis:County_num": "021",
        "gnis:ST_alpha": "AZ",
        "gnis:ST_num": "04",
        "gnis:id": "42799",
        "import_uuid": "bb7269ee-502a-5391-8056-e3ce0e66489c",
        "is_in": "Pinal,Arizona,Ariz.,AZ,USA",
        "name": "Fordville",
        "place": "hamlet",
        "wikidata": "Q28221678"
      }
    },
    {
      "type": "node",
      "id": 150962119,
      "lat": 32.5542513,
      "lon": -110.9336917,
      "timestamp": "2018-03-23T10:32:31Z",
      "version": 4,
      "changeset": 57451911,
      "user": "Edward",
      "uid": 364,
      "tags": {
        "ele": "1012",
        "gnis:Class": "Populated Place",
        "gnis:County": "Pinal",
        "gnis:County_num": "021",
        "gnis:ST_alpha": "AZ",
        "gnis:ST_num": "04",
        "gnis:id": "24547",
        "import_uuid": "bb7269ee-502a-5391-8056-e3ce0e66489c",
        "is_in": "Pinal,Arizona,Ariz.,AZ,USA",
        "name": "Oracle Junction",
        "place": "hamlet",
        "wikidata": "Q28222963"
      }
    },
    {
      "type": "node",
      "id": 150966438,
      "lat": 32.7078463,
      "lon": -110.6823227,
      "timestamp": "2018-03-23T10:32:21Z",
      "version": 3,
      "changeset": 57451911,
      "user": "Edward",
      "uid": 364,
      "tags": {
        "ele": "939",
        "gnis:Class": "Populated Place",
        "gnis:County": "Pinal",
        "gnis:County_num": "021",
        "gnis:ST_alpha": "AZ",
        "gnis:ST_num": "04",
        "gnis:id": "24654",
        "import_uuid": "bb7269ee-502a-5391-8056-e3ce0e66489c",
        "is_in": "Pinal,Arizona,Ariz.,AZ,USA",
        "name": "Tiger",
        "place": "hamlet",
        "wikidata": "Q7801342"
      }
    },
    {
      "type": "node",
      "id": 150968153,
      "lat": 32.8075668,
      "lon": -110.5223181,
      "timestamp": "2018-03-23T10:32:27Z",
      "version": 3,
      "changeset": 57451911,
      "user": "Edward",
      "uid": 364,
      "tags": {
        "ele": "1329",
        "gnis:Class": "Populated Place",
        "gnis:County": "Pinal",
        "gnis:County_num": "021",
        "gnis:ST_alpha": "AZ",
        "gnis:ST_num": "04",
        "gnis:id": "24327",
        "import_uuid": "bb7269ee-502a-5391-8056-e3ce0e66489c",
        "is_in": "Pinal,Arizona,Ariz.,AZ,USA",
        "name": "Blake Place",
        "place": "hamlet",
        "wikidata": "Q28221284"
      }
    },
    {
      "type": "node",
      "id": 150969649,
      "lat": 32.7889579,
      "lon": -110.9376079,
      "timestamp": "2018-03-23T10:32:31Z",
      "version": 3,
      "changeset": 57451911,
      "user": "Edward",
      "uid": 364,
      "tags": {
        "ele": "1364",
        "gnis:Class": "Populated Place",
        "gnis:County": "Pinal",
        "gnis:County_num": "021",
        "gnis:ST_alpha": "AZ",
        "gnis:ST_num": "04",
        "gnis:id": "24542",
        "import_uuid": "bb7269ee-502a-5391-8056-e3ce0e66489c",
        "is_in": "Pinal,Arizona,Ariz.,AZ,USA",
        "name": "Oak Wells",
        "place": "hamlet",
        "wikidata": "Q28222952"
      }
    },
    {
      "type": "node",
      "id": 150971150,
      "lat": 33.1114513,
      "lon": -110.9734458,
      "timestamp": "2018-03-23T10:32:22Z",
      "version": 3,
      "changeset": 57451911,
      "user": "Edward",
      "uid": 364,
      "tags": {
        "ele": "558",
        "gnis:Class": "Populated Place",
        "gnis:County": "Pinal",
        "gnis:County_num": "021",
        "gnis:ST_alpha": "AZ",
        "gnis:ST_num": "04",
        "gnis:id": "24477",
        "import_uuid": "bb7269ee-502a-5391-8056-e3ce0e66489c",
        "is_in": "Pinal,Arizona,Ariz.,AZ,USA",
        "name": "Kelvin",
        "place": "hamlet",
        "wikidata": "Q15235419"
      }
    },
    {
      "type": "node",
      "id": 150971711,
      "lat": 32.7261789,
      "lon": -110.4823154,
      "timestamp": "2018-03-23T10:32:36Z",
      "version": 3,
      "changeset": 57451911,
      "user": "Edward",
      "uid": 364,
      "tags": {
        "ele": "1241",
        "gnis:Class": "Populated Place",
        "gnis:County": "Pinal",
        "gnis:County_num": "021",
        "gnis:ST_alpha": "AZ",
        "gnis:ST_num": "04",
        "gnis:id": "24622",
        "import_uuid": "bb7269ee-502a-5391-8056-e3ce0e66489c",
        "is_in": "Pinal,Arizona,Ariz.,AZ,USA",
        "name": "Sombrero Butte",
        "place": "hamlet",
        "wikidata": "Q30621904"
      }
    },
    {
      "type": "node",
      "id": 150973797,
      "lat": 33.1070069,
      "lon": -110.9631677,
      "timestamp": "2018-03-23T10:32:33Z",
      "version": 3,
      "changeset": 57451911,
      "user": "Edward",
      "uid": 364,
      "tags": {
        "ele": "545",
        "gnis:Class": "Populated Place",
        "gnis:County": "Pinal",
        "gnis:County_num": "021",
        "gnis:ST_alpha": "AZ",
        "gnis:ST_num": "04",
        "gnis:id": "24576",
        "import_uuid": "bb7269ee-502a-5391-8056-e3ce0e66489c",
        "is_in": "Pinal,Arizona,Ariz.,AZ,USA",
        "name": "Ray Junction",
        "place": "hamlet",
        "wikidata": "Q28912651"
      }
    },
    {
      "type": "node",
      "id": 150979197,
      "lat": 32.5636848,
      "lon": -110.7384326,
      "timestamp": "2008-12-06T13:22:02Z",
      "version": 2,
      "changeset": 145015,
      "user": "davidearl",
      "uid": 3582,
      "tags": {
        "ele": "1464",
        "gnis:Class": "Populated Place",
        "gnis:County": "Pinal",
        "gnis:County_num": "021",
        "gnis:ST_alpha": "AZ",
        "gnis:ST_num": "04",
        "gnis:id": "27235",
        "import_uuid": "bb7269ee-502a-5391-8056-e3ce0e66489c",
        "is_in": "Pinal,Arizona,Ariz.,AZ,USA",
        "name": "Campo Bonito",
        "place": "hamlet"
      }
    },
    {
      "type": "node",
      "id": 150979544,
      "lat": 32.824511,
      "lon": -110.4762055,
      "timestamp": "2018-03-23T10:32:32Z",
      "version": 3,
      "changeset": 57451911,
      "user": "Edward",
      "uid": 364,
      "tags": {
        "ele": "1385",
        "gnis:Class": "Populated Place",
        "gnis:County": "Pinal",
        "gnis:County_num": "021",
        "gnis:ST_alpha": "AZ",
        "gnis:ST_num": "04",
        "gnis:id": "24553",
        "import_uuid": "bb7269ee-502a-5391-8056-e3ce0e66489c",
        "is_in": "Pinal,Arizona,Ariz.,AZ,USA",
        "name": "Parsons Grove",
        "place": "hamlet",
        "wikidata": "Q28451190"
      }
    },
    {
      "type": "node",
      "id": 150981213,
      "lat": 32.9875659,
      "lon": -110.7709387,
      "timestamp": "2021-01-20T04:28:14Z",
      "version": 8,
      "changeset": 97804593,
      "user": "ZeLonewolf",
      "uid": 219297,
      "tags": {
        "ele": "600",
        "gnis:County": "Gila",
        "gnis:County_num": "007",
        "gnis:ST_alpha": "AZ",
        "gnis:ST_num": "04",
        "gnis:id": "13926",
        "import_uuid": "bb7269ee-502a-5391-8056-e3ce0e66489c",
        "is_in": "Gila,Arizona,Ariz.,AZ,USA",
        "name": "Winkelman",
        "place": "village",
        "population": "353"
      }
    },
    {
      "type": "node",
      "id": 150981515,
      "lat": 33.104448,
      "lon": -110.9592748,
      "timestamp": "2018-03-23T10:32:35Z",
      "version": 4,
      "changeset": 57451911,
      "user": "Edward",
      "uid": 364,
      "tags": {
        "ele": "551",
        "gnis:Class": "Populated Place",
        "gnis:County": "Pinal",
        "gnis:County_num": "021",
        "gnis:ST_alpha": "AZ",
        "gnis:ST_num": "04",
        "gnis:id": "10330",
        "import_uuid": "bb7269ee-502a-5391-8056-e3ce0e66489c",
        "is_in": "Pinal,Arizona,Ariz.,AZ,USA",
        "name": "Riverside",
        "place": "hamlet",
        "wikidata": "Q29641901"
      }
    },
    {
      "type": "node",
      "id": 359252074,
      "lat": 33.097563,
      "lon": -110.8656648,
      "timestamp": "2018-03-23T10:32:24Z",
      "version": 2,
      "changeset": 57451911,
      "user": "Edward",
      "uid": 364,
      "tags": {
        "ele": "986",
        "gnis:county_id": "021",
        "gnis:created": "02/08/1980",
        "gnis:feature_id": "11807",
        "gnis:state_id": "04",
        "name": "Steamboat Mountain",
        "natural": "peak",
        "wikidata": "Q21189413"
      }
    },
    {
      "type": "node",
      "id": 2006084313,
      "lat": 32.54867,
      "lon": -110.7081525,
      "timestamp": "2012-11-10T09:50:38Z",
      "version": 1,
      "changeset": 13818586,
      "user": "Dr Kludge",
      "uid": 292665,
      "tags": {
        "fcode": "45800",
        "gnis:feature_id": "25623",
        "gnis:name": "American Flag Spring",
        "name": "American Flag Spring",
        "natural": "spring",
        "source": "NHD"
      }
    },
    {
      "type": "node",
      "id": 2006084320,
      "lat": 32.9931115,
      "lon": -110.4287026,
      "timestamp": "2012-11-10T09:50:38Z",
      "version": 1,
      "changeset": 13818586,
      "user": "Dr Kludge",
      "uid": 292665,
      "tags": {
        "fcode": "45800",
        "gnis:feature_id": "642",
        "gnis:name": "Anderson Spring",
        "name": "Anderson Spring",
        "natural": "spring",
        "source": "NHD"
      }
    },
    {
      "type": "node",
      "id": 2006084963,
      "lat": 32.7558765,
      "lon": -110.395416,
      "timestamp": "2012-11-10T09:50:52Z",
      "version": 1,
      "changeset": 13818586,
      "user": "Dr Kludge",
      "uid": 292665,
      "tags": {
        "fcode": "45800",
        "gnis:feature_id": "1136",
        "gnis:name": "Bear Spring",
        "name": "Bear Spring",
        "natural": "spring",
        "source": "NHD"
      }
    },
    {
      "type": "node",
      "id": 2006085340,
      "lat": 32.7143159,
      "lon": -110.4173291,
      "timestamp": "2012-11-10T09:51:01Z",
      "version": 1,
      "changeset": 13818586,
      "user": "Dr Kludge",
      "uid": 292665,
      "tags": {
        "fcode": "45800",
        "gnis:feature_id": "1441",
        "gnis:name": "Biscuit Peak Spring",
        "name": "Biscuit Peak Spring",
        "natural": "spring",
        "source": "NHD"
      }
    },
    {
      "type": "node",
      "id": 2006085358,
      "lat": 32.9648589,
      "lon": -110.4237539,
      "timestamp": "2012-11-10T09:51:03Z",
      "version": 1,
      "changeset": 13818586,
      "user": "Dr Kludge",
      "uid": 292665,
      "tags": {
        "fcode": "45800",
        "gnis:feature_id": "1493",
        "gnis:name": "Black Canyon Spring",
        "name": "Black Canyon Spring",
        "natural": "spring",
        "source": "NHD"
      }
    },
    {
      "type": "node",
      "id": 2006085390,
      "lat": 32.8267217,
      "lon": -110.4895484,
      "timestamp": "2012-11-10T09:51:06Z",
      "version": 1,
      "changeset": 13818586,
      "user": "Dr Kludge",
      "uid": 292665,
      "tags": {
        "fcode": "45800",
        "gnis:feature_id": "1676",
        "gnis:name": "Bleak Spring",
        "name": "Bleak Spring",
        "natural": "spring",
        "source": "NHD"
      }
    },
    {
      "type": "node",
      "id": 2006085412,
      "lat": 32.777148,
      "lon": -110.4735089,
      "timestamp": "2012-11-10T09:51:08Z",
      "version": 1,
      "changeset": 13818586,
      "user": "Dr Kludge",
      "uid": 292665,
      "tags": {
        "fcode": "45800",
        "gnis:feature_id": "1752",
        "gnis:name": "Bluebird Spring",
        "name": "Bluebird Spring",
        "natural": "spring",
        "source": "NHD"
      }
    },
    {
      "type": "node",
      "id": 2006085912,
      "lat": 32.7738767,
      "lon": -110.4880682,
      "timestamp": "2012-11-10T09:51:16Z",
      "version": 1,
      "changeset": 13818586,
      "user": "Dr Kludge",
      "uid": 292665,
      "tags": {
        "fcode": "45800",
        "gnis:feature_id": "1993",
        "gnis:name": "Brown Jug Spring",
        "name": "Brown Jug Spring",
        "natural": "spring",
        "source": "NHD"
      }
    },
    {
      "type": "node",
      "id": 2006086119,
      "lat": 32.7859,
      "lon": -110.547626,
      "timestamp": "2012-11-10T09:51:26Z",
      "version": 1,
      "changeset": 13818586,
      "user": "Dr Kludge",
      "uid": 292665,
      "tags": {
        "fcode": "45800",
        "gnis:feature_id": "2319",
        "gnis:name": "Buzzard Roost Spring",
        "name": "Buzzard Roost Spring",
        "natural": "spring",
        "source": "NHD"
      }
    },
    {
      "type": "node",
      "id": 2006086133,
      "lat": 32.7350734,
      "lon": -110.4140451,
      "timestamp": "2012-11-10T09:51:27Z",
      "version": 1,
      "changeset": 13818586,
      "user": "Dr Kludge",
      "uid": 292665,
      "tags": {
        "fcode": "45800",
        "gnis:feature_id": "2361",
        "gnis:name": "Cake Mountain Spring",
        "name": "Cake Mountain Spring",
        "natural": "spring",
        "source": "NHD"
      }
    },
    {
      "type": "node",
      "id": 2006086180,
      "lat": 32.8910401,
      "lon": -110.6253517,
      "timestamp": "2012-11-10T09:51:31Z",
      "version": 1,
      "changeset": 13818586,
      "user": "Dr Kludge",
      "uid": 292665,
      "tags": {
        "fcode": "45800",
        "gnis:feature_id": "2478",
        "gnis:name": "Carrico Spring",
        "name": "Carrico Spring",
        "natural": "spring",
        "source": "NHD"
      }
    },
    {
      "type": "node",
      "id": 2006086202,
      "lat": 32.7200708,
      "lon": -110.398181,
      "timestamp": "2012-11-10T09:51:33Z",
      "version": 1,
      "changeset": 13818586,
      "user": "Dr Kludge",
      "uid": 292665,
      "tags": {
        "fcode": "45800",
        "gnis:feature_id": "22445",
        "gnis:name": "Cave Spring",
        "name": "Cave Spring",
        "natural": "spring",
        "source": "NHD"
      }
    },
    {
      "type": "node",
      "id": 2006086244,
      "lat": 32.8082812,
      "lon": -110.4779687,
      "timestamp": "2012-11-10T09:51:38Z",
      "version": 1,
      "changeset": 13818586,
      "user": "Dr Kludge",
      "uid": 292665,
      "tags": {
        "fcode": "45800",
        "gnis:feature_id": "2676",
        "gnis:name": "Cement Tank Spring",
        "name": "Cement Tank Spring",
        "natural": "spring",
        "source": "NHD"
      }
    },
    {
      "type": "node",
      "id": 2006086594,
      "lat": 32.6942279,
      "lon": -110.4827032,
      "timestamp": "2012-11-10T09:51:45Z",
      "version": 1,
      "changeset": 13818586,
      "user": "Dr Kludge",
      "uid": 292665,
      "tags": {
        "fcode": "45800",
        "gnis:feature_id": "2979",
        "gnis:name": "Clark Spring",
        "name": "Clark Spring",
        "natural": "spring",
        "source": "NHD"
      }
    },
    {
      "type": "node",
      "id": 2006087082,
      "lat": 32.776833,
      "lon": -110.4210323,
      "timestamp": "2012-11-10T09:51:53Z",
      "version": 1,
      "changeset": 13818586,
      "user": "Dr Kludge",
      "uid": 292665,
      "tags": {
        "fcode": "45800",
        "gnis:feature_id": "3199",
        "gnis:name": "Cooly Spring",
        "name": "Cooly Spring",
        "natural": "spring",
        "source": "NHD"
      }
    },
    {
      "type": "node",
      "id": 2006087138,
      "lat": 32.7378292,
      "lon": -110.5184103,
      "timestamp": "2012-11-10T09:51:54Z",
      "version": 1,
      "changeset": 13818586,
      "user": "Dr Kludge",
      "uid": 292665,
      "tags": {
        "fcode": "45800",
        "gnis:feature_id": "23684",
        "gnis:name": "Copper Springs",
        "name": "Copper Springs",
        "natural": "spring",
        "source": "NHD"
      }
    },
    {
      "type": "node",
      "id": 2006087167,
      "lat": 32.9728583,
      "lon": -110.4248198,
      "timestamp": "2012-11-10T09:51:57Z",
      "version": 1,
      "changeset": 13818586,
      "user": "Dr Kludge",
      "uid": 292665,
      "tags": {
        "fcode": "45800",
        "gnis:feature_id": "3362",
        "gnis:name": "Cottonwood Spring",
        "name": "Cottonwood Spring",
        "natural": "spring",
        "source": "NHD"
      }
    },
    {
      "type": "node",
      "id": 2006087802,
      "lat": 33.0779387,
      "lon": -110.3958942,
      "timestamp": "2012-11-10T09:52:20Z",
      "version": 1,
      "changeset": 13818586,
      "user": "Dr Kludge",
      "uid": 292665,
      "tags": {
        "fcode": "45800",
        "gnis:feature_id": "4065",
        "gnis:name": "Double Troughs Spring",
        "name": "Double Troughs Spring",
        "natural": "spring",
        "source": "NHD"
      }
    },
    {
      "type": "node",
      "id": 2006088347,
      "lat": 33.130311,
      "lon": -110.4855191,
      "timestamp": "2012-11-10T09:52:29Z",
      "version": 1,
      "changeset": 13818586,
      "user": "Dr Kludge",
      "uid": 292665,
      "tags": {
        "fcode": "45800",
        "gnis:feature_id": "4516",
        "gnis:name": "Evans Spring",
        "name": "Evans Spring",
        "natural": "spring",
        "source": "NHD"
      }
    },
    {
      "type": "node",
      "id": 2006088615,
      "lat": 32.7911273,
      "lon": -110.3988833,
      "timestamp": "2012-11-10T09:52:36Z",
      "version": 1,
      "changeset": 13818586,
      "user": "Dr Kludge",
      "uid": 292665,
      "tags": {
        "fcode": "45800",
        "gnis:feature_id": "4792",
        "gnis:name": "Fourmile Springs",
        "name": "Fourmile Springs",
        "natural": "spring",
        "source": "NHD"
      }
    },
    {
      "type": "node",
      "id": 2006088619,
      "lat": 32.7911524,
      "lon": -110.3988821,
      "timestamp": "2012-11-10T09:52:36Z",
      "version": 1,
      "changeset": 13818586,
      "user": "Dr Kludge",
      "uid": 292665,
      "tags": {
        "fcode": "45800",
        "gnis:feature_id": "4792",
        "gnis:name": "Fourmile Springs",
        "name": "Fourmile Springs",
        "natural": "spring",
        "source": "NHD"
      }
    },
    {
      "type": "node",
      "id": 2006088624,
      "lat": 32.792148,
      "lon": -110.3999559,
      "timestamp": "2012-11-10T09:52:36Z",
      "version": 1,
      "changeset": 13818586,
      "user": "Dr Kludge",
      "uid": 292665,
      "tags": {
        "fcode": "45800",
        "gnis:feature_id": "4792",
        "gnis:name": "Fourmile Springs",
        "name": "Fourmile Springs",
        "natural": "spring",
        "source": "NHD"
      }
    },
    {
      "type": "node",
      "id": 2006088629,
      "lat": 32.792874,
      "lon": -110.4000597,
      "timestamp": "2012-11-10T09:52:36Z",
      "version": 1,
      "changeset": 13818586,
      "user": "Dr Kludge",
      "uid": 292665,
      "tags": {
        "fcode": "45800",
        "gnis:feature_id": "4792",
        "gnis:name": "Fourmile Springs",
        "name": "Fourmile Springs",
        "natural": "spring",
        "source": "NHD"
      }
    },
    {
      "type": "node",
      "id": 2006088645,
      "lat": 32.7356296,
      "lon": -110.393159,
      "timestamp": "2012-11-10T09:52:38Z",
      "version": 1,
      "changeset": 13818586,
      "user": "Dr Kludge",
      "uid": 292665,
      "tags": {
        "fcode": "45800",
        "gnis:feature_id": "4848",
        "gnis:name": "French Gap Spring",
        "name": "French Gap Spring",
        "natural": "spring",
        "source": "NHD"
      }
    },
    {
      "type": "node",
      "id": 2006088677,
      "lat": 32.8160408,
      "lon": -110.4366666,
      "timestamp": "2012-11-10T09:52:41Z",
      "version": 1,
      "changeset": 13818586,
      "user": "Dr Kludge",
      "uid": 292665,
      "tags": {
        "fcode": "45800",
        "gnis:feature_id": "4939",
        "gnis:name": "Garden Spring",
        "name": "Garden Spring",
        "natural": "spring",
        "source": "NHD"
      }
    },
    {
      "type": "node",
      "id": 2006088984,
      "lat": 32.6986843,
      "lon": -110.4420914,
      "timestamp": "2012-11-10T09:53:13Z",
      "version": 1,
      "changeset": 13818586,
      "user": "Dr Kludge",
      "uid": 292665,
      "tags": {
        "fcode": "45800",
        "gnis:feature_id": "5951",
        "gnis:name": "Horse Camp Spring",
        "name": "Horse Camp Spring",
        "natural": "spring",
        "source": "NHD"
      }
    },
    {
      "type": "node",
      "id": 2006089645,
      "lat": 32.7984721,
      "lon": -110.4403128,
      "timestamp": "2012-11-10T09:53:26Z",
      "version": 1,
      "changeset": 13818586,
      "user": "Dr Kludge",
      "uid": 292665,
      "tags": {
        "fcode": "45800",
        "gnis:feature_id": "6282",
        "gnis:name": "Ison Spring",
        "name": "Ison Spring",
        "natural": "spring",
        "source": "NHD"
      }
    },
    {
      "type": "node",
      "id": 2006089848,
      "lat": 32.8557806,
      "lon": -110.4389718,
      "timestamp": "2012-11-10T09:53:28Z",
      "version": 1,
      "changeset": 13818586,
      "user": "Dr Kludge",
      "uid": 292665,
      "tags": {
        "fcode": "45800",
        "gnis:feature_id": "6330",
        "gnis:name": "Jackson Spring",
        "name": "Jackson Spring",
        "natural": "spring",
        "source": "NHD"
      }
    },
    {
      "type": "node",
      "id": 2006089870,
      "lat": 33.0943322,
      "lon": -110.4286792,
      "timestamp": "2012-11-10T09:53:29Z",
      "version": 1,
      "changeset": 13818586,
      "user": "Dr Kludge",
      "uid": 292665,
      "tags": {
        "fcode": "45800",
        "gnis:feature_id": "6359",
        "gnis:name": "Janis Spring",
        "name": "Janis Spring",
        "natural": "spring",
        "source": "NHD"
      }
    },
    {
      "type": "node",
      "id": 2006089986,
      "lat": 32.9678404,
      "lon": -110.4377195,
      "timestamp": "2012-11-10T09:53:31Z",
      "version": 1,
      "changeset": 13818586,
      "user": "Dr Kludge",
      "uid": 292665,
      "tags": {
        "fcode": "45800",
        "gnis:feature_id": "6460",
        "gnis:name": "John Spring",
        "name": "John Spring",
        "natural": "spring",
        "source": "NHD"
      }
    },
    {
      "type": "node",
      "id": 2006090189,
      "lat": 32.9640241,
      "lon": -110.4349669,
      "timestamp": "2012-11-10T09:53:35Z",
      "version": 1,
      "changeset": 13818586,
      "user": "Dr Kludge",
      "uid": 292665,
      "tags": {
        "fcode": "45800",
        "gnis:feature_id": "6547",
        "gnis:name": "Juniper Spring",
        "name": "Juniper Spring",
        "natural": "spring",
        "source": "NHD"
      }
    },
    {
      "type": "node",
      "id": 2006090732,
      "lat": 32.7044786,
      "lon": -110.8893548,
      "timestamp": "2012-11-10T09:53:43Z",
      "version": 1,
      "changeset": 13818586,
      "user": "Dr Kludge",
      "uid": 292665,
      "tags": {
        "fcode": "45800",
        "gnis:feature_id": "22544",
        "gnis:name": "Landsman Spring",
        "name": "Landsman Spring",
        "natural": "spring",
        "source": "NHD"
      }
    },
    {
      "type": "node",
      "id": 2006091445,
      "lat": 32.7344798,
      "lon": -110.5003411,
      "timestamp": "2012-11-10T09:54:37Z",
      "version": 1,
      "changeset": 13818586,
      "user": "Dr Kludge",
      "uid": 292665,
      "tags": {
        "fcode": "45800",
        "gnis:feature_id": "8411",
        "gnis:name": "Mulberry Spring",
        "name": "Mulberry Spring",
        "natural": "spring",
        "source": "NHD"
      }
    },
    {
      "type": "node",
      "id": 2006091618,
      "lat": 32.729632,
      "lon": -110.4438685,
      "timestamp": "2012-11-10T09:54:46Z",
      "version": 1,
      "changeset": 13818586,
      "user": "Dr Kludge",
      "uid": 292665,
      "tags": {
        "fcode": "45800",
        "gnis:feature_id": "8810",
        "gnis:name": "Norton Spring",
        "name": "Norton Spring",
        "natural": "spring",
        "source": "NHD"
      }
    },
    {
      "type": "node",
      "id": 2006091674,
      "lat": 32.7597736,
      "lon": -110.3948295,
      "timestamp": "2012-11-10T09:54:48Z",
      "version": 1,
      "changeset": 13818586,
      "user": "Dr Kludge",
      "uid": 292665,
      "tags": {
        "fcode": "45800",
        "gnis:feature_id": "8876",
        "gnis:name": "Oak Spring",
        "name": "Oak Spring",
        "natural": "spring",
        "source": "NHD"
      }
    },
    {
      "type": "node",
      "id": 2006091675,
      "lat": 32.9661614,
      "lon": -110.4287192,
      "timestamp": "2012-11-10T09:54:48Z",
      "version": 1,
      "changeset": 13818586,
      "user": "Dr Kludge",
      "uid": 292665,
      "tags": {
        "fcode": "45800",
        "gnis:feature_id": "8874",
        "gnis:name": "Oak Spring",
        "name": "Oak Spring",
        "natural": "spring",
        "source": "NHD"
      }
    },
    {
      "type": "node",
      "id": 2006091857,
      "lat": 32.7971458,
      "lon": -110.4787514,
      "timestamp": "2012-11-10T09:55:01Z",
      "version": 1,
      "changeset": 13818586,
      "user": "Dr Kludge",
      "uid": 292665,
      "tags": {
        "fcode": "45800",
        "gnis:feature_id": "9275",
        "gnis:name": "Peach Spring",
        "name": "Peach Spring",
        "natural": "spring",
        "source": "NHD"
      }
    },
    {
      "type": "node",
      "id": 2006092083,
      "lat": 32.9833667,
      "lon": -110.7267767,
      "timestamp": "2012-11-10T09:55:12Z",
      "version": 1,
      "changeset": 13818586,
      "user": "Dr Kludge",
      "uid": 292665,
      "tags": {
        "fcode": "45800",
        "gnis:feature_id": "9534",
        "gnis:name": "Piper Springs",
        "name": "Piper Springs",
        "natural": "spring",
        "source": "NHD"
      }
    },
    {
      "type": "node",
      "id": 2006092491,
      "lat": 32.5961914,
      "lon": -110.7299394,
      "timestamp": "2012-11-10T09:55:28Z",
      "version": 1,
      "changeset": 13818586,
      "user": "Dr Kludge",
      "uid": 292665,
      "tags": {
        "fcode": "45800",
        "gnis:feature_id": "33416",
        "gnis:name": "Ray Spring",
        "name": "Ray Spring",
        "natural": "spring",
        "source": "NHD"
      }
    },
    {
      "type": "node",
      "id": 2006093039,
      "lat": 32.7214592,
      "lon": -110.4895318,
      "timestamp": "2012-11-10T09:55:59Z",
      "version": 1,
      "changeset": 13818586,
      "user": "Dr Kludge",
      "uid": 292665,
      "tags": {
        "fcode": "45800",
        "gnis:feature_id": "23813",
        "gnis:name": "Scanlon Spring",
        "name": "Scanlon Spring",
        "natural": "spring",
        "source": "NHD"
      }
    },
    {
      "type": "node",
      "id": 2006093118,
      "lat": 32.6897596,
      "lon": -110.713166,
      "timestamp": "2012-11-10T09:56:09Z",
      "version": 1,
      "changeset": 13818586,
      "user": "Dr Kludge",
      "uid": 292665,
      "tags": {
        "fcode": "45800",
        "gnis:feature_id": "11264",
        "gnis:name": "Shultz Spring",
        "name": "Shultz Spring",
        "natural": "spring",
        "source": "NHD"
      }
    },
    {
      "type": "node",
      "id": 2006094127,
      "lat": 32.794254,
      "lon": -110.4283793,
      "timestamp": "2012-11-10T09:57:12Z",
      "version": 1,
      "changeset": 13818586,
      "user": "Dr Kludge",
      "uid": 292665,
      "tags": {
        "fcode": "45800",
        "gnis:feature_id": "13188",
        "gnis:name": "Van Dyke Spring",
        "name": "Van Dyke Spring",
        "natural": "spring",
        "source": "NHD"
      }
    },
    {
      "type": "node",
      "id": 2006094374,
      "lat": 32.7677881,
      "lon": -110.3992373,
      "timestamp": "2012-11-10T09:57:16Z",
      "version": 1,
      "changeset": 13818586,
      "user": "Dr Kludge",
      "uid": 292665,
      "tags": {
        "fcode": "45800",
        "gnis:feature_id": "22670",
        "gnis:name": "Walnut Spring",
        "name": "Walnut Spring",
        "natural": "spring",
        "source": "NHD"
      }
    },
    {
      "type": "node",
      "id": 2006095051,
      "lat": 32.7240231,
      "lon": -110.4917863,
      "timestamp": "2012-11-10T09:57:33Z",
      "version": 1,
      "changeset": 13818586,
      "user": "Dr Kludge",
      "uid": 292665,
      "tags": {
        "fcode": "45800",
        "gnis:feature_id": "13728",
        "gnis:name": "Whitting Spring",
        "name": "Whitting Spring",
        "natural": "spring",
        "source": "NHD"
      }
    },
    {
      "type": "node",
      "id": 2006095293,
      "lat": 32.7370402,
      "lon": -110.4060744,
      "timestamp": "2012-11-10T09:57:39Z",
      "version": 1,
      "changeset": 13818586,
      "user": "Dr Kludge",
      "uid": 292665,
      "tags": {
        "fcode": "45800",
        "gnis:feature_id": "13841",
        "gnis:name": "Willow Spring",
        "name": "Willow Spring",
        "natural": "spring",
        "source": "NHD"
      }
    },
    {
      "type": "node",
      "id": 2006095379,
      "lat": 32.7515957,
      "lon": -110.4050747,
      "timestamp": "2012-11-10T09:57:40Z",
      "version": 1,
      "changeset": 13818586,
      "user": "Dr Kludge",
      "uid": 292665,
      "tags": {
        "fcode": "45800",
        "gnis:feature_id": "22709",
        "gnis:name": "Willow Spring",
        "name": "Willow Spring",
        "natural": "spring",
        "source": "NHD"
      }
    },
    {
      "type": "node",
      "id": 2006095402,
      "lat": 33.1105554,
      "lon": -110.4732174,
      "timestamp": "2012-11-10T09:57:40Z",
      "version": 1,
      "changeset": 13818586,
      "user": "Dr Kludge",
      "uid": 292665,
      "tags": {
        "fcode": "45800",
        "gnis:feature_id": "13843",
        "gnis:name": "Willow Spring",
        "name": "Willow Spring",
        "natural": "spring",
        "source": "NHD"
      }
    },
    {
      "type": "node",
      "id": 2006095803,
      "lat": 32.7166598,
      "lon": -110.86854,
      "timestamp": "2012-11-10T09:57:46Z",
      "version": 1,
      "changeset": 13818586,
      "user": "Dr Kludge",
      "uid": 292665,
      "tags": {
        "fcode": "45800",
        "gnis:feature_id": "13868",
        "gnis:name": "Willow Springs",
        "name": "Willow Springs",
        "natural": "spring",
        "source": "NHD"
      }
    },
    {
      "type": "node",
      "id": 2006097006,
      "lat": 32.548629,
      "lon": -110.7083743,
      "timestamp": "2012-11-10T09:58:30Z",
      "version": 1,
      "changeset": 13818586,
      "user": "Dr Kludge",
      "uid": 292665,
      "tags": {
        "fcode": "45800",
        "natural": "spring",
        "source": "NHD"
      }
    },
    {
      "type": "node",
      "id": 2006097008,
      "lat": 32.5505823,
      "lon": -111.0533514,
      "timestamp": "2012-11-10T09:58:31Z",
      "version": 1,
      "changeset": 13818586,
      "user": "Dr Kludge",
      "uid": 292665,
      "tags": {
        "fcode": "45800",
        "natural": "spring",
        "source": "NHD"
      }
    },
    {
      "type": "node",
      "id": 2006097027,
      "lat": 32.5959164,
      "lon": -110.7299717,
      "timestamp": "2012-11-10T09:58:32Z",
      "version": 1,
      "changeset": 13818586,
      "user": "Dr Kludge",
      "uid": 292665,
      "tags": {
        "fcode": "45800",
        "natural": "spring",
        "source": "NHD"
      }
    },
    {
      "type": "node",
      "id": 2006097343,
      "lat": 32.6887256,
      "lon": -110.4439963,
      "timestamp": "2012-11-10T09:58:37Z",
      "version": 1,
      "changeset": 13818586,
      "user": "Dr Kludge",
      "uid": 292665,
      "tags": {
        "fcode": "45800",
        "natural": "spring",
        "source": "NHD"
      }
    },
    {
      "type": "node",
      "id": 2006097349,
      "lat": 32.6897495,
      "lon": -110.7133097,
      "timestamp": "2012-11-10T09:58:37Z",
      "version": 1,
      "changeset": 13818586,
      "user": "Dr Kludge",
      "uid": 292665,
      "tags": {
        "fcode": "45800",
        "natural": "spring",
        "source": "NHD"
      }
    },
    {
      "type": "node",
      "id": 2006097356,
      "lat": 32.6957654,
      "lon": -110.4721362,
      "timestamp": "2012-11-10T09:58:37Z",
      "version": 1,
      "changeset": 13818586,
      "user": "Dr Kludge",
      "uid": 292665,
      "tags": {
        "fcode": "45800",
        "natural": "spring",
        "source": "NHD"
      }
    },
    {
      "type": "node",
      "id": 2006097364,
      "lat": 32.696739,
      "lon": -110.4710765,
      "timestamp": "2012-11-10T09:58:37Z",
      "version": 1,
      "changeset": 13818586,
      "user": "Dr Kludge",
      "uid": 292665,
      "tags": {
        "fcode": "45800",
        "natural": "spring",
        "source": "NHD"
      }
    },
    {
      "type": "node",
      "id": 2006097368,
      "lat": 32.6983267,
      "lon": -110.4442765,
      "timestamp": "2012-11-10T09:58:37Z",
      "version": 1,
      "changeset": 13818586,
      "user": "Dr Kludge",
      "uid": 292665,
      "tags": {
        "fcode": "45800",
        "natural": "spring",
        "source": "NHD"
      }
    },
    {
      "type": "node",
      "id": 2006097374,
      "lat": 32.7049887,
      "lon": -110.7297048,
      "timestamp": "2012-11-10T09:58:37Z",
      "version": 1,
      "changeset": 13818586,
      "user": "Dr Kludge",
      "uid": 292665,
      "tags": {
        "fcode": "45800",
        "natural": "spring",
        "source": "NHD"
      }
    },
    {
      "type": "node",
      "id": 2006097383,
      "lat": 32.7068883,
      "lon": -110.4287064,
      "timestamp": "2012-11-10T09:58:37Z",
      "version": 1,
      "changeset": 13818586,
      "user": "Dr Kludge",
      "uid": 292665,
      "tags": {
        "fcode": "45800",
        "natural": "spring",
        "source": "NHD"
      }
    },
    {
      "type": "node",
      "id": 2006097399,
      "lat": 32.7118369,
      "lon": -110.4251609,
      "timestamp": "2012-11-10T09:58:39Z",
      "version": 1,
      "changeset": 13818586,
      "user": "Dr Kludge",
      "uid": 292665,
      "tags": {
        "fcode": "45800",
        "natural": "spring",
        "source": "NHD"
      }
    },
    {
      "type": "node",
      "id": 2006097404,
      "lat": 32.7164766,
      "lon": -110.415748,
      "timestamp": "2012-11-10T09:58:39Z",
      "version": 1,
      "changeset": 13818586,
      "user": "Dr Kludge",
      "uid": 292665,
      "tags": {
        "fcode": "45800",
        "natural": "spring",
        "source": "NHD"
      }
    },
    {
      "type": "node",
      "id": 2006097407,
      "lat": 32.7185872,
      "lon": -110.4110053,
      "timestamp": "2012-11-10T09:58:39Z",
      "version": 1,
      "changeset": 13818586,
      "user": "Dr Kludge",
      "uid": 292665,
      "tags": {
        "fcode": "45800",
        "natural": "spring",
        "source": "NHD"
      }
    },
    {
      "type": "node",
      "id": 2006097408,
      "lat": 32.7195313,
      "lon": -110.4041749,
      "timestamp": "2012-11-10T09:58:39Z",
      "version": 1,
      "changeset": 13818586,
      "user": "Dr Kludge",
      "uid": 292665,
      "tags": {
        "fcode": "45800",
        "natural": "spring",
        "source": "NHD"
      }
    },
    {
      "type": "node",
      "id": 2006097412,
      "lat": 32.7234703,
      "lon": -110.4853197,
      "timestamp": "2012-11-10T09:58:40Z",
      "version": 1,
      "changeset": 13818586,
      "user": "Dr Kludge",
      "uid": 292665,
      "tags": {
        "fcode": "45800",
        "natural": "spring",
        "source": "NHD"
      }
    },
    {
      "type": "node",
      "id": 2006097413,
      "lat": 32.7236908,
      "lon": -110.4837326,
      "timestamp": "2012-11-10T09:58:40Z",
      "version": 1,
      "changeset": 13818586,
      "user": "Dr Kludge",
      "uid": 292665,
      "tags": {
        "fcode": "45800",
        "natural": "spring",
        "source": "NHD"
      }
    },
    {
      "type": "node",
      "id": 2006097414,
      "lat": 32.7310334,
      "lon": -110.5304784,
      "timestamp": "2012-11-10T09:58:40Z",
      "version": 1,
      "changeset": 13818586,
      "user": "Dr Kludge",
      "uid": 292665,
      "tags": {
        "fcode": "45800",
        "natural": "spring",
        "source": "NHD"
      }
    },
    {
      "type": "node",
      "id": 2006097415,
      "lat": 32.7320894,
      "lon": -110.4524825,
      "timestamp": "2012-11-10T09:58:40Z",
      "version": 1,
      "changeset": 13818586,
      "user": "Dr Kludge",
      "uid": 292665,
      "tags": {
        "fcode": "45800",
        "natural": "spring",
        "source": "NHD"
      }
    },
    {
      "type": "node",
      "id": 2006097417,
      "lat": 32.7357988,
      "lon": -110.3929195,
      "timestamp": "2012-11-10T09:58:40Z",
      "version": 1,
      "changeset": 13818586,
      "user": "Dr Kludge",
      "uid": 292665,
      "tags": {
        "fcode": "45800",
        "natural": "spring",
        "source": "NHD"
      }
    },
    {
      "type": "node",
      "id": 2006097418,
      "lat": 32.7372078,
      "lon": -110.9081688,
      "timestamp": "2012-11-10T09:58:40Z",
      "version": 1,
      "changeset": 13818586,
      "user": "Dr Kludge",
      "uid": 292665,
      "tags": {
        "fcode": "45800",
        "natural": "spring",
        "source": "NHD"
      }
    },
    {
      "type": "node",
      "id": 2006097421,
      "lat": 32.739678,
      "lon": -110.4506487,
      "timestamp": "2012-11-10T09:58:41Z",
      "version": 1,
      "changeset": 13818586,
      "user": "Dr Kludge",
      "uid": 292665,
      "tags": {
        "fcode": "45800",
        "natural": "spring",
        "source": "NHD"
      }
    },
    {
      "type": "node",
      "id": 2006097424,
      "lat": 32.7417788,
      "lon": -110.448079,
      "timestamp": "2012-11-10T09:58:41Z",
      "version": 1,
      "changeset": 13818586,
      "user": "Dr Kludge",
      "uid": 292665,
      "tags": {
        "fcode": "45800",
        "natural": "spring",
        "source": "NHD"
      }
    },
    {
      "type": "node",
      "id": 2006097426,
      "lat": 32.742373,
      "lon": -110.4020578,
      "timestamp": "2012-11-10T09:58:41Z",
      "version": 1,
      "changeset": 13818586,
      "user": "Dr Kludge",
      "uid": 292665,
      "tags": {
        "fcode": "45800",
        "natural": "spring",
        "source": "NHD"
      }
    },
    {
      "type": "node",
      "id": 2006097427,
      "lat": 32.7439454,
      "lon": -110.4472528,
      "timestamp": "2012-11-10T09:58:41Z",
      "version": 1,
      "changeset": 13818586,
      "user": "Dr Kludge",
      "uid": 292665,
      "tags": {
        "fcode": "45800",
        "natural": "spring",
        "source": "NHD"
      }
    },
    {
      "type": "node",
      "id": 2006097428,
      "lat": 32.7439483,
      "lon": -110.3936181,
      "timestamp": "2012-11-10T09:58:41Z",
      "version": 1,
      "changeset": 13818586,
      "user": "Dr Kludge",
      "uid": 292665,
      "tags": {
        "fcode": "45800",
        "natural": "spring",
        "source": "NHD"
      }
    },
    {
      "type": "node",
      "id": 2006097431,
      "lat": 32.7459992,
      "lon": -110.4670925,
      "timestamp": "2012-11-10T09:58:42Z",
      "version": 1,
      "changeset": 13818586,
      "user": "Dr Kludge",
      "uid": 292665,
      "tags": {
        "fcode": "45800",
        "natural": "spring",
        "source": "NHD"
      }
    },
    {
      "type": "node",
      "id": 2006097433,
      "lat": 32.7481413,
      "lon": -110.441091,
      "timestamp": "2012-11-10T09:58:42Z",
      "version": 1,
      "changeset": 13818586,
      "user": "Dr Kludge",
      "uid": 292665,
      "tags": {
        "fcode": "45800",
        "natural": "spring",
        "source": "NHD"
      }
    },
    {
      "type": "node",
      "id": 2006097438,
      "lat": 32.7508848,
      "lon": -110.4291256,
      "timestamp": "2012-11-10T09:58:42Z",
      "version": 1,
      "changeset": 13818586,
      "user": "Dr Kludge",
      "uid": 292665,
      "tags": {
        "fcode": "45800",
        "natural": "spring",
        "source": "NHD"
      }
    },
    {
      "type": "node",
      "id": 2006097449,
      "lat": 32.7595099,
      "lon": -110.8628928,
      "timestamp": "2012-11-10T09:58:42Z",
      "version": 1,
      "changeset": 13818586,
      "user": "Dr Kludge",
      "uid": 292665,
      "tags": {
        "fcode": "45800",
        "natural": "spring",
        "source": "NHD"
      }
    },
    {
      "type": "node",
      "id": 2006097450,
      "lat": 32.760959,
      "lon": -110.4389452,
      "timestamp": "2012-11-10T09:58:42Z",
      "version": 1,
      "changeset": 13818586,
      "user": "Dr Kludge",
      "uid": 292665,
      "tags": {
        "fcode": "45800",
        "natural": "spring",
        "source": "NHD"
      }
    },
    {
      "type": "node",
      "id": 2006097451,
      "lat": 32.7621757,
      "lon": -110.405995,
      "timestamp": "2012-11-10T09:58:42Z",
      "version": 1,
      "changeset": 13818586,
      "user": "Dr Kludge",
      "uid": 292665,
      "tags": {
        "fcode": "45800",
        "natural": "spring",
        "source": "NHD"
      }
    },
    {
      "type": "node",
      "id": 2006097452,
      "lat": 32.762626,
      "lon": -110.4718437,
      "timestamp": "2012-11-10T09:58:43Z",
      "version": 1,
      "changeset": 13818586,
      "user": "Dr Kludge",
      "uid": 292665,
      "tags": {
        "fcode": "45800",
        "natural": "spring",
        "source": "NHD"
      }
    },
    {
      "type": "node",
      "id": 2006097456,
      "lat": 32.7655942,
      "lon": -110.4463061,
      "timestamp": "2012-11-10T09:58:44Z",
      "version": 1,
      "changeset": 13818586,
      "user": "Dr Kludge",
      "uid": 292665,
      "tags": {
        "fcode": "45800",
        "natural": "spring",
        "source": "NHD"
      }
    },
    {
      "type": "node",
      "id": 2006097458,
      "lat": 32.7669416,
      "lon": -110.432567,
      "timestamp": "2012-11-10T09:58:44Z",
      "version": 1,
      "changeset": 13818586,
      "user": "Dr Kludge",
      "uid": 292665,
      "tags": {
        "fcode": "45800",
        "natural": "spring",
        "source": "NHD"
      }
    },
    {
      "type": "node",
      "id": 2006097459,
      "lat": 32.7680414,
      "lon": -110.4342591,
      "timestamp": "2012-11-10T09:58:44Z",
      "version": 1,
      "changeset": 13818586,
      "user": "Dr Kludge",
      "uid": 292665,
      "tags": {
        "fcode": "45800",
        "natural": "spring",
        "source": "NHD"
      }
    },
    {
      "type": "node",
      "id": 2006097461,
      "lat": 32.7695308,
      "lon": -110.4525874,
      "timestamp": "2012-11-10T09:58:44Z",
      "version": 1,
      "changeset": 13818586,
      "user": "Dr Kludge",
      "uid": 292665,
      "tags": {
        "fcode": "45800",
        "natural": "spring",
        "source": "NHD"
      }
    },
    {
      "type": "node",
      "id": 2006097462,
      "lat": 32.7698505,
      "lon": -110.4415682,
      "timestamp": "2012-11-10T09:58:44Z",
      "version": 1,
      "changeset": 13818586,
      "user": "Dr Kludge",
      "uid": 292665,
      "tags": {
        "fcode": "45800",
        "natural": "spring",
        "source": "NHD"
      }
    },
    {
      "type": "node",
      "id": 2006097471,
      "lat": 32.773509,
      "lon": -110.4068176,
      "timestamp": "2012-11-10T09:58:44Z",
      "version": 1,
      "changeset": 13818586,
      "user": "Dr Kludge",
      "uid": 292665,
      "tags": {
        "fcode": "45800",
        "natural": "spring",
        "source": "NHD"
      }
    },
    {
      "type": "node",
      "id": 2006097483,
      "lat": 32.7824694,
      "lon": -110.4930983,
      "timestamp": "2012-11-10T09:58:46Z",
      "version": 1,
      "changeset": 13818586,
      "user": "Dr Kludge",
      "uid": 292665,
      "tags": {
        "fcode": "45800",
        "natural": "spring",
        "source": "NHD"
      }
    },
    {
      "type": "node",
      "id": 2006097484,
      "lat": 32.783421,
      "lon": -110.4242923,
      "timestamp": "2012-11-10T09:58:46Z",
      "version": 1,
      "changeset": 13818586,
      "user": "Dr Kludge",
      "uid": 292665,
      "tags": {
        "fcode": "45800",
        "natural": "spring",
        "source": "NHD"
      }
    },
    {
      "type": "node",
      "id": 2006097487,
      "lat": 32.7859391,
      "lon": -110.5475487,
      "timestamp": "2012-11-10T09:58:46Z",
      "version": 1,
      "changeset": 13818586,
      "user": "Dr Kludge",
      "uid": 292665,
      "tags": {
        "fcode": "45800",
        "natural": "spring",
        "source": "NHD"
      }
    },
    {
      "type": "node",
      "id": 2006097488,
      "lat": 32.7861819,
      "lon": -110.4300857,
      "timestamp": "2012-11-10T09:58:46Z",
      "version": 1,
      "changeset": 13818586,
      "user": "Dr Kludge",
      "uid": 292665,
      "tags": {
        "fcode": "45800",
        "natural": "spring",
        "source": "NHD"
      }
    },
    {
      "type": "node",
      "id": 2006097489,
      "lat": 32.7868418,
      "lon": -110.4299294,
      "timestamp": "2012-11-10T09:58:46Z",
      "version": 1,
      "changeset": 13818586,
      "user": "Dr Kludge",
      "uid": 292665,
      "tags": {
        "fcode": "45800",
        "natural": "spring",
        "source": "NHD"
      }
    },
    {
      "type": "node",
      "id": 2006097491,
      "lat": 32.7904043,
      "lon": -110.397945,
      "timestamp": "2012-11-10T09:58:47Z",
      "version": 1,
      "changeset": 13818586,
      "user": "Dr Kludge",
      "uid": 292665,
      "tags": {
        "fcode": "45800",
        "natural": "spring",
        "source": "NHD"
      }
    },
    {
      "type": "node",
      "id": 2006097492,
      "lat": 32.7926325,
      "lon": -110.4017004,
      "timestamp": "2012-11-10T09:58:47Z",
      "version": 1,
      "changeset": 13818586,
      "user": "Dr Kludge",
      "uid": 292665,
      "tags": {
        "fcode": "45800",
        "natural": "spring",
        "source": "NHD"
      }
    },
    {
      "type": "node",
      "id": 2006097494,
      "lat": 32.795893,
      "lon": -110.433633,
      "timestamp": "2012-11-10T09:58:47Z",
      "version": 1,
      "changeset": 13818586,
      "user": "Dr Kludge",
      "uid": 292665,
      "tags": {
        "fcode": "45800",
        "natural": "spring",
        "source": "NHD"
      }
    },
    {
      "type": "node",
      "id": 2006097496,
      "lat": 32.8000035,
      "lon": -110.4642988,
      "timestamp": "2012-11-10T09:58:47Z",
      "version": 1,
      "changeset": 13818586,
      "user": "Dr Kludge",
      "uid": 292665,
      "tags": {
        "fcode": "45800",
        "natural": "spring",
        "source": "NHD"
      }
    },
    {
      "type": "node",
      "id": 2006097508,
      "lat": 32.8076606,
      "lon": -110.4408535,
      "timestamp": "2012-11-10T09:58:48Z",
      "version": 1,
      "changeset": 13818586,
      "user": "Dr Kludge",
      "uid": 292665,
      "tags": {
        "fcode": "45800",
        "natural": "spring",
        "source": "NHD"
      }
    },
    {
      "type": "node",
      "id": 2006097511,
      "lat": 32.8118064,
      "lon": -110.4474695,
      "timestamp": "2012-11-10T09:58:49Z",
      "version": 1,
      "changeset": 13818586,
      "user": "Dr Kludge",
      "uid": 292665,
      "tags": {
        "fcode": "45800",
        "natural": "spring",
        "source": "NHD"
      }
    },
    {
      "type": "node",
      "id": 2006097512,
      "lat": 32.8132199,
      "lon": -110.4395578,
      "timestamp": "2012-11-10T09:58:49Z",
      "version": 1,
      "changeset": 13818586,
      "user": "Dr Kludge",
      "uid": 292665,
      "tags": {
        "fcode": "45800",
        "natural": "spring",
        "source": "NHD"
      }
    },
    {
      "type": "node",
      "id": 2006097514,
      "lat": 32.8230598,
      "lon": -110.4845724,
      "timestamp": "2012-11-10T09:58:49Z",
      "version": 1,
      "changeset": 13818586,
      "user": "Dr Kludge",
      "uid": 292665,
      "tags": {
        "fcode": "45800",
        "natural": "spring",
        "source": "NHD"
      }
    },
    {
      "type": "node",
      "id": 2006097515,
      "lat": 32.8239754,
      "lon": -110.4762302,
      "timestamp": "2012-11-10T09:58:49Z",
      "version": 1,
      "changeset": 13818586,
      "user": "Dr Kludge",
      "uid": 292665,
      "tags": {
        "fcode": "45800",
        "natural": "spring",
        "source": "NHD"
      }
    },
    {
      "type": "node",
      "id": 2006097516,
      "lat": 32.8246252,
      "lon": -110.7545186,
      "timestamp": "2022-02-14T04:56:28Z",
      "version": 2,
      "changeset": 117376059,
      "user": "BubbaJuice",
      "uid": 9941767,
      "tags": {
        "fcode": "45800",
        "gnis:feature_id": "9825",
        "gnis:name": "Putnam Spring",
        "name": "Putnam Spring",
        "natural": "spring",
        "source": "NHD"
      }
    },
    {
      "type": "node",
      "id": 2006097517,
      "lat": 32.8258768,
      "lon": -110.4568362,
      "timestamp": "2012-11-10T09:58:49Z",
      "version": 1,
      "changeset": 13818586,
      "user": "Dr Kludge",
      "uid": 292665,
      "tags": {
        "fcode": "45800",
        "natural": "spring",
        "source": "NHD"
      }
    },
    {
      "type": "node",
      "id": 2006097518,
      "lat": 32.8266761,
      "lon": -110.4896933,
      "timestamp": "2012-11-10T09:58:49Z",
      "version": 1,
      "changeset": 13818586,
      "user": "Dr Kludge",
      "uid": 292665,
      "tags": {
        "fcode": "45800",
        "natural": "spring",
        "source": "NHD"
      }
    },
    {
      "type": "node",
      "id": 2006097528,
      "lat": 32.8404773,
      "lon": -110.4327968,
      "timestamp": "2012-11-10T09:58:50Z",
      "version": 1,
      "changeset": 13818586,
      "user": "Dr Kludge",
      "uid": 292665,
      "tags": {
        "fcode": "45800",
        "natural": "spring",
        "source": "NHD"
      }
    },
    {
      "type": "node",
      "id": 2006097543,
      "lat": 32.8665295,
      "lon": -110.4944333,
      "timestamp": "2012-11-10T09:58:51Z",
      "version": 1,
      "changeset": 13818586,
      "user": "Dr Kludge",
      "uid": 292665,
      "tags": {
        "fcode": "45800",
        "natural": "spring",
        "source": "NHD"
      }
    },
    {
      "type": "node",
      "id": 2006097557,
      "lat": 32.903967,
      "lon": -110.730429,
      "timestamp": "2022-03-20T17:50:23Z",
      "version": 2,
      "changeset": 118705345,
      "user": "BubbaJuice",
      "uid": 9941767,
      "tags": {
        "fcode": "45800",
        "natural": "spring",
        "source": "NHD"
      }
    },
    {
      "type": "node",
      "id": 2006097564,
      "lat": 32.9216457,
      "lon": -110.6507209,
      "timestamp": "2012-11-10T09:58:53Z",
      "version": 1,
      "changeset": 13818586,
      "user": "Dr Kludge",
      "uid": 292665,
      "tags": {
        "fcode": "45800",
        "natural": "spring",
        "source": "NHD"
      }
    },
    {
      "type": "node",
      "id": 2006097565,
      "lat": 32.9225821,
      "lon": -110.4874335,
      "timestamp": "2012-11-10T09:58:53Z",
      "version": 1,
      "changeset": 13818586,
      "user": "Dr Kludge",
      "uid": 292665,
      "tags": {
        "fcode": "45800",
        "natural": "spring",
        "source": "NHD"
      }
    },
    {
      "type": "node",
      "id": 2006097566,
      "lat": 32.9240058,
      "lon": -110.4890643,
      "timestamp": "2012-11-10T09:58:54Z",
      "version": 1,
      "changeset": 13818586,
      "user": "Dr Kludge",
      "uid": 292665,
      "tags": {
        "fcode": "45800",
        "natural": "spring",
        "source": "NHD"
      }
    },
    {
      "type": "node",
      "id": 2006097570,
      "lat": 32.9240975,
      "lon": -110.6482748,
      "timestamp": "2012-11-10T09:58:54Z",
      "version": 1,
      "changeset": 13818586,
      "user": "Dr Kludge",
      "uid": 292665,
      "tags": {
        "fcode": "45800",
        "natural": "spring",
        "source": "NHD"
      }
    },
    {
      "type": "node",
      "id": 2006097576,
      "lat": 32.9321973,
      "lon": -110.4365915,
      "timestamp": "2012-11-10T09:58:54Z",
      "version": 1,
      "changeset": 13818586,
      "user": "Dr Kludge",
      "uid": 292665,
      "tags": {
        "fcode": "45800",
        "natural": "spring",
        "source": "NHD"
      }
    },
    {
      "type": "node",
      "id": 2006097624,
      "lat": 32.9613673,
      "lon": -110.6607362,
      "timestamp": "2012-11-10T09:58:56Z",
      "version": 1,
      "changeset": 13818586,
      "user": "Dr Kludge",
      "uid": 292665,
      "tags": {
        "fcode": "45800",
        "natural": "spring",
        "source": "NHD"
      }
    },
    {
      "type": "node",
      "id": 2006097625,
      "lat": 32.9625275,
      "lon": -110.6602727,
      "timestamp": "2012-11-10T09:58:56Z",
      "version": 1,
      "changeset": 13818586,
      "user": "Dr Kludge",
      "uid": 292665,
      "tags": {
        "fcode": "45800",
        "natural": "spring",
        "source": "NHD"
      }
    },
    {
      "type": "node",
      "id": 2006097626,
      "lat": 32.9664047,
      "lon": -110.4287633,
      "timestamp": "2012-11-10T09:58:56Z",
      "version": 1,
      "changeset": 13818586,
      "user": "Dr Kludge",
      "uid": 292665,
      "tags": {
        "fcode": "45800",
        "natural": "spring",
        "source": "NHD"
      }
    },
    {
      "type": "node",
      "id": 2006097633,
      "lat": 32.9732667,
      "lon": -110.425155,
      "timestamp": "2012-11-10T09:58:57Z",
      "version": 1,
      "changeset": 13818586,
      "user": "Dr Kludge",
      "uid": 292665,
      "tags": {
        "fcode": "45800",
        "natural": "spring",
        "source": "NHD"
      }
    },
    {
      "type": "node",
      "id": 2006097636,
      "lat": 32.9767191,
      "lon": -110.4205749,
      "timestamp": "2012-11-10T09:58:57Z",
      "version": 1,
      "changeset": 13818586,
      "user": "Dr Kludge",
      "uid": 292665,
      "tags": {
        "fcode": "45800",
        "natural": "spring",
        "source": "NHD"
      }
    },
    {
      "type": "node",
      "id": 2006097637,
      "lat": 32.9774953,
      "lon": -110.4258264,
      "timestamp": "2012-11-10T09:58:57Z",
      "version": 1,
      "changeset": 13818586,
      "user": "Dr Kludge",
      "uid": 292665,
      "tags": {
        "fcode": "45800",
        "natural": "spring",
        "source": "NHD"
      }
    },
    {
      "type": "node",
      "id": 2006097639,
      "lat": 32.9792598,
      "lon": -110.4219508,
      "timestamp": "2012-11-10T09:58:57Z",
      "version": 1,
      "changeset": 13818586,
      "user": "Dr Kludge",
      "uid": 292665,
      "tags": {
        "fcode": "45800",
        "natural": "spring",
        "source": "NHD"
      }
    },
    {
      "type": "node",
      "id": 2006097640,
      "lat": 32.9835037,
      "lon": -110.7266393,
      "timestamp": "2012-11-10T09:58:57Z",
      "version": 1,
      "changeset": 13818586,
      "user": "Dr Kludge",
      "uid": 292665,
      "tags": {
        "fcode": "45800",
        "natural": "spring",
        "source": "NHD"
      }
    },
    {
      "type": "node",
      "id": 2006097824,
      "lat": 33.1248717,
      "lon": -110.4033144,
      "timestamp": "2012-11-10T09:59:06Z",
      "version": 1,
      "changeset": 13818586,
      "user": "Dr Kludge",
      "uid": 292665,
      "tags": {
        "fcode": "45800",
        "natural": "spring",
        "source": "NHD"
      }
    },
    {
      "type": "node",
      "id": 3353329481,
      "lat": 32.6114587,
      "lon": -110.7375261,
      "timestamp": "2015-02-16T03:30:33Z",
      "version": 1,
      "changeset": 28876740,
      "user": "GreggTownsend",
      "uid": 199926,
      "tags": {
        "amenity": "shelter"
      }
    },
    {
      "type": "node",
      "id": 3353329482,
      "lat": 32.6122991,
      "lon": -110.7378774,
      "timestamp": "2015-02-16T03:30:33Z",
      "version": 1,
      "changeset": 28876740,
      "user": "GreggTownsend",
      "uid": 199926,
      "tags": {
        "amenity": "shelter"
      }
    },
    {
      "type": "node",
      "id": 4145856263,
      "lat": 32.987474,
      "lon": -110.7704515,
      "timestamp": "2021-10-15T03:18:34Z",
      "version": 2,
      "changeset": 112526049,
      "user": "maxerickson",
      "uid": 360392,
      "tags": {
        "addr:city": "Winkelman",
        "addr:housenumber": "105",
        "addr:postcode": "85192",
        "addr:state": "AZ",
        "addr:street": "West 2nd Street",
        "brand": "Speedway",
        "brand:wikidata": "Q7575683",
        "brand:wikipedia": "en:Speedway (store)",
        "name": "Speedway",
        "phone": "520-356-6616",
        "ref": "2968",
        "shop": "convenience",
        "wheelchair": "yes"
      }
    },
    {
      "type": "node",
      "id": 4862371416,
      "lat": 33.0595134,
      "lon": -110.9058135,
      "timestamp": "2017-05-18T18:20:03Z",
      "version": 1,
      "changeset": 48799489,
      "user": "bcskillings",
      "uid": 6004317,
      "tags": {
        "name": "Cactus Video and Market",
        "opening_hours": "24/7",
        "shop": "convenience"
      }
    },
    {
      "type": "node",
      "id": 4862372359,
      "lat": 33.053057,
      "lon": -110.916078,
      "timestamp": "2017-05-18T18:20:04Z",
      "version": 1,
      "changeset": 48799489,
      "user": "bcskillings",
      "uid": 6004317,
      "tags": {
        "amenity": "drinking_water",
        "name": "Water fill station"
      }
    },
    {
      "type": "node",
      "id": 6213405755,
      "lat": 32.5523969,
      "lon": -110.7238591,
      "timestamp": "2019-01-16T14:22:40Z",
      "version": 1,
      "changeset": 66364966,
      "user": "byronigoe",
      "uid": 3979272,
      "tags": {
        "access": "no",
        "natural": "cave_entrance"
      }
    },
    {
      "type": "node",
      "id": 6273315647,
      "lat": 32.5590613,
      "lon": -110.7362968,
      "timestamp": "2019-02-12T00:36:56Z",
      "version": 1,
      "changeset": 67116776,
      "user": "byronigoe",
      "uid": 3979272,
      "tags": {
        "fee": "no",
        "natural": "cave_entrance"
      }
    },
    {
      "type": "node",
      "id": 7373767811,
      "lat": 33.0306508,
      "lon": -110.974892,
      "timestamp": "2020-04-06T23:44:41Z",
      "version": 1,
      "changeset": 83168105,
      "user": "Buster452",
      "uid": 404027,
      "tags": {
        "name": "Ripsey Spring",
        "natural": "spring"
      }
    },
    {
      "type": "node",
      "id": 8228224074,
      "lat": 32.8718075,
      "lon": -110.5984122,
      "timestamp": "2020-12-14T16:12:05Z",
      "version": 1,
      "changeset": 95816691,
      "user": "Buster452",
      "uid": 404027,
      "tags": {
        "name": "Brandenburg Campground",
        "operator": "Bureau of Land Management",
        "tourism": "camp_site"
      }
    },
    {
      "type": "node",
      "id": 8228224076,
      "lat": 32.8828974,
      "lon": -110.4373316,
      "timestamp": "2020-12-14T16:12:05Z",
      "version": 1,
      "changeset": 95816691,
      "user": "Buster452",
      "uid": 404027,
      "tags": {
        "name": "Turkey Creek Camp Sites",
        "operator": "Bureau of Land Management",
        "tourism": "camp_site"
      }
    },
    {
      "type": "node",
      "id": 8322688793,
      "lat": 32.6135707,
      "lon": -110.8727413,
      "timestamp": "2021-01-14T23:33:11Z",
      "version": 1,
      "changeset": 97519690,
      "user": "Buster452",
      "uid": 404027,
      "tags": {
        "backcountry": "yes",
        "sanitary_dump_station": "no",
        "tourism": "camp_site"
      }
    },
    {
      "type": "node",
      "id": 8403749050,
      "lat": 33.059946,
      "lon": -110.721704,
      "timestamp": "2021-02-17T02:21:33Z",
      "version": 3,
      "changeset": 99413360,
      "user": "Buster452",
      "uid": 404027,
      "tags": {
        "ele": "607",
        "name": "Christmas",
        "operator": "Bureau of Land Management",
        "tourism": "camp_site"
      }
    },
    {
      "type": "node",
      "id": 8403749051,
      "lat": 33.0216593,
      "lon": -110.7389088,
      "timestamp": "2021-02-17T02:17:18Z",
      "version": 3,
      "changeset": 99413262,
      "user": "Buster452",
      "uid": 404027,
      "tags": {
        "ele": "601",
        "name": "Shores",
        "operator": "Bureau of Land Management",
        "tourism": "camp_site"
      }
    },
    {
      "type": "node",
      "id": 8427670543,
      "lat": 33.1059384,
      "lon": -110.9740477,
      "timestamp": "2021-02-16T05:24:04Z",
      "version": 1,
      "changeset": 99347279,
      "user": "Buster452",
      "uid": 404027,
      "tags": {
        "amenity": "drinking_water"
      }
    },
    {
      "type": "node",
      "id": 9503947850,
      "lat": 32.7843059,
      "lon": -110.6730824,
      "timestamp": "2022-02-14T04:52:49Z",
      "version": 1,
      "changeset": 117376059,
      "user": "BubbaJuice",
      "uid": 9941767,
      "tags": {
        "natural": "spring"
      }
    },
    {
      "type": "way",
      "id": 240187829,
      "timestamp": "2016-07-10T23:26:38Z",
      "version": 2,
      "changeset": 40640027,
      "user": "Your Village Maps",
      "uid": 227972,
      "center": {
        "lat": 32.570169,
        "lon": -110.9453381
      },
      "nodes": [],
      "tags": {
        "amenity": "shelter",
        "building": "roof",
        "name": "Roadside Table",
        "shelter_type": "picnic_shelter"
      }
    },
    {
      "type": "way",
      "id": 249376781,
      "timestamp": "2013-12-01T14:22:30Z",
      "version": 1,
      "changeset": 19211172,
      "user": "n76",
      "uid": 318696,
      "center": {
        "lat": 32.6196968,
        "lon": -110.7953105
      },
      "nodes": [],
      "tags": {
        "addr:city": "Oracle",
        "addr:housenumber": "2000",
        "addr:street": "West American Avenue",
        "building": "yes",
        "name": "Circle K",
        "phone": "+1 520 896 9822",
        "shop": "convenience",
        "source": "bing;survey"
      }
    },
    {
      "type": "way",
      "id": 342580987,
      "timestamp": "2018-01-08T04:54:47Z",
      "version": 2,
      "changeset": 55253886,
      "user": "AJ Riley",
      "uid": 157922,
      "center": {
        "lat": 32.6141846,
        "lon": -110.6287475
      },
      "nodes": [],
      "tags": {
        "addr:city": "San Manuel",
        "addr:housenumber": "110",
        "addr:postcode": "85631",
        "addr:street": "North Redington Road",
        "building": "retail",
        "name": "Salt 'n Pepper Food Mart",
        "shop": "convenience"
      }
    },
    {
      "type": "way",
      "id": 494477128,
      "timestamp": "2017-05-18T18:20:06Z",
      "version": 1,
      "changeset": 48799489,
      "user": "bcskillings",
      "uid": 6004317,
      "center": {
        "lat": 33.0586029,
        "lon": -110.906295
      },
      "nodes": [],
      "tags": {
        "building": "yes",
        "name": "Norm's IGA",
        "shop": "supermarket"
      }
    },
    {
      "type": "way",
      "id": 647106251,
      "timestamp": "2018-11-21T03:53:10Z",
      "version": 1,
      "changeset": 64721597,
      "user": "n76",
      "uid": 318696,
      "center": {
        "lat": 32.7243011,
        "lon": -110.6447845
      },
      "nodes": [],
      "tags": {
        "building": "retail",
        "name": "Circle K",
        "shop": "convenience"
      }
    },
    {
      "type": "way",
      "id": 902900369,
      "timestamp": "2021-02-02T04:57:17Z",
      "version": 1,
      "changeset": 98547666,
      "user": "Buster452",
      "uid": 404027,
      "center": {
        "lat": 33.0510129,
        "lon": -110.8985952
      },
      "nodes": [],
      "tags": {
        "capacity": "13",
        "name": "Kearny Lake Campgrounds",
        "operator": "Town of Kearny",
        "tourism": "camp_site"
      }
    },
    {
      "type": "way",
      "id": 903197468,
      "timestamp": "2021-02-16T05:32:07Z",
      "version": 2,
      "changeset": 99347797,
      "user": "Buster452",
      "uid": 404027,
      "center": {
        "lat": 33.0661473,
        "lon": -110.8911104
      },
      "nodes": [],
      "tags": {
        "capacity": "10",
        "name": "Mescal Mountain OHV Area",
        "operator": "Town of Kearny",
        "tourism": "camp_site"
      }
    },
    {
      "type": "way",
      "id": 907611911,
      "timestamp": "2021-02-16T05:32:07Z",
      "version": 1,
      "changeset": 99347797,
      "user": "Buster452",
      "uid": 404027,
      "center": {
        "lat": 33.0658177,
        "lon": -110.8917569
      },
      "nodes": [],
      "tags": {
        "amenity": "shelter",
        "shelter_type": "picnic_shelter"
      }
    },
    {
      "type": "way",
      "id": 907611912,
      "timestamp": "2021-02-16T05:32:07Z",
      "version": 1,
      "changeset": 99347797,
      "user": "Buster452",
      "uid": 404027,
      "center": {
        "lat": 33.0657717,
        "lon": -110.8916432
      },
      "nodes": [],
      "tags": {
        "amenity": "shelter",
        "shelter_type": "picnic_shelter"
      }
    },
    {
      "type": "way",
      "id": 907611913,
      "timestamp": "2021-02-16T05:32:07Z",
      "version": 1,
      "changeset": 99347797,
      "user": "Buster452",
      "uid": 404027,
      "center": {
        "lat": 33.0657646,
        "lon": -110.8915346
      },
      "nodes": [],
      "tags": {
        "amenity": "shelter",
        "shelter_type": "picnic_shelter"
      }
    },
    {
      "type": "way",
      "id": 907611914,
      "timestamp": "2021-02-16T05:32:07Z",
      "version": 1,
      "changeset": 99347797,
      "user": "Buster452",
      "uid": 404027,
      "center": {
        "lat": 33.065729,
        "lon": -110.8919342
      },
      "nodes": [],
      "tags": {
        "amenity": "shelter",
        "shelter_type": "picnic_shelter"
      }
    },
    {
      "type": "way",
      "id": 907611915,
      "timestamp": "2021-02-16T05:32:07Z",
      "version": 1,
      "changeset": 99347797,
      "user": "Buster452",
      "uid": 404027,
      "center": {
        "lat": 33.0654294,
        "lon": -110.8912878
      },
      "nodes": [],
      "tags": {
        "amenity": "shelter",
        "shelter_type": "picnic_shelter"
      }
    },
    {
      "type": "way",
      "id": 907611916,
      "timestamp": "2021-02-16T05:32:07Z",
      "version": 1,
      "changeset": 99347797,
      "user": "Buster452",
      "uid": 404027,
      "center": {
        "lat": 33.0653862,
        "lon": -110.8917899
      },
      "nodes": [],
      "tags": {
        "amenity": "shelter",
        "shelter_type": "picnic_shelter"
      }
    },
    {
      "type": "way",
      "id": 907611917,
      "timestamp": "2021-02-16T05:32:07Z",
      "version": 1,
      "changeset": 99347797,
      "user": "Buster452",
      "uid": 404027,
      "center": {
        "lat": 33.0655367,
        "lon": -110.8920606
      },
      "nodes": [],
      "tags": {
        "amenity": "shelter",
        "shelter_type": "picnic_shelter"
      }
    },
    {
      "type": "way",
      "id": 907611918,
      "timestamp": "2021-02-16T05:32:07Z",
      "version": 1,
      "changeset": 99347797,
      "user": "Buster452",
      "uid": 404027,
      "center": {
        "lat": 33.0653746,
        "lon": -110.8919221
      },
      "nodes": [],
      "tags": {
        "amenity": "shelter",
        "shelter_type": "picnic_shelter"
      }
    },
    {
      "type": "way",
      "id": 907611919,
      "timestamp": "2021-02-16T05:32:07Z",
      "version": 1,
      "changeset": 99347797,
      "user": "Buster452",
      "uid": 404027,
      "center": {
        "lat": 33.0653406,
        "lon": -110.8920801
      },
      "nodes": [],
      "tags": {
        "amenity": "shelter",
        "shelter_type": "picnic_shelter"
      }
    },
    {
      "type": "way",
      "id": 907613322,
      "timestamp": "2021-02-17T03:27:30Z",
      "version": 3,
      "changeset": 99415399,
      "user": "Buster452",
      "uid": 404027,
      "center": {
        "lat": 32.9878057,
        "lon": -110.7666224
      },
      "nodes": [],
      "tags": {
        "capacity": "12",
        "caravans": "yes",
        "fee": "yes",
        "leisure": "park",
        "name": "Winkelman Flats",
        "tents": "yes",
        "toilets": "yes",
        "tourism": "camp_site"
      }
    },
    {
      "type": "way",
      "id": 907931828,
      "timestamp": "2021-02-17T03:27:30Z",
      "version": 1,
      "changeset": 99415399,
      "user": "Buster452",
      "uid": 404027,
      "center": {
        "lat": 32.9888097,
        "lon": -110.7656743
      },
      "nodes": [],
      "tags": {
        "amenity": "shelter",
        "name": "Group Pavilion",
        "shelter_type": "picnic_shelter"
      }
    },
    {
      "type": "way",
      "id": 918504411,
      "timestamp": "2021-03-18T03:18:09Z",
      "version": 1,
      "changeset": 101221450,
      "user": "n76",
      "uid": 318696,
      "center": {
        "lat": 32.6100967,
        "lon": -110.7352566
      },
      "nodes": [],
      "tags": {
        "amenity": "shelter",
        "building": "roof",
        "layer": "1"
      }
    },
    {
      "type": "way",
      "id": 918504428,
      "timestamp": "2021-03-18T03:18:09Z",
      "version": 1,
      "changeset": 101221450,
      "user": "n76",
      "uid": 318696,
      "center": {
        "lat": 32.6054544,
        "lon": -110.7363006
      },
      "nodes": [],
      "tags": {
        "amenity": "shelter",
        "building": "roof",
        "layer": "1"
      }
    },
    {
      "type": "way",
      "id": 918504429,
      "timestamp": "2021-03-18T03:18:09Z",
      "version": 1,
      "changeset": 101221450,
      "user": "n76",
      "uid": 318696,
      "center": {
        "lat": 32.6068273,
        "lon": -110.735968
      },
      "nodes": [],
      "tags": {
        "amenity": "shelter",
        "building": "roof",
        "layer": "1"
      }
    },
    {
      "type": "way",
      "id": 926959687,
      "timestamp": "2021-04-07T04:00:05Z",
      "version": 1,
      "changeset": 102442328,
      "user": "Buster452",
      "uid": 404027,
      "center": {
        "lat": 33.0520997,
        "lon": -110.8998792
      },
      "nodes": [],
      "tags": {
        "amenity": "shelter",
        "shelter_type": "picnic_shelter"
      }
    },
    {
      "type": "way",
      "id": 926959688,
      "timestamp": "2021-04-07T04:00:05Z",
      "version": 1,
      "changeset": 102442328,
      "user": "Buster452",
      "uid": 404027,
      "center": {
        "lat": 33.0522287,
        "lon": -110.8996431
      },
      "nodes": [],
      "tags": {
        "amenity": "shelter",
        "shelter_type": "picnic_shelter"
      }
    }
  ]
}