{
  "osm3s": {
    "timestamp_osm_date": "2022-05-09T23:59:59Z",
    "timestamp_osm_base": "2022-05-10T03:35:05Z",
    "copyright": "The data included in this document is from www.openstreetmap.org. The data is made available under ODbL."
  },
  "elements": [
    {
      "type": "node",
      "id": 150948284,
      "lat": 31.3349006,
      "lon": -110.6229786,
      "timestamp": "2017-09-29T05:30:29Z",
      "version": 4,
      "changeset": 52465340,
      "user": "Edward",
      "uid": 364,
      "tags": {
        "ele": "1428",
        "gnis:Class": "Populated Place",
        "gnis:County": "Santa Cruz",
        "gnis:County_num": "023",
        "gnis:ST_alpha": "AZ",
        "gnis:ST_num": "04",
        "gnis:id": "31163",
        "import_uuid": "bb7269ee-502a-5391-8056-e3ce0e66489c",
        "is_in": "Santa Cruz,Arizona,Ariz.,AZ,USA",
        "name": "Lochiel",
        "place": "hamlet",
        "wikidata": "Q14680551"
      }
    },
    {
      "type": "node",
      "id": 150965272,
      "lat": 31.3402134,
      "lon": -110.9360818,
      "timestamp": "2021-01-20T04:28:14Z",
      "version": 9,
      "changeset": 97804593,
      "user": "ZeLonewolf",
      "uid": 219297,
      "tags": {
        "census:population": "20768;2006",
        "ele": "1168",
        "gnis:County": "Santa Cruz",
        "gnis:County_num": "023",
        "gnis:ST_alpha": "AZ",
        "gnis:ST_num": "04",
        "gnis:id": "32336",
        "import_uuid": "bb7269ee-502a-5391-8056-e3ce0e66489c",
        "is_in": "Santa Cruz,Arizona,Ariz.,AZ,USA",
        "name": "Nogales",
        "name:en": "Nogales",
        "name:ru": "Ногалес",
        "name:uk": "Ногалес",
        "place": "town",
        "population": "20768",
        "wikidata": "Q79783",
        "wikipedia": "en:Nogales, Arizona"
      }
    },
    {
      "type": "node",
      "id": 316791163,
      "lat": 31.3078109,
      "lon": -110.9424823,
      "timestamp": "2019-10-24T17:53:37Z",
      "version": 10,
      "changeset": 76168760,
      "user": "1T-money",
      "uid": 3715012,
      "tags": {
        "is_in": "Nogales,Sonora, México",
        "name": "Heroica Nogales",
        "name:ru": "Эройка-Ногалес",
        "place": "city",
        "population": "212533",
        "source": "https://mexico.pueblosamerica.com/i/heroica-nogales/",
        "wikidata": "Q990001",
        "wikipedia": "en:Nogales, Sonora"
      }
    },
    {
      "type": "node",
      "id": 318098970,
      "lat": 30.7874899,
      "lon": -110.8463861,
      "timestamp": "2019-02-11T15:39:47Z",
      "version": 3,
      "changeset": 67104084,
      "user": "1T-money",
      "uid": 3715012,
      "tags": {
        "is_in": "Imuris, Sonora, México",
        "name": "Imuris",
        "place": "town",
        "population": "6841"
      }
    },
    {
      "type": "node",
      "id": 336168677,
      "lat": 30.8833333,
      "lon": -110.4041667,
      "timestamp": "2009-01-25T03:49:16Z",
      "version": 1,
      "changeset": 833386,
      "user": "lsmex",
      "uid": 50872,
      "tags": {
        "is_in": "Cananea,Sonora,Mexico",
        "name": "Cowboy",
        "place": "village"
      }
    },
    {
      "type": "node",
      "id": 336168734,
      "lat": 30.9350617,
      "lon": -110.409867,
      "timestamp": "2021-04-13T19:08:17Z",
      "version": 2,
      "changeset": 102884594,
      "user": "Josuer",
      "uid": 3382594,
      "tags": {
        "name": "Los Alisos",
        "place": "village"
      }
    },
    {
      "type": "node",
      "id": 336168797,
      "lat": 31.0052714,
      "lon": -110.4920003,
      "timestamp": "2019-11-30T03:10:20Z",
      "version": 2,
      "changeset": 77748100,
      "user": "1T-money",
      "uid": 3715012,
      "tags": {
        "is_in": "Cananea,Sonora,Mexico",
        "name": "Cuitaca",
        "place": "village",
        "population": "424"
      }
    },
    {
      "type": "node",
      "id": 336168812,
      "lat": 30.9808244,
      "lon": -110.4712132,
      "timestamp": "2019-11-30T03:10:20Z",
      "version": 2,
      "changeset": 77748100,
      "user": "1T-money",
      "uid": 3715012,
      "tags": {
        "is_in": "Cananea,Sonora,Mexico",
        "name": "Vicente Guerrero",
        "place": "village",
        "population": "217"
      }
    },
    {
      "type": "node",
      "id": 336168836,
      "lat": 31.0678333,
      "lon": -110.4763333,
      "timestamp": "2009-01-25T03:50:33Z",
      "version": 1,
      "changeset": 833386,
      "user": "lsmex",
      "uid": 50872,
      "tags": {
        "is_in": "Cananea,Sonora,Mexico",
        "name": "La Cieneguita",
        "place": "village"
      }
    },
    {
      "type": "node",
      "id": 336168861,
      "lat": 30.8575,
      "lon": -110.4003333,
      "timestamp": "2009-01-25T03:50:46Z",
      "version": 1,
      "changeset": 833386,
      "user": "lsmex",
      "uid": 50872,
      "tags": {
        "is_in": "Cananea,Sonora,Mexico",
        "name": "San Isidro Uno",
        "place": "village"
      }
    },
    {
      "type": "node",
      "id": 336168986,
      "lat": 30.9188075,
      "lon": -110.4458456,
      "timestamp": "2021-04-13T19:08:17Z",
      "version": 2,
      "changeset": 102884594,
      "user": "Josuer",
      "uid": 3382594,
      "tags": {
        "name": "San Juan",
        "place": "hamlet"
      }
    },
    {
      "type": "node",
      "id": 336170402,
      "lat": 30.7973415,
      "lon": -110.7750121,
      "timestamp": "2021-04-14T19:48:21Z",
      "version": 2,
      "changeset": 102949728,
      "user": "Josuer",
      "uid": 3382594,
      "tags": {
        "name": "La Cima",
        "place": "hamlet"
      }
    },
    {
      "type": "node",
      "id": 336170423,
      "lat": 30.8282531,
      "lon": -110.6637035,
      "timestamp": "2021-04-14T00:35:42Z",
      "version": 2,
      "changeset": 102892308,
      "user": "Josuer",
      "uid": 3382594,
      "tags": {
        "name": "Aribabi Viejo",
        "place": "hamlet"
      }
    },
    {
      "type": "node",
      "id": 336170435,
      "lat": 31.0408333,
      "lon": -110.6735,
      "timestamp": "2009-01-25T04:01:59Z",
      "version": 1,
      "changeset": 833386,
      "user": "lsmex",
      "uid": 50872,
      "tags": {
        "is_in": "Imuris,Sonora,Mexico",
        "name": "Los Fresnos",
        "place": "village"
      }
    },
    {
      "type": "node",
      "id": 336170443,
      "lat": 30.7918333,
      "lon": -110.7925,
      "timestamp": "2009-01-25T04:02:04Z",
      "version": 1,
      "changeset": 833386,
      "user": "lsmex",
      "uid": 50872,
      "tags": {
        "is_in": "Imuris,Sonora,Mexico",
        "name": "El Carmen",
        "place": "village"
      }
    },
    {
      "type": "node",
      "id": 336170447,
      "lat": 30.8882507,
      "lon": -110.8518047,
      "timestamp": "2019-11-29T04:12:37Z",
      "version": 2,
      "changeset": 77704646,
      "user": "1T-money",
      "uid": 3715012,
      "tags": {
        "is_in": "Imuris,Sonora,Mexico",
        "name": "Estación Cumeral",
        "place": "hamlet",
        "population": "168"
      }
    },
    {
      "type": "node",
      "id": 336170449,
      "lat": 30.8011667,
      "lon": -110.7751667,
      "timestamp": "2009-01-25T04:02:06Z",
      "version": 1,
      "changeset": 833386,
      "user": "lsmex",
      "uid": 50872,
      "tags": {
        "is_in": "Imuris,Sonora,Mexico",
        "name": "La Quinta",
        "place": "village"
      }
    },
    {
      "type": "node",
      "id": 336170453,
      "lat": 30.7710243,
      "lon": -110.8438904,
      "timestamp": "2019-11-29T04:24:27Z",
      "version": 3,
      "changeset": 77704980,
      "user": "1T-money",
      "uid": 3715012,
      "tags": {
        "is_in": "Imuris,Sonora,Mexico",
        "name": "Cañada del Diablo",
        "place": "hamlet",
        "population": "210"
      }
    },
    {
      "type": "node",
      "id": 336170456,
      "lat": 30.7651437,
      "lon": -110.8864189,
      "timestamp": "2019-11-30T04:12:14Z",
      "version": 3,
      "changeset": 77749246,
      "user": "1T-money",
      "uid": 3715012,
      "tags": {
        "is_in": "Imuris,Sonora,Mexico",
        "name": "El Ranchito",
        "place": "hamlet",
        "population": "82"
      }
    },
    {
      "type": "node",
      "id": 336170478,
      "lat": 30.9393716,
      "lon": -110.9880836,
      "timestamp": "2021-03-20T16:28:54Z",
      "version": 2,
      "changeset": 101394170,
      "user": "luisrobledomx1",
      "uid": 10119349,
      "tags": {
        "name": "Punta de Agua",
        "place": "hamlet"
      }
    },
    {
      "type": "node",
      "id": 336170482,
      "lat": 30.8857466,
      "lon": -110.6201583,
      "timestamp": "2021-04-14T00:00:11Z",
      "version": 3,
      "changeset": 102891855,
      "user": "Josuer",
      "uid": 3382594,
      "tags": {
        "name": "Oro Negro",
        "place": "hamlet"
      }
    },
    {
      "type": "node",
      "id": 336170486,
      "lat": 30.7748333,
      "lon": -110.8065,
      "timestamp": "2009-01-25T04:02:25Z",
      "version": 1,
      "changeset": 833386,
      "user": "lsmex",
      "uid": 50872,
      "tags": {
        "is_in": "Imuris,Sonora,Mexico",
        "name": "Monte Quemado",
        "place": "village"
      }
    },
    {
      "type": "node",
      "id": 336170490,
      "lat": 30.8370035,
      "lon": -110.8357884,
      "timestamp": "2019-11-29T04:12:37Z",
      "version": 2,
      "changeset": 77704646,
      "user": "1T-money",
      "uid": 3715012,
      "tags": {
        "is_in": "Imuris,Sonora,Mexico",
        "name": "Los Janos",
        "place": "village",
        "population": "434"
      }
    },
    {
      "type": "node",
      "id": 336170497,
      "lat": 30.7683333,
      "lon": -110.704,
      "timestamp": "2009-01-25T04:02:30Z",
      "version": 1,
      "changeset": 833386,
      "user": "lsmex",
      "uid": 50872,
      "tags": {
        "is_in": "Imuris,Sonora,Mexico",
        "name": "Los Remedios",
        "place": "village"
      }
    },
    {
      "type": "node",
      "id": 336170500,
      "lat": 30.8061509,
      "lon": -110.771424,
      "timestamp": "2021-04-14T19:48:21Z",
      "version": 2,
      "changeset": 102949728,
      "user": "Josuer",
      "uid": 3382594,
      "tags": {
        "name": "Puerta del Cajón",
        "place": "hamlet"
      }
    },
    {
      "type": "node",
      "id": 336170505,
      "lat": 30.7722958,
      "lon": -110.875224,
      "timestamp": "2019-02-11T15:39:48Z",
      "version": 3,
      "changeset": 67104084,
      "user": "1T-money",
      "uid": 3715012,
      "tags": {
        "is_in": "Imuris,Sonora,Mexico",
        "name": "El Crucero",
        "place": "village"
      }
    },
    {
      "type": "node",
      "id": 336170510,
      "lat": 30.8130815,
      "lon": -110.8474416,
      "timestamp": "2019-11-29T04:18:20Z",
      "version": 3,
      "changeset": 77704796,
      "user": "1T-money",
      "uid": 3715012,
      "tags": {
        "is_in": "Imuris,Sonora,Mexico",
        "name": "Las Viguitas",
        "place": "hamlet",
        "population": "106"
      }
    },
    {
      "type": "node",
      "id": 336170518,
      "lat": 30.8773966,
      "lon": -110.9226872,
      "timestamp": "2021-05-04T17:24:11Z",
      "version": 3,
      "changeset": 104138494,
      "user": "Josuer",
      "uid": 3382594,
      "tags": {
        "name": "Los Vallecitos",
        "place": "hamlet"
      }
    },
    {
      "type": "node",
      "id": 336170544,
      "lat": 30.7878333,
      "lon": -110.7871667,
      "timestamp": "2009-01-25T04:02:50Z",
      "version": 1,
      "changeset": 833386,
      "user": "lsmex",
      "uid": 50872,
      "tags": {
        "is_in": "Imuris,Sonora,Mexico",
        "name": "Babasac",
        "place": "village"
      }
    },
    {
      "type": "node",
      "id": 336170549,
      "lat": 30.7839171,
      "lon": -110.824852,
      "timestamp": "2019-12-16T04:22:34Z",
      "version": 3,
      "changeset": 78449395,
      "user": "1T-money",
      "uid": 3715012,
      "tags": {
        "is_in": "Imuris,Sonora,Mexico",
        "name": "El Álamo",
        "place": "hamlet"
      }
    },
    {
      "type": "node",
      "id": 336170553,
      "lat": 30.8250155,
      "lon": -110.8380241,
      "timestamp": "2019-11-29T04:18:20Z",
      "version": 2,
      "changeset": 77704796,
      "user": "1T-money",
      "uid": 3715012,
      "tags": {
        "is_in": "Imuris,Sonora,Mexico",
        "name": "Cerro Blanco",
        "place": "hamlet"
      }
    },
    {
      "type": "node",
      "id": 336170564,
      "lat": 30.7697326,
      "lon": -110.8553863,
      "timestamp": "2019-11-29T04:24:27Z",
      "version": 3,
      "changeset": 77704980,
      "user": "1T-money",
      "uid": 3715012,
      "tags": {
        "is_in": "Imuris,Sonora,Mexico",
        "name": "Campo Carretero",
        "place": "village",
        "population": "1252"
      }
    },
    {
      "type": "node",
      "id": 336170565,
      "lat": 30.7928333,
      "lon": -110.7896667,
      "timestamp": "2009-01-25T04:03:05Z",
      "version": 1,
      "changeset": 833386,
      "user": "lsmex",
      "uid": 50872,
      "tags": {
        "is_in": "Imuris,Sonora,Mexico",
        "name": "La Cantina",
        "place": "village"
      }
    },
    {
      "type": "node",
      "id": 336170570,
      "lat": 30.777557,
      "lon": -110.8737403,
      "timestamp": "2019-02-11T15:39:48Z",
      "version": 4,
      "changeset": 67104084,
      "user": "1T-money",
      "uid": 3715012,
      "tags": {
        "is_in": "Imuris,Sonora,Mexico",
        "name": "La Estación",
        "place": "village"
      }
    },
    {
      "type": "node",
      "id": 336170576,
      "lat": 31.0246667,
      "lon": -110.6175,
      "timestamp": "2009-01-25T04:03:13Z",
      "version": 1,
      "changeset": 833386,
      "user": "lsmex",
      "uid": 50872,
      "tags": {
        "is_in": "Imuris,Sonora,Mexico",
        "name": "La Concordia",
        "place": "village"
      }
    },
    {
      "type": "node",
      "id": 336170617,
      "lat": 30.8419159,
      "lon": -111.0817871,
      "timestamp": "2021-05-03T22:39:28Z",
      "version": 4,
      "changeset": 104082217,
      "user": "Josuer",
      "uid": 3382594,
      "tags": {
        "name": "La Joya",
        "place": "village"
      }
    },
    {
      "type": "node",
      "id": 336170641,
      "lat": 31.0246876,
      "lon": -110.8926142,
      "timestamp": "2019-11-29T04:12:37Z",
      "version": 2,
      "changeset": 77704646,
      "user": "1T-money",
      "uid": 3715012,
      "tags": {
        "is_in": "Imuris,Sonora,Mexico",
        "name": "Campestre el Potrero",
        "place": "hamlet"
      }
    },
    {
      "type": "node",
      "id": 336170648,
      "lat": 30.8412643,
      "lon": -110.8349725,
      "timestamp": "2019-11-29T04:12:37Z",
      "version": 2,
      "changeset": 77704646,
      "user": "1T-money",
      "uid": 3715012,
      "tags": {
        "is_in": "Imuris,Sonora,Mexico",
        "name": "Invernadero Cris-P (Casas Verdes)",
        "place": "hamlet",
        "population": "319"
      }
    },
    {
      "type": "node",
      "id": 336170660,
      "lat": 30.7846667,
      "lon": -110.7923333,
      "timestamp": "2009-01-25T04:04:30Z",
      "version": 1,
      "changeset": 833386,
      "user": "lsmex",
      "uid": 50872,
      "tags": {
        "is_in": "Imuris,Sonora,Mexico",
        "name": "La Galera",
        "place": "village"
      }
    },
    {
      "type": "node",
      "id": 336170686,
      "lat": 30.7590396,
      "lon": -110.8526627,
      "timestamp": "2019-11-30T02:04:00Z",
      "version": 3,
      "changeset": 77747204,
      "user": "1T-money",
      "uid": 3715012,
      "tags": {
        "is_in": "Imuris,Sonora,Mexico",
        "name": "Guadalupe Tabanico (Kilómetro 3)",
        "place": "hamlet"
      }
    },
    {
      "type": "node",
      "id": 336170688,
      "lat": 30.755,
      "lon": -110.767,
      "timestamp": "2009-01-25T04:04:41Z",
      "version": 1,
      "changeset": 833386,
      "user": "lsmex",
      "uid": 50872,
      "tags": {
        "is_in": "Imuris,Sonora,Mexico",
        "name": "El Chinalito",
        "place": "village"
      }
    },
    {
      "type": "node",
      "id": 336170695,
      "lat": 30.8016667,
      "lon": -110.7595,
      "timestamp": "2009-01-25T04:04:44Z",
      "version": 1,
      "changeset": 833386,
      "user": "lsmex",
      "uid": 50872,
      "tags": {
        "is_in": "Imuris,Sonora,Mexico",
        "name": "Canada de los Yaquis",
        "place": "village"
      }
    },
    {
      "type": "node",
      "id": 336170712,
      "lat": 30.7878803,
      "lon": -110.9768677,
      "timestamp": "2021-05-04T17:24:11Z",
      "version": 4,
      "changeset": 104138494,
      "user": "Josuer",
      "uid": 3382594,
      "tags": {
        "name": "La Mariana",
        "place": "village"
      }
    },
    {
      "type": "node",
      "id": 336170813,
      "lat": 30.8758077,
      "lon": -111.0687177,
      "timestamp": "2021-05-03T22:31:51Z",
      "version": 3,
      "changeset": 104082085,
      "user": "Josuer",
      "uid": 3382594,
      "tags": {
        "name": "El Carricito",
        "place": "village"
      }
    },
    {
      "type": "node",
      "id": 336170898,
      "lat": 30.9368333,
      "lon": -111.0833333,
      "timestamp": "2020-09-01T06:14:34Z",
      "version": 2,
      "changeset": 90223524,
      "user": "mdelatorre",
      "uid": 84642,
      "tags": {
        "name": "El Aguajito",
        "place": "village"
      }
    },
    {
      "type": "node",
      "id": 336170942,
      "lat": 30.9228333,
      "lon": -111.0585,
      "timestamp": "2020-09-01T06:14:34Z",
      "version": 2,
      "changeset": 90223524,
      "user": "mdelatorre",
      "uid": 84642,
      "tags": {
        "name": "El Rincon",
        "place": "village"
      }
    },
    {
      "type": "node",
      "id": 336173424,
      "lat": 31.1259631,
      "lon": -110.9301292,
      "timestamp": "2019-12-10T03:40:53Z",
      "version": 3,
      "changeset": 78181052,
      "user": "1T-money",
      "uid": 3715012,
      "tags": {
        "is_in": "Nogales,Sonora,Mexico",
        "name": "Ejido Cíbuta Sector 2",
        "place": "village",
        "source": "https://mexico.pueblosamerica.com/i/ejido-cibuta-sector-dos/"
      }
    },
    {
      "type": "node",
      "id": 336173475,
      "lat": 31.1527215,
      "lon": -110.9471311,
      "timestamp": "2019-11-07T01:21:43Z",
      "version": 3,
      "changeset": 76727957,
      "user": "1T-money",
      "uid": 3715012,
      "tags": {
        "is_in": "Nogales,Sonora,Mexico",
        "name": "Rancho el 22 (Ejido Cíbuta)",
        "place": "village",
        "population": "216",
        "source": "https://mexico.pueblosamerica.com/i/rancho-el-22-ejido-cibuta/"
      }
    },
    {
      "type": "node",
      "id": 336173483,
      "lat": 31.1483047,
      "lon": -111.0560483,
      "timestamp": "2017-11-28T19:59:24Z",
      "version": 3,
      "changeset": 54159318,
      "user": "werst-nouveau",
      "uid": 7044393,
      "tags": {
        "is_in": "Nogales,Sonora,Mexico",
        "name": "El Tescalar (El Embudo)",
        "place": "hamlet"
      }
    },
    {
      "type": "node",
      "id": 336173545,
      "lat": 31.2744144,
      "lon": -110.7931742,
      "timestamp": "2019-12-17T23:45:09Z",
      "version": 5,
      "changeset": 78549170,
      "user": "1T-money",
      "uid": 3715012,
      "tags": {
        "alt_name": "Francisco Miguel Cárdenas Valdez",
        "is_in": "Nogales,Sonora,Mexico",
        "name": "Cárdenas Valdez (Mascareñas)",
        "place": "village",
        "population": "541"
      }
    },
    {
      "type": "node",
      "id": 336173586,
      "lat": 31.0355414,
      "lon": -110.894063,
      "timestamp": "2019-11-29T04:12:37Z",
      "version": 2,
      "changeset": 77704646,
      "user": "1T-money",
      "uid": 3715012,
      "tags": {
        "is_in": "Nogales,Sonora,Mexico",
        "name": "Las Parrillas",
        "place": "hamlet"
      }
    },
    {
      "type": "node",
      "id": 336173587,
      "lat": 31.2006681,
      "lon": -110.7512555,
      "timestamp": "2019-01-14T22:27:12Z",
      "version": 2,
      "changeset": 66316667,
      "user": "1T-money",
      "uid": 3715012,
      "tags": {
        "is_in": "Nogales,Sonora,Mexico",
        "name": "Francisco Miguel Cardenas Valdez (Los Picos)",
        "place": "hamlet"
      }
    },
    {
      "type": "node",
      "id": 336173591,
      "lat": 31.2112761,
      "lon": -110.9734941,
      "timestamp": "2019-11-30T02:33:24Z",
      "version": 3,
      "changeset": 77747493,
      "user": "1T-money",
      "uid": 3715012,
      "tags": {
        "is_in": "Nogales,Sonora,Mexico",
        "name": "Guadalupe (Jiménez)",
        "place": "hamlet"
      }
    },
    {
      "type": "node",
      "id": 336173593,
      "lat": 31.1098333,
      "lon": -110.9168333,
      "timestamp": "2019-11-07T02:44:48Z",
      "version": 2,
      "changeset": 76729404,
      "user": "1T-money",
      "uid": 3715012,
      "tags": {
        "is_in": "Nogales,Sonora,Mexico",
        "name": "Las Encontradas",
        "place": "hamlet"
      }
    },
    {
      "type": "node",
      "id": 336173598,
      "lat": 31.2487851,
      "lon": -111.0475046,
      "timestamp": "2020-05-11T19:40:49Z",
      "version": 3,
      "changeset": 85042923,
      "user": "aguasabajo",
      "uid": 2498368,
      "tags": {
        "is_in": "Nogales,Sonora,Mexico",
        "name": "La Destiladera",
        "place": "hamlet"
      }
    },
    {
      "type": "node",
      "id": 336173603,
      "lat": 31.0747892,
      "lon": -110.9052936,
      "timestamp": "2019-11-29T04:12:37Z",
      "version": 2,
      "changeset": 77704646,
      "user": "1T-money",
      "uid": 3715012,
      "tags": {
        "is_in": "Nogales,Sonora,Mexico",
        "name": "La Cieneguita",
        "place": "hamlet",
        "population": "59"
      }
    },
    {
      "type": "node",
      "id": 336173606,
      "lat": 31.0619755,
      "lon": -110.8979683,
      "timestamp": "2019-11-29T04:12:37Z",
      "version": 3,
      "changeset": 77704646,
      "user": "1T-money",
      "uid": 3715012,
      "tags": {
        "is_in": "Nogales,Sonora,Mexico",
        "name": "Cíbuta",
        "place": "village",
        "population": "675"
      }
    },
    {
      "type": "node",
      "id": 336173622,
      "lat": 31.1432185,
      "lon": -111.006853,
      "timestamp": "2017-11-28T19:59:25Z",
      "version": 2,
      "changeset": 54159318,
      "user": "werst-nouveau",
      "uid": 7044393,
      "tags": {
        "is_in": "Nogales,Sonora,Mexico",
        "name": "San Antonio",
        "place": "hamlet"
      }
    },
    {
      "type": "node",
      "id": 336173639,
      "lat": 31.1692725,
      "lon": -111.0232978,
      "timestamp": "2017-11-28T19:59:25Z",
      "version": 3,
      "changeset": 54159318,
      "user": "werst-nouveau",
      "uid": 7044393,
      "tags": {
        "is_in": "Nogales,Sonora,Mexico",
        "name": "El Bellotoso",
        "place": "hamlet"
      }
    },
    {
      "type": "node",
      "id": 336173654,
      "lat": 31.2519922,
      "lon": -110.7812665,
      "timestamp": "2019-01-14T22:27:12Z",
      "version": 2,
      "changeset": 66316667,
      "user": "1T-money",
      "uid": 3715012,
      "tags": {
        "is_in": "Nogales,Sonora,Mexico",
        "name": "Lic. Adolfo Lopez Mateos",
        "place": "hamlet"
      }
    },
    {
      "type": "node",
      "id": 336173655,
      "lat": 31.2874837,
      "lon": -111.0844497,
      "timestamp": "2019-01-08T15:33:33Z",
      "version": 2,
      "changeset": 66131972,
      "user": "1T-money",
      "uid": 3715012,
      "tags": {
        "is_in": "Nogales,Sonora,Mexico",
        "name": "El Ruido",
        "place": "hamlet"
      }
    },
    {
      "type": "node",
      "id": 336173656,
      "lat": 31.0923465,
      "lon": -110.90661,
      "timestamp": "2019-11-29T04:12:37Z",
      "version": 2,
      "changeset": 77704646,
      "user": "1T-money",
      "uid": 3715012,
      "tags": {
        "is_in": "Nogales,Sonora,Mexico",
        "name": "Rancho el Suizo",
        "place": "hamlet"
      }
    },
    {
      "type": "node",
      "id": 336173659,
      "lat": 31.2589453,
      "lon": -110.7775084,
      "timestamp": "2019-01-14T22:27:12Z",
      "version": 2,
      "changeset": 66316667,
      "user": "1T-money",
      "uid": 3715012,
      "tags": {
        "is_in": "Nogales,Sonora,Mexico",
        "name": "Cadillal",
        "place": "hamlet"
      }
    },
    {
      "type": "node",
      "id": 336173751,
      "lat": 31.0450779,
      "lon": -110.8921348,
      "timestamp": "2019-11-29T04:12:37Z",
      "version": 2,
      "changeset": 77704646,
      "user": "1T-money",
      "uid": 3715012,
      "tags": {
        "is_in": "Nogales,Sonora,Mexico",
        "name": "La Bellota",
        "place": "hamlet",
        "population": "132"
      }
    },
    {
      "type": "node",
      "id": 336184936,
      "lat": 31.055,
      "lon": -110.501,
      "timestamp": "2009-01-25T05:13:42Z",
      "version": 1,
      "changeset": 833386,
      "user": "lsmex",
      "uid": 50872,
      "tags": {
        "is_in": "Santa Cruz,Sonora,Mexico",
        "name": "Corral Colorado",
        "place": "village"
      }
    },
    {
      "type": "node",
      "id": 336184978,
      "lat": 31.0675,
      "lon": -110.4886667,
      "timestamp": "2009-01-25T05:13:54Z",
      "version": 1,
      "changeset": 833386,
      "user": "lsmex",
      "uid": 50872,
      "tags": {
        "is_in": "Santa Cruz,Sonora,Mexico",
        "name": "Miguel Dojakes Rosas",
        "place": "village"
      }
    },
    {
      "type": "node",
      "id": 336185073,
      "lat": 31.0683333,
      "lon": -110.6515,
      "timestamp": "2009-01-25T05:14:19Z",
      "version": 1,
      "changeset": 833386,
      "user": "lsmex",
      "uid": 50872,
      "tags": {
        "is_in": "Santa Cruz,Sonora,Mexico",
        "name": "La Colorada",
        "place": "village"
      }
    },
    {
      "type": "node",
      "id": 336185100,
      "lat": 31.0583333,
      "lon": -110.4911667,
      "timestamp": "2009-01-25T05:14:25Z",
      "version": 1,
      "changeset": 833386,
      "user": "lsmex",
      "uid": 50872,
      "tags": {
        "is_in": "Santa Cruz,Sonora,Mexico",
        "name": "El Colorado",
        "place": "village"
      }
    },
    {
      "type": "node",
      "id": 336185162,
      "lat": 31.1694511,
      "lon": -110.7214595,
      "timestamp": "2019-01-14T22:30:00Z",
      "version": 2,
      "changeset": 66316747,
      "user": "1T-money",
      "uid": 3715012,
      "tags": {
        "is_in": "Santa Cruz,Sonora,Mexico",
        "name": "El Paredes",
        "place": "hamlet"
      }
    },
    {
      "type": "node",
      "id": 336185777,
      "lat": 31.2325445,
      "lon": -110.5965681,
      "timestamp": "2019-11-15T17:55:53Z",
      "version": 3,
      "changeset": 77141106,
      "user": "1T-money",
      "uid": 3715012,
      "tags": {
        "is_in": "Santa Cruz,Sonora,Mexico",
        "name": "Santa Cruz",
        "place": "town",
        "population": "1038",
        "source": "https://mexico.pueblosamerica.com/i/santa-cruz-249/"
      }
    },
    {
      "type": "node",
      "id": 336185847,
      "lat": 31.04003,
      "lon": -110.6167353,
      "timestamp": "2021-04-14T20:18:33Z",
      "version": 2,
      "changeset": 102950813,
      "user": "Josuer",
      "uid": 3382594,
      "tags": {
        "is_in": "Santa Cruz,Sonora,Mexico",
        "name": "La Paz",
        "place": "hamlet"
      }
    },
    {
      "type": "node",
      "id": 336185856,
      "lat": 31.1451869,
      "lon": -110.6440157,
      "timestamp": "2019-12-02T04:24:50Z",
      "version": 3,
      "changeset": 77798293,
      "user": "1T-money",
      "uid": 3715012,
      "tags": {
        "is_in": "Santa Cruz,Sonora,Mexico",
        "name": "Miguel Hidalgo (San Lázaro)",
        "place": "village",
        "population": "640"
      }
    },
    {
      "type": "node",
      "id": 336185859,
      "lat": 31.1090885,
      "lon": -110.4500836,
      "timestamp": "2019-12-12T02:24:04Z",
      "version": 2,
      "changeset": 78287823,
      "user": "1T-money",
      "uid": 3715012,
      "tags": {
        "is_in": "Santa Cruz,Sonora,Mexico",
        "name": "Milpillas",
        "place": "village",
        "population": "172"
      }
    },
    {
      "type": "node",
      "id": 336185866,
      "lat": 31.2112929,
      "lon": -110.4069726,
      "timestamp": "2017-04-30T23:12:31Z",
      "version": 2,
      "changeset": 48294400,
      "user": "they",
      "uid": 448442,
      "tags": {
        "is_in": "Santa Cruz,Sonora,Mexico",
        "name": "Terrenate Viejo (Terrenate)",
        "place": "hamlet"
      }
    },
    {
      "type": "node",
      "id": 2006084273,
      "lat": 31.3432012,
      "lon": -111.0435858,
      "timestamp": "2012-11-10T09:50:34Z",
      "version": 1,
      "changeset": 13818586,
      "user": "Dr Kludge",
      "uid": 292665,
      "tags": {
        "fcode": "45800",
        "gnis:feature_id": "25530",
        "gnis:name": "Adobe Spring",
        "name": "Adobe Spring",
        "natural": "spring",
        "source": "NHD"
      }
    },
    {
      "type": "node",
      "id": 2006085276,
      "lat": 31.3440087,
      "lon": -110.6921034,
      "timestamp": "2012-11-10T09:50:57Z",
      "version": 1,
      "changeset": 13818586,
      "user": "Dr Kludge",
      "uid": 292665,
      "tags": {
        "fcode": "45800",
        "gnis:feature_id": "36549",
        "gnis:name": "Benton Spring",
        "name": "Benton Spring",
        "natural": "spring",
        "source": "NHD"
      }
    },
    {
      "type": "node",
      "id": 2006086063,
      "lat": 31.3346935,
      "lon": -111.0556988,
      "timestamp": "2012-11-10T09:51:21Z",
      "version": 1,
      "changeset": 13818586,
      "user": "Dr Kludge",
      "uid": 292665,
      "tags": {
        "fcode": "45800",
        "gnis:feature_id": "26973",
        "gnis:name": "Bull Spring",
        "name": "Bull Spring",
        "natural": "spring",
        "source": "NHD"
      }
    },
    {
      "type": "node",
      "id": 2006092687,
      "lat": 31.3443001,
      "lon": -111.0369205,
      "timestamp": "2012-11-10T09:55:48Z",
      "version": 1,
      "changeset": 13818586,
      "user": "Dr Kludge",
      "uid": 292665,
      "tags": {
        "fcode": "45800",
        "gnis:feature_id": "33883",
        "gnis:name": "Russell Spring",
        "name": "Russell Spring",
        "natural": "spring",
        "source": "NHD"
      }
    },
    {
      "type": "node",
      "id": 2006096002,
      "lat": 31.3355951,
      "lon": -110.8696794,
      "timestamp": "2012-11-10T09:57:55Z",
      "version": 1,
      "changeset": 13818586,
      "user": "Dr Kludge",
      "uid": 292665,
      "tags": {
        "fcode": "45800",
        "natural": "spring",
        "source": "NHD"
      }
    },
    {
      "type": "node",
      "id": 2006096006,
      "lat": 31.3365634,
      "lon": -111.0707129,
      "timestamp": "2012-11-10T09:57:55Z",
      "version": 1,
      "changeset": 13818586,
      "user": "Dr Kludge",
      "uid": 292665,
      "tags": {
        "fcode": "45800",
        "natural": "spring",
        "source": "NHD"
      }
    },
    {
      "type": "node",
      "id": 2006096009,
      "lat": 31.3383916,
      "lon": -110.9038389,
      "timestamp": "2012-11-10T09:57:55Z",
      "version": 1,
      "changeset": 13818586,
      "user": "Dr Kludge",
      "uid": 292665,
      "tags": {
        "fcode": "45800",
        "natural": "spring",
        "source": "NHD"
      }
    },
    {
      "type": "node",
      "id": 3865129965,
      "lat": 31.2627665,
      "lon": -110.948128,
      "timestamp": "2019-12-28T21:41:05Z",
      "version": 2,
      "changeset": 78966103,
      "user": "aguasabajo",
      "uid": 2498368,
      "tags": {
        "brand": "Oxxo",
        "brand:wikidata": "Q1342538",
        "brand:wikipedia": "es:Oxxo",
        "name": "Oxxo",
        "shop": "convenience"
      }
    },
    {
      "type": "node",
      "id": 3865138521,
      "lat": 31.2621651,
      "lon": -110.9491165,
      "timestamp": "2015-11-28T14:48:25Z",
      "version": 1,
      "changeset": 35629571,
      "user": "morray",
      "uid": 91790,
      "tags": {
        "name": "Super del Norte",
        "shop": "supermarket"
      }
    },
    {
      "type": "node",
      "id": 3865138644,
      "lat": 31.1631161,
      "lon": -110.9540038,
      "timestamp": "2017-11-28T14:01:24Z",
      "version": 2,
      "changeset": 54150009,
      "user": "werst-nouveau",
      "uid": 7044393,
      "tags": {
        "name": "OXXO",
        "shop": "supermarket"
      }
    },
    {
      "type": "node",
      "id": 3865139448,
      "lat": 30.7722374,
      "lon": -110.8573526,
      "timestamp": "2015-11-28T14:48:27Z",
      "version": 1,
      "changeset": 35629571,
      "user": "morray",
      "uid": 91790,
      "tags": {
        "name": "OXXO",
        "shop": "supermarket"
      }
    },
    {
      "type": "node",
      "id": 4158735528,
      "lat": 31.3294016,
      "lon": -110.9641264,
      "timestamp": "2016-05-01T03:20:58Z",
      "version": 1,
      "changeset": 39009620,
      "user": "MexicanRoad714",
      "uid": 3499770,
      "tags": {
        "name": "Six",
        "shop": "convenience"
      }
    },
    {
      "type": "node",
      "id": 4158735739,
      "lat": 31.3143935,
      "lon": -110.959714,
      "timestamp": "2021-09-19T04:55:24Z",
      "version": 2,
      "changeset": 111394460,
      "user": "aguasabajo",
      "uid": 2498368,
      "tags": {
        "brand": "Oxxo",
        "brand:wikidata": "Q1342538",
        "brand:wikipedia": "es:Oxxo",
        "name": "Oxxo",
        "shop": "convenience"
      }
    },
    {
      "type": "node",
      "id": 4158735741,
      "lat": 31.3242464,
      "lon": -110.9626968,
      "timestamp": "2016-05-01T03:21:00Z",
      "version": 1,
      "changeset": 39009620,
      "user": "MexicanRoad714",
      "uid": 3499770,
      "tags": {
        "name": "Oxxo",
        "shop": "convenience"
      }
    },
    {
      "type": "node",
      "id": 4159105496,
      "lat": 31.3004702,
      "lon": -110.9373222,
      "timestamp": "2016-05-01T10:37:18Z",
      "version": 1,
      "changeset": 39014053,
      "user": "MexicanRoad714",
      "uid": 3499770,
      "tags": {
        "name": "Six",
        "shop": "convenience"
      }
    },
    {
      "type": "node",
      "id": 4512979395,
      "lat": 31.296406,
      "lon": -110.9276564,
      "timestamp": "2016-11-21T03:11:41Z",
      "version": 1,
      "changeset": 43836586,
      "user": "fide felix",
      "uid": 4816646,
      "tags": {
        "name": "Oxxo",
        "name:es": "Oxxo",
        "shop": "supermarket"
      }
    },
    {
      "type": "node",
      "id": 4512979396,
      "lat": 31.2981411,
      "lon": -110.9357982,
      "timestamp": "2016-11-21T03:22:09Z",
      "version": 1,
      "changeset": 43836706,
      "user": "fide felix",
      "uid": 4816646,
      "tags": {
        "name": "Super del norte",
        "name:es": "Super del norte",
        "shop": "supermarket"
      }
    },
    {
      "type": "node",
      "id": 4769018922,
      "lat": 31.1833134,
      "lon": -110.9711998,
      "timestamp": "2017-04-01T06:59:00Z",
      "version": 1,
      "changeset": 47346556,
      "user": "MexicanRoad714",
      "uid": 3499770,
      "tags": {
        "name": "Oxxo",
        "shop": "convenience"
      }
    },
    {
      "type": "node",
      "id": 5252811747,
      "lat": 31.1429844,
      "lon": -110.9980488,
      "timestamp": "2017-11-28T19:59:22Z",
      "version": 1,
      "changeset": 54159318,
      "user": "werst-nouveau",
      "uid": 7044393,
      "tags": {
        "name": "El Tepeyac",
        "place": "hamlet"
      }
    },
    {
      "type": "node",
      "id": 6952960938,
      "lat": 31.1586462,
      "lon": -110.9774779,
      "timestamp": "2019-11-15T18:09:18Z",
      "version": 2,
      "changeset": 77141522,
      "user": "1T-money",
      "uid": 3715012,
      "tags": {
        "name": "La Mesa",
        "place": "town",
        "population": "2996",
        "source": "https://mexico.pueblosamerica.com/i/la-mesa-178/"
      }
    },
    {
      "type": "node",
      "id": 8627391928,
      "lat": 30.8659837,
      "lon": -110.6519473,
      "timestamp": "2021-04-14T00:35:42Z",
      "version": 1,
      "changeset": 102892308,
      "user": "Josuer",
      "uid": 3382594,
      "tags": {
        "name": "El Aribabi",
        "place": "hamlet"
      }
    },
    {
      "type": "way",
      "id": 477968341,
      "timestamp": "2020-01-02T00:26:13Z",
      "version": 2,
      "changeset": 79094647,
      "user": "aguasabajo",
      "uid": 2498368,
      "center": {
        "lat": 31.2903946,
        "lon": -110.9462138
      },
      "nodes": [],
      "tags": {
        "building": "yes",
        "name": "Soriana",
        "shop": "supermarket"
      }
    },
    {
      "type": "way",
      "id": 477968349,
      "timestamp": "2021-09-19T04:41:37Z",
      "version": 2,
      "changeset": 111394310,
      "user": "aguasabajo",
      "uid": 2498368,
      "center": {
        "lat": 31.2898162,
        "lon": -110.9615663
      },
      "nodes": [],
      "tags": {
        "brand": "Bodega Aurrera",
        "brand:wikidata": "Q3365858",
        "brand:wikipedia": "en:Bodega Aurrerá",
        "building": "yes",
        "name": "Bodega Aurrera",
        "shop": "supermarket"
      }
    },
    {
      "type": "way",
      "id": 477968350,
      "timestamp": "2017-03-02T00:21:00Z",
      "version": 1,
      "changeset": 46508384,
      "user": "LU15",
      "uid": 5411121,
      "center": {
        "lat": 31.2877063,
        "lon": -110.9605691
      },
      "nodes": [],
      "tags": {
        "building": "yes",
        "name": "Ley Express",
        "shop": "supermarket"
      }
    },
    {
      "type": "way",
      "id": 515724117,
      "timestamp": "2017-08-15T04:06:12Z",
      "version": 1,
      "changeset": 51127566,
      "user": "Juan Felipe Lopez",
      "uid": 6483424,
      "center": {
        "lat": 31.2752422,
        "lon": -110.9299022
      },
      "nodes": [],
      "tags": {
        "building": "yes",
        "name": "Supermercado Ley San Miguel",
        "shop": "supermarket"
      }
    },
    {
      "type": "way",
      "id": 552517510,
      "timestamp": "2018-01-12T06:44:32Z",
      "version": 1,
      "changeset": 55371344,
      "user": "alonsoaguilar",
      "uid": 7455236,
      "center": {
        "lat": 31.2913383,
        "lon": -110.9383871
      },
      "nodes": [],
      "tags": {
        "building": "yes",
        "name": "Ley",
        "shop": "supermarket"
      }
    },
    {
      "type": "way",
      "id": 552517525,
      "timestamp": "2018-01-15T20:03:26Z",
      "version": 2,
      "changeset": 55474188,
      "user": "alonsoaguilar",
      "uid": 7455236,
      "center": {
        "lat": 31.2794121,
        "lon": -110.9393716
      },
      "nodes": [],
      "tags": {
        "building": "yes",
        "name": "Economax",
        "shop": "supermarket"
      }
    },
    {
      "type": "way",
      "id": 587065268,
      "timestamp": "2022-01-19T15:42:53Z",
      "version": 3,
      "changeset": 116347823,
      "user": "danbjoseph",
      "uid": 1535212,
      "center": {
        "lat": 31.3390382,
        "lon": -110.9373115
      },
      "nodes": [],
      "tags": {
        "brand": "Food City",
        "brand:wikidata": "Q16981107",
        "brand:wikipedia": "en:Food City (K-VA-T)",
        "building": "yes",
        "name": "Food City",
        "shop": "supermarket"
      }
    },
    {
      "type": "way",
      "id": 587070156,
      "timestamp": "2022-02-18T19:22:30Z",
      "version": 2,
      "changeset": 117578632,
      "user": "danbjoseph",
      "uid": 1535212,
      "center": {
        "lat": 31.3443208,
        "lon": -110.9432026
      },
      "nodes": [],
      "tags": {
        "building": "yes",
        "name": "Northern Valley Produce",
        "shop": "supermarket"
      }
    },
    {
      "type": "way",
      "id": 587070157,
      "timestamp": "2018-05-10T03:05:09Z",
      "version": 1,
      "changeset": 58836390,
      "user": "Meaghan9M",
      "uid": 8247419,
      "center": {
        "lat": 31.3447081,
        "lon": -110.9426071
      },
      "nodes": [],
      "tags": {
        "building": "yes",
        "name": "Via Brokerage",
        "shop": "supermarket"
      }
    },
    {
      "type": "way",
      "id": 587070158,
      "timestamp": "2018-05-10T03:05:09Z",
      "version": 1,
      "changeset": 58836390,
      "user": "Meaghan9M",
      "uid": 8247419,
      "center": {
        "lat": 31.3448292,
        "lon": -110.9426431
      },
      "nodes": [],
      "tags": {
        "building": "yes",
        "name": "Quality Experience Produce",
        "shop": "supermarket"
      }
    },
    {
      "type": "way",
      "id": 743464144,
      "timestamp": "2019-11-09T00:34:07Z",
      "version": 1,
      "changeset": 76834177,
      "user": "aguasabajo",
      "uid": 2498368,
      "center": {
        "lat": 31.2983364,
        "lon": -110.9422204
      },
      "nodes": [],
      "tags": {
        "brand": "Oxxo",
        "brand:wikidata": "Q1342538",
        "brand:wikipedia": "es:Oxxo",
        "building": "yes",
        "name": "Oxxo",
        "shop": "convenience"
      }
    },
    {
      "type": "way",
      "id": 759234726,
      "timestamp": "2019-12-28T21:20:28Z",
      "version": 1,
      "changeset": 78965692,
      "user": "aguasabajo",
      "uid": 2498368,
      "center": {
        "lat": 31.2647403,
        "lon": -110.9646678
      },
      "nodes": [],
      "tags": {
        "brand": "Oxxo",
        "brand:wikidata": "Q1342538",
        "brand:wikipedia": "es:Oxxo",
        "building": "yes",
        "name": "Oxxo",
        "shop": "convenience"
      }
    },
    {
      "type": "way",
      "id": 759236022,
      "timestamp": "2019-12-28T21:29:50Z",
      "version": 1,
      "changeset": 78965872,
      "user": "aguasabajo",
      "uid": 2498368,
      "center": {
        "lat": 31.2644405,
        "lon": -110.9485133
      },
      "nodes": [],
      "tags": {
        "brand": "Oxxo",
        "brand:wikidata": "Q1342538",
        "brand:wikipedia": "es:Oxxo",
        "building": "yes",
        "name": "Oxxo",
        "shop": "convenience"
      }
    },
    {
      "type": "way",
      "id": 760082021,
      "timestamp": "2020-01-02T00:24:06Z",
      "version": 1,
      "changeset": 79094628,
      "user": "aguasabajo",
      "uid": 2498368,
      "center": {
        "lat": 31.3027483,
        "lon": -110.9393769
      },
      "nodes": [],
      "tags": {
        "brand": "Oxxo",
        "brand:wikidata": "Q1342538",
        "brand:wikipedia": "es:Oxxo",
        "building": "yes",
        "name": "Oxxo",
        "shop": "convenience"
      }
    },
    {
      "type": "way",
      "id": 931891570,
      "timestamp": "2021-04-18T02:46:06Z",
      "version": 1,
      "changeset": 103122605,
      "user": "aguasabajo",
      "uid": 2498368,
      "center": {
        "lat": 31.2945834,
        "lon": -110.9488431
      },
      "nodes": [],
      "tags": {
        "brand": "Oxxo",
        "brand:wikidata": "Q1342538",
        "brand:wikipedia": "es:Oxxo",
        "building": "yes",
        "name": "Oxxo",
        "shop": "convenience"
      }
    },
    {
      "type": "way",
      "id": 984796083,
      "timestamp": "2021-09-19T04:26:17Z",
      "version": 1,
      "changeset": 111394162,
      "user": "aguasabajo",
      "uid": 2498368,
      "center": {
        "lat": 31.3061796,
        "lon": -110.9421851
      },
      "nodes": [],
      "tags": {
        "brand": "Oxxo",
        "brand:wikidata": "Q1342538",
        "brand:wikipedia": "es:Oxxo",
        "building": "yes",
        "name": "Oxxo",
        "shop": "convenience"
      }
    },
    {
      "type": "way",
      "id": 999276359,
      "timestamp": "2021-11-04T21:40:51Z",
      "version": 1,
      "changeset": 113387087,
      "user": "Arlo James Barnes",
      "uid": 682928,
      "center": {
        "lat": 31.3530629,
        "lon": -110.9209214
      },
      "nodes": [],
      "tags": {
        "brand": "Circle K",
        "brand:wikidata": "Q3268010",
        "brand:wikipedia": "en:Circle K",
        "building": "commercial",
        "name": "Circle K",
        "shop": "convenience"
      }
    },
    {
      "type": "way",
      "id": 1009217211,
      "timestamp": "2021-12-05T05:37:49Z",
      "version": 1,
      "changeset": 114572257,
      "user": "aguasabajo",
      "uid": 2498368,
      "center": {
        "lat": 31.2912633,
        "lon": -110.9399065
      },
      "nodes": [],
      "tags": {
        "brand": "Oxxo",
        "brand:wikidata": "Q1342538",
        "brand:wikipedia": "es:Oxxo",
        "building": "yes",
        "name": "Oxxo",
        "shop": "convenience"
      }
    },
    {
      "type": "way",
      "id": 1009217212,
      "timestamp": "2021-12-05T05:37:49Z",
      "version": 1,
      "changeset": 114572257,
      "user": "aguasabajo",
      "uid": 2498368,
      "center": {
        "lat": 31.3015491,
        "lon": -110.9478546
      },
      "nodes": [],
      "tags": {
        "brand": "Oxxo",
        "brand:wikidata": "Q1342538",
        "brand:wikipedia": "es:Oxxo",
        "building": "yes",
        "name": "Oxxo",
        "shop": "convenience"
      }
    },
    {
      "type": "way",
      "id": 1009217219,
      "timestamp": "2021-12-05T05:37:49Z",
      "version": 1,
      "changeset": 114572257,
      "user": "aguasabajo",
      "uid": 2498368,
      "center": {
        "lat": 31.298076,
        "lon": -110.9509063
      },
      "nodes": [],
      "tags": {
        "building": "yes",
        "name": "Abarrey",
        "shop": "convenience"
      }
    },
    {
      "type": "way",
      "id": 1058425760,
      "timestamp": "2022-05-09T02:49:01Z",
      "version": 1,
      "changeset": 120724319,
      "user": "aguasabajo",
      "uid": 2498368,
      "center": {
        "lat": 31.3284012,
        "lon": -110.9583976
      },
      "nodes": [],
      "tags": {
        "brand": "Oxxo",
        "brand:wikidata": "Q1342538",
        "building": "yes",
        "name": "Oxxo",
        "shop": "convenience"
      }
    }
  ]
}