{
  "osm3s": {
    "timestamp_osm_date": "2022-03-13T23:59:59Z",
    "timestamp_osm_base": "2022-03-14T06:17:40Z",
    "copyright": "The data included in this document is from www.openstreetmap.org. The data is made available under ODbL."
  },
  "elements": [
    {
      "type": "node",
      "id": 54572588,
      "lat": -35.5885042,
      "lon": 149.4495633,
      "timestamp": "2017-01-01T09:17:06Z",
      "version": 6,
      "changeset": 44819054,
      "user": "TheSwavu",
      "uid": 2622285,
      "tags": {
        "name": "Captains Flat",
        "name:en": "Captains Flat",
        "name:ru": "Каптинс-Флат",
        "place": "village",
        "place:nswgnb": "TOWN;LOCALITY",
        "ref:nswgnb": "11114;81567"
      }
    },
    {
      "type": "node",
      "id": 55453570,
      "lat": -35.8237005,
      "lon": 149.0660079,
      "timestamp": "2015-06-29T00:21:57Z",
      "version": 4,
      "changeset": 32274248,
      "user": "abhunter41",
      "uid": 1336812,
      "tags": {
        "building": "hut",
        "name": "Horse Gully Hut",
        "tourism": "alpine_hut"
      }
    },
    {
      "type": "node",
      "id": 85714246,
      "lat": -35.9551981,
      "lon": 149.1453324,
      "timestamp": "2018-11-24T06:13:15Z",
      "version": 6,
      "changeset": 64837216,
      "user": "TheSwavu",
      "uid": 2622285,
      "tags": {
        "name": "Bredbo",
        "name:ru": "Бредбо",
        "place": "town"
      }
    },
    {
      "type": "node",
      "id": 113259358,
      "lat": -35.9499074,
      "lon": 149.7466483,
      "timestamp": "2015-11-13T08:03:23Z",
      "version": 3,
      "changeset": 35278201,
      "user": "Leith Bade",
      "uid": 3374707,
      "tags": {
        "name": "Bendethera",
        "note": "abandonded - no longer permenantly inhabited",
        "place": "hamlet",
        "place:nswgnb": "RURAL PLACE",
        "ref:nswgnb": "4061",
        "source": "nswgnb - according to the signs on site, this is where the main bakery and cattle yards used to be before the site was abandoned"
      }
    },
    {
      "type": "node",
      "id": 113485912,
      "lat": -35.815,
      "lon": 149.4177778,
      "timestamp": "2007-11-14T09:09:47Z",
      "version": 1,
      "changeset": 507147,
      "user": "swampwallaby",
      "uid": 10359,
      "tags": {
        "created_by": "JOSM",
        "name": "Anembo",
        "place": "hamlet",
        "place:nswgnb": "LOCALITY",
        "ref:nswgnb": "1097",
        "source": "nswgnb"
      }
    },
    {
      "type": "node",
      "id": 113485959,
      "lat": -36.015,
      "lon": 149.1261111,
      "timestamp": "2007-11-14T09:09:49Z",
      "version": 1,
      "changeset": 507147,
      "user": "swampwallaby",
      "uid": 10359,
      "tags": {
        "created_by": "JOSM",
        "name": "Billilingra",
        "place": "hamlet",
        "place:nswgnb": "LOCALITY",
        "ref:nswgnb": "78276",
        "source": "nswgnb"
      }
    },
    {
      "type": "node",
      "id": 113486044,
      "lat": -35.7538889,
      "lon": 149.3844444,
      "timestamp": "2007-11-14T09:09:52Z",
      "version": 1,
      "changeset": 507147,
      "user": "swampwallaby",
      "uid": 10359,
      "tags": {
        "created_by": "JOSM",
        "name": "Boolboolma Crossing",
        "place": "hamlet",
        "place:nswgnb": "RURAL PLACE",
        "ref:nswgnb": "7561",
        "source": "nswgnb"
      }
    },
    {
      "type": "node",
      "id": 113486105,
      "lat": -35.8308333,
      "lon": 149.1130556,
      "timestamp": "2007-11-14T09:09:54Z",
      "version": 1,
      "changeset": 507147,
      "user": "swampwallaby",
      "uid": 10359,
      "tags": {
        "created_by": "JOSM",
        "name": "Bumbalong",
        "place": "hamlet",
        "place:nswgnb": "LOCALITY",
        "ref:nswgnb": "80757",
        "source": "nswgnb"
      }
    },
    {
      "type": "node",
      "id": 113486183,
      "lat": -35.6938889,
      "lon": 149.1186111,
      "timestamp": "2007-11-14T09:09:57Z",
      "version": 1,
      "changeset": 507147,
      "user": "swampwallaby",
      "uid": 10359,
      "tags": {
        "created_by": "JOSM",
        "name": "Clear Range",
        "place": "hamlet",
        "place:nswgnb": "LOCALITY",
        "ref:nswgnb": "81063",
        "source": "nswgnb"
      }
    },
    {
      "type": "node",
      "id": 113486212,
      "lat": -35.865,
      "lon": 149.1511111,
      "timestamp": "2007-11-14T09:09:57Z",
      "version": 1,
      "changeset": 507147,
      "user": "swampwallaby",
      "uid": 10359,
      "tags": {
        "created_by": "JOSM",
        "name": "Colinton",
        "place": "hamlet",
        "place:nswgnb": "LOCALITY",
        "ref:nswgnb": "13207",
        "source": "nswgnb"
      }
    },
    {
      "type": "node",
      "id": 113486357,
      "lat": -35.865,
      "lon": 149.3677778,
      "timestamp": "2007-11-14T09:10:05Z",
      "version": 1,
      "changeset": 507147,
      "user": "swampwallaby",
      "uid": 10359,
      "tags": {
        "created_by": "JOSM",
        "name": "Jerangle",
        "place": "hamlet",
        "place:nswgnb": "LOCALITY",
        "ref:nswgnb": "25321",
        "source": "nswgnb"
      }
    },
    {
      "type": "node",
      "id": 113486373,
      "lat": -35.6816667,
      "lon": 149.4344444,
      "timestamp": "2007-11-14T09:10:07Z",
      "version": 1,
      "changeset": 507147,
      "user": "swampwallaby",
      "uid": 10359,
      "tags": {
        "created_by": "JOSM",
        "name": "Jingera",
        "place": "hamlet",
        "place:nswgnb": "LOCALITY",
        "ref:nswgnb": "25560",
        "source": "nswgnb"
      }
    },
    {
      "type": "node",
      "id": 113486396,
      "lat": -35.715,
      "lon": 149.1677778,
      "timestamp": "2007-11-14T09:10:10Z",
      "version": 1,
      "changeset": 507147,
      "user": "swampwallaby",
      "uid": 10359,
      "tags": {
        "created_by": "JOSM",
        "name": "Michelago",
        "place": "village",
        "place:nswgnb": "VILLAGE",
        "ref:nswgnb": "37513",
        "source": "nswgnb"
      }
    },
    {
      "type": "node",
      "id": 113486408,
      "lat": -35.5900097,
      "lon": 149.0926191,
      "timestamp": "2016-03-20T03:51:12Z",
      "version": 3,
      "changeset": 37949205,
      "user": "cleary",
      "uid": 333561,
      "tags": {
        "name": "The Angle",
        "place": "hamlet",
        "place:nswgnb": "RURAL PLACE",
        "ref:nswgnb": "57918",
        "source": "nswgnb"
      }
    },
    {
      "type": "node",
      "id": 113486419,
      "lat": -35.965,
      "lon": 149.1011111,
      "timestamp": "2007-11-14T09:10:13Z",
      "version": 1,
      "changeset": 507147,
      "user": "swampwallaby",
      "uid": 10359,
      "tags": {
        "created_by": "JOSM",
        "name": "Spring Vale",
        "place": "hamlet",
        "place:nswgnb": "RURAL PLACE",
        "ref:nswgnb": "54700",
        "source": "nswgnb"
      }
    },
    {
      "type": "node",
      "id": 113486543,
      "lat": -35.6816667,
      "lon": 149.4677778,
      "timestamp": "2007-11-14T09:10:17Z",
      "version": 1,
      "changeset": 507147,
      "user": "swampwallaby",
      "uid": 10359,
      "tags": {
        "created_by": "JOSM",
        "name": "Wild Cattle Flat",
        "place": "hamlet",
        "place:nswgnb": "RURAL PLACE",
        "ref:nswgnb": "64883",
        "source": "nswgnb"
      }
    },
    {
      "type": "node",
      "id": 113704657,
      "lat": -35.5316667,
      "lon": 149.6677778,
      "timestamp": "2007-11-14T11:51:54Z",
      "version": 1,
      "changeset": 510260,
      "user": "swampwallaby",
      "uid": 10359,
      "tags": {
        "created_by": "JOSM",
        "name": "Bendoura",
        "place": "hamlet",
        "place:nswgnb": "LOCALITY",
        "ref:nswgnb": "4082",
        "source": "nswgnb"
      }
    },
    {
      "type": "node",
      "id": 113704677,
      "lat": -35.6483333,
      "lon": 149.6511111,
      "timestamp": "2007-11-14T11:51:54Z",
      "version": 1,
      "changeset": 510260,
      "user": "swampwallaby",
      "uid": 10359,
      "tags": {
        "created_by": "JOSM",
        "name": "Berlang",
        "place": "hamlet",
        "place:nswgnb": "LOCALITY",
        "ref:nswgnb": "79296",
        "source": "nswgnb"
      }
    },
    {
      "type": "node",
      "id": 113705052,
      "lat": -35.56,
      "lon": 149.2208333,
      "timestamp": "2007-12-17T11:05:46Z",
      "version": 2,
      "changeset": 342022,
      "user": "nm7s9",
      "uid": 12434,
      "tags": {
        "created_by": "JOSM",
        "name": "Burra",
        "place": "hamlet",
        "source": "nswgnb"
      }
    },
    {
      "type": "node",
      "id": 113707196,
      "lat": -35.5755556,
      "lon": 149.5586111,
      "timestamp": "2007-11-14T11:53:30Z",
      "version": 1,
      "changeset": 510260,
      "user": "swampwallaby",
      "uid": 10359,
      "tags": {
        "created_by": "JOSM",
        "name": "Harolds Cross",
        "place": "hamlet",
        "place:nswgnb": "LOCALITY",
        "ref:nswgnb": "79290",
        "source": "nswgnb"
      }
    },
    {
      "type": "node",
      "id": 113707301,
      "lat": -35.765,
      "lon": 149.6511111,
      "timestamp": "2007-11-14T11:53:33Z",
      "version": 1,
      "changeset": 510260,
      "user": "swampwallaby",
      "uid": 10359,
      "tags": {
        "created_by": "JOSM",
        "name": "Gundillion",
        "place": "hamlet",
        "place:nswgnb": "RURAL PLACE",
        "ref:nswgnb": "22478",
        "source": "nswgnb"
      }
    },
    {
      "type": "node",
      "id": 113707491,
      "lat": -35.7880556,
      "lon": 149.5516667,
      "timestamp": "2007-11-14T11:53:39Z",
      "version": 1,
      "changeset": 510260,
      "user": "swampwallaby",
      "uid": 10359,
      "tags": {
        "created_by": "JOSM",
        "name": "Hereford Hall",
        "place": "hamlet",
        "place:nswgnb": "LOCALITY",
        "ref:nswgnb": "79292",
        "source": "nswgnb"
      }
    },
    {
      "type": "node",
      "id": 113707511,
      "lat": -35.8886111,
      "lon": 149.5902778,
      "timestamp": "2007-11-14T11:53:40Z",
      "version": 1,
      "changeset": 510260,
      "user": "swampwallaby",
      "uid": 10359,
      "tags": {
        "created_by": "JOSM",
        "name": "Jinden",
        "place": "hamlet",
        "place:nswgnb": "LOCALITY",
        "ref:nswgnb": "79295",
        "source": "nswgnb"
      }
    },
    {
      "type": "node",
      "id": 113707559,
      "lat": -35.6841667,
      "lon": 149.5836111,
      "timestamp": "2007-11-14T11:53:41Z",
      "version": 1,
      "changeset": 510260,
      "user": "swampwallaby",
      "uid": 10359,
      "tags": {
        "created_by": "JOSM",
        "name": "Jerrabattgulla",
        "place": "hamlet",
        "place:nswgnb": "LOCALITY",
        "ref:nswgnb": "79293",
        "source": "nswgnb"
      }
    },
    {
      "type": "node",
      "id": 113707659,
      "lat": -35.815,
      "lon": 149.6342588,
      "timestamp": "2007-11-21T09:53:11Z",
      "version": 2,
      "changeset": 582676,
      "user": "nm7s9",
      "uid": 12434,
      "tags": {
        "created_by": "JOSM",
        "name": "Krawarree",
        "place": "hamlet",
        "place:nswgnb": "LOCALITY",
        "ref:nswgnb": "31665",
        "source": "nswgnb"
      }
    },
    {
      "type": "node",
      "id": 113707702,
      "lat": -35.6425,
      "lon": 149.5441667,
      "timestamp": "2007-11-14T11:53:47Z",
      "version": 1,
      "changeset": 510260,
      "user": "swampwallaby",
      "uid": 10359,
      "tags": {
        "created_by": "JOSM",
        "name": "Kindervale",
        "place": "hamlet",
        "place:nswgnb": "LOCALITY",
        "ref:nswgnb": "79291",
        "source": "nswgnb"
      }
    },
    {
      "type": "node",
      "id": 113708642,
      "lat": -35.515,
      "lon": 149.1511111,
      "timestamp": "2007-12-17T10:46:52Z",
      "version": 2,
      "changeset": 342022,
      "user": "nm7s9",
      "uid": 12434,
      "tags": {
        "created_by": "JOSM",
        "name": "Royalla",
        "place": "hamlet",
        "source": "nswgnb"
      }
    },
    {
      "type": "node",
      "id": 113708820,
      "lat": -35.5696908,
      "lon": 149.1373785,
      "timestamp": "2016-03-20T04:35:06Z",
      "version": 3,
      "changeset": 37949591,
      "user": "cleary",
      "uid": 333561,
      "tags": {
        "name": "Williamsdale",
        "place": "hamlet",
        "place:nswgnb": "RURAL PLACE",
        "ref:nswgnb": "65066",
        "source": "nswgnb"
      }
    },
    {
      "type": "node",
      "id": 113709027,
      "lat": -35.6483333,
      "lon": 149.6011111,
      "timestamp": "2007-11-14T11:54:36Z",
      "version": 1,
      "changeset": 510260,
      "user": "swampwallaby",
      "uid": 10359,
      "tags": {
        "created_by": "JOSM",
        "name": "Togganoggera",
        "place": "hamlet",
        "place:nswgnb": "RURAL PLACE",
        "ref:nswgnb": "59280",
        "source": "nswgnb"
      }
    },
    {
      "type": "node",
      "id": 186947418,
      "lat": -35.5104477,
      "lon": 149.0636345,
      "timestamp": "2016-12-28T10:26:54Z",
      "version": 4,
      "changeset": 44726651,
      "user": "TheSwavu",
      "uid": 2622285,
      "tags": {
        "name": "Tharwa",
        "place": "village"
      }
    },
    {
      "type": "node",
      "id": 253142680,
      "lat": -35.7245867,
      "lon": 149.6912451,
      "timestamp": "2015-11-17T11:30:10Z",
      "version": 3,
      "changeset": 35373103,
      "user": "mrpulley",
      "uid": 67896,
      "tags": {
        "name": "Marble Arch",
        "natural": "cave_entrance"
      }
    },
    {
      "type": "node",
      "id": 253143440,
      "lat": -35.7277958,
      "lon": 149.6597351,
      "timestamp": "2008-03-21T10:42:33Z",
      "version": 1,
      "changeset": 365760,
      "user": "mos6510",
      "uid": 10466,
      "tags": {
        "created_by": "JOSM",
        "name": "Big Hole",
        "natural": "cave_entrance"
      }
    },
    {
      "type": "node",
      "id": 316586533,
      "lat": -35.5095903,
      "lon": 149.6044802,
      "timestamp": "2020-01-01T05:00:18Z",
      "version": 4,
      "changeset": 79073500,
      "user": "tastrax",
      "uid": 712752,
      "tags": {
        "addr:city": "Farringdon",
        "addr:country": "AU",
        "addr:postcode": "2622",
        "addr:street": "Lowden Forest Road",
        "alt_name": "Lowden Forest Park Camping Area",
        "caravans": "yes",
        "contact:phone": "+61 2 6246 5548",
        "fee": "no",
        "name": "Lowden Forest Park",
        "note": "moved to accurate position 5 Dec 2009",
        "tents": "yes",
        "tourism": "camp_site",
        "website": "www.dpi.nsw.gov.au/forests/locations/tallaganda"
      }
    },
    {
      "type": "node",
      "id": 490584647,
      "lat": -35.4897809,
      "lon": 149.5154551,
      "timestamp": "2009-09-09T07:26:53Z",
      "version": 1,
      "changeset": 2421740,
      "user": "John H",
      "uid": 79144,
      "tags": {
        "name": "Rossi",
        "place": "hamlet"
      }
    },
    {
      "type": "node",
      "id": 706906917,
      "lat": -35.5152232,
      "lon": 149.2624118,
      "timestamp": "2015-08-03T11:44:40Z",
      "version": 2,
      "changeset": 33067523,
      "user": "TheSwavu",
      "uid": 2622285,
      "tags": {
        "natural": "cave_entrance"
      }
    },
    {
      "type": "node",
      "id": 706906918,
      "lat": -35.5155503,
      "lon": 149.2623584,
      "timestamp": "2015-08-03T11:44:41Z",
      "version": 2,
      "changeset": 33067523,
      "user": "TheSwavu",
      "uid": 2622285,
      "tags": {
        "natural": "cave_entrance"
      }
    },
    {
      "type": "node",
      "id": 760852859,
      "lat": -35.7509054,
      "lon": 149.0715228,
      "timestamp": "2013-12-02T01:32:37Z",
      "version": 3,
      "changeset": 19226411,
      "user": "stevage",
      "uid": 201443,
      "tags": {
        "building": "hut",
        "name": "Max and Bert Oldfields Hut",
        "tourism": "wilderness_hut"
      }
    },
    {
      "type": "node",
      "id": 1205477044,
      "lat": -35.9523026,
      "lon": 149.1453357,
      "timestamp": "2020-02-15T00:34:58Z",
      "version": 3,
      "changeset": 81029943,
      "user": "nholyoak",
      "uid": 10450084,
      "tags": {
        "amenity": "shelter",
        "shelter_type": "picnic_shelter"
      }
    },
    {
      "type": "node",
      "id": 1576265723,
      "lat": -35.7087391,
      "lon": 149.1640157,
      "timestamp": "2012-01-03T23:29:30Z",
      "version": 1,
      "changeset": 10287201,
      "user": "aTinMan",
      "uid": 579325,
      "tags": {
        "name": "Michelago General Store",
        "shop": "convenience"
      }
    },
    {
      "type": "node",
      "id": 1811184910,
      "lat": -35.5690327,
      "lon": 149.7418801,
      "timestamp": "2017-12-13T00:19:48Z",
      "version": 2,
      "changeset": 54582321,
      "user": "TravelTrog",
      "uid": 6781013,
      "tags": {
        "name": "Majors Creek Recreation Reserve",
        "tourism": "camp_site"
      }
    },
    {
      "type": "node",
      "id": 2636707320,
      "lat": -35.7950779,
      "lon": 149.6819071,
      "timestamp": "2016-10-28T05:20:00Z",
      "version": 2,
      "changeset": 43236172,
      "user": "Warin61",
      "uid": 1830192,
      "tags": {
        "cave:access": "yes",
        "fee": "no",
        "name": "Wyanbene Caves",
        "natural": "cave_entrance"
      }
    },
    {
      "type": "node",
      "id": 2922363469,
      "lat": -35.472441,
      "lon": 149.0955649,
      "timestamp": "2022-01-19T09:33:46Z",
      "version": 6,
      "changeset": 116332956,
      "user": "TheSwavu",
      "uid": 2622285,
      "tags": {
        "addr:housenumber": "96",
        "addr:street": "Pockett Avenue",
        "brand": "IGA",
        "brand:wikidata": "Q5970945",
        "brand:wikipedia": "en:IGA (Australian supermarket group)",
        "name": "IGA",
        "opening_hours": "Mo-Su 07:30-20:30",
        "phone": "+61 2 6294 9988",
        "shop": "supermarket",
        "website": "https://www.iga.com.au/"
      }
    },
    {
      "type": "node",
      "id": 3002570173,
      "lat": -35.4951993,
      "lon": 149.1285196,
      "timestamp": "2020-06-19T21:43:06Z",
      "version": 3,
      "changeset": 86895027,
      "user": "Edward",
      "uid": 364,
      "tags": {
        "ele": "1099",
        "name": "Mount Rob Roy",
        "natural": "peak",
        "wikidata": "Q21940401"
      }
    },
    {
      "type": "node",
      "id": 3068360437,
      "lat": -35.95507,
      "lon": 149.19339,
      "timestamp": "2014-09-09T14:12:14Z",
      "version": 1,
      "changeset": 25328969,
      "user": "dhx1",
      "uid": 1187510,
      "tags": {
        "name": "Connollys Gap",
        "natural": "saddle"
      }
    },
    {
      "type": "node",
      "id": 3068360511,
      "lat": -35.9028,
      "lon": 149.1608,
      "timestamp": "2014-09-09T14:12:18Z",
      "version": 1,
      "changeset": 25328969,
      "user": "dhx1",
      "uid": 1187510,
      "tags": {
        "name": "Gungoandra Gap",
        "natural": "saddle"
      }
    },
    {
      "type": "node",
      "id": 3068360630,
      "lat": -35.63619,
      "lon": 149.50732,
      "timestamp": "2014-09-09T14:12:24Z",
      "version": 1,
      "changeset": 25328969,
      "user": "dhx1",
      "uid": 1187510,
      "tags": {
        "name": "Parkers Gap",
        "natural": "saddle"
      }
    },
    {
      "type": "node",
      "id": 3068360745,
      "lat": -35.57562,
      "lon": 149.6803,
      "timestamp": "2014-09-09T14:12:30Z",
      "version": 1,
      "changeset": 25328969,
      "user": "dhx1",
      "uid": 1187510,
      "tags": {
        "name": "Wallaces Gap",
        "natural": "saddle"
      }
    },
    {
      "type": "node",
      "id": 3624418349,
      "lat": -35.5309894,
      "lon": 149.0655622,
      "timestamp": "2018-04-26T01:22:38Z",
      "version": 2,
      "changeset": 58426981,
      "user": "breno-au",
      "uid": 859676,
      "tags": {
        "amenity": "drinking_water"
      }
    },
    {
      "type": "node",
      "id": 3780223749,
      "lat": -35.5906586,
      "lon": 149.4459237,
      "timestamp": "2015-10-09T22:46:02Z",
      "version": 1,
      "changeset": 34540435,
      "user": "Warin61",
      "uid": 1830192,
      "tags": {
        "fee": "no",
        "source": "web",
        "tourism": "camp_site",
        "website": "http://www.captainsflat.org/touristinfo.htm"
      }
    },
    {
      "type": "node",
      "id": 4314168631,
      "lat": -35.7249939,
      "lon": 149.6455688,
      "timestamp": "2017-03-25T06:46:14Z",
      "version": 3,
      "changeset": 47140861,
      "user": "Warin61",
      "uid": 1830192,
      "tags": {
        "name": "Berlang Camping Area",
        "source": "NSW LPI Base Map",
        "source:date": "2016-06",
        "tourism": "camp_site"
      }
    },
    {
      "type": "node",
      "id": 5283292201,
      "lat": -35.5667802,
      "lon": 149.7383509,
      "timestamp": "2020-02-11T07:38:02Z",
      "version": 3,
      "changeset": 80834740,
      "user": "Warin61",
      "uid": 1830192,
      "tags": {
        "name": "Majors Creek",
        "place": "village"
      }
    },
    {
      "type": "node",
      "id": 5845775977,
      "lat": -35.4630831,
      "lon": 149.0810374,
      "timestamp": "2018-08-21T08:57:33Z",
      "version": 1,
      "changeset": 61848011,
      "user": "TheSwavu",
      "uid": 2622285,
      "tags": {
        "amenity": "drinking_water",
        "ref": "Drfn186",
        "source_ref": "https://www.data.act.gov.au/Infrastructure-and-Utilities/Drinking-Fountains/8eg4-uskm"
      }
    },
    {
      "type": "node",
      "id": 6388626676,
      "lat": -35.9265406,
      "lon": 149.7039795,
      "timestamp": "2019-04-07T07:15:01Z",
      "version": 1,
      "changeset": 68968993,
      "user": "Norkmeister",
      "uid": 314557,
      "tags": {
        "access": "yes",
        "description": "Cave accessible all year round. Winter roosting place of endangered bat species. Final chamber is closed over winter. Health risk during winter due to mould spoor on bat guano. Final 350m metres ascent to cave is steep.",
        "fee": "no",
        "name": "Bendethra Cave",
        "natural": "cave_entrance"
      }
    },
    {
      "type": "node",
      "id": 7212945292,
      "lat": -35.9531334,
      "lon": 149.1459721,
      "timestamp": "2020-02-15T00:34:58Z",
      "version": 1,
      "changeset": 81029943,
      "user": "nholyoak",
      "uid": 10450084,
      "tags": {
        "amenity": "shelter",
        "shelter_type": "picnic_shelter"
      }
    },
    {
      "type": "node",
      "id": 7212945293,
      "lat": -35.9531325,
      "lon": 149.1461021,
      "timestamp": "2020-02-15T00:34:58Z",
      "version": 1,
      "changeset": 81029943,
      "user": "nholyoak",
      "uid": 10450084,
      "tags": {
        "amenity": "shelter",
        "shelter_type": "picnic_shelter"
      }
    },
    {
      "type": "node",
      "id": 7212945294,
      "lat": -35.9532745,
      "lon": 149.1462442,
      "timestamp": "2020-02-15T00:34:58Z",
      "version": 1,
      "changeset": 81029943,
      "user": "nholyoak",
      "uid": 10450084,
      "tags": {
        "amenity": "shelter",
        "shelter_type": "picnic_shelter"
      }
    },
    {
      "type": "node",
      "id": 7212945317,
      "lat": -35.9522754,
      "lon": 149.1453797,
      "timestamp": "2020-02-15T00:34:58Z",
      "version": 1,
      "changeset": 81029943,
      "user": "nholyoak",
      "uid": 10450084,
      "tags": {
        "amenity": "shelter",
        "shelter_type": "picnic_shelter"
      }
    },
    {
      "type": "way",
      "id": 331022584,
      "timestamp": "2016-01-03T12:27:57Z",
      "version": 2,
      "changeset": 36337031,
      "user": "wanderlustig",
      "uid": 3327036,
      "center": {
        "lat": -35.9685325,
        "lon": 149.740204
      },
      "nodes": [],
      "tags": {
        "landuse": "grass",
        "surface": "grass",
        "tourism": "camp_site"
      }
    },
    {
      "type": "way",
      "id": 331022586,
      "timestamp": "2016-01-03T12:27:57Z",
      "version": 2,
      "changeset": 36337031,
      "user": "wanderlustig",
      "uid": 3327036,
      "center": {
        "lat": -35.9691749,
        "lon": 149.7408558
      },
      "nodes": [],
      "tags": {
        "landuse": "grass",
        "surface": "grass",
        "tourism": "camp_site"
      }
    },
    {
      "type": "way",
      "id": 331022587,
      "timestamp": "2016-01-03T12:27:57Z",
      "version": 2,
      "changeset": 36337031,
      "user": "wanderlustig",
      "uid": 3327036,
      "center": {
        "lat": -35.9580675,
        "lon": 149.7479165
      },
      "nodes": [],
      "tags": {
        "landuse": "grass",
        "surface": "grass",
        "tourism": "camp_site"
      }
    },
    {
      "type": "way",
      "id": 331022588,
      "timestamp": "2016-01-03T12:27:57Z",
      "version": 2,
      "changeset": 36337031,
      "user": "wanderlustig",
      "uid": 3327036,
      "center": {
        "lat": -35.9660094,
        "lon": 149.7407872
      },
      "nodes": [],
      "tags": {
        "landuse": "grass",
        "surface": "grass",
        "tourism": "camp_site"
      }
    },
    {
      "type": "way",
      "id": 331022589,
      "timestamp": "2016-01-03T12:27:56Z",
      "version": 2,
      "changeset": 36337031,
      "user": "wanderlustig",
      "uid": 3327036,
      "center": {
        "lat": -35.9389003,
        "lon": 149.7459791
      },
      "nodes": [],
      "tags": {
        "landuse": "grass",
        "surface": "grass",
        "tourism": "camp_site"
      }
    },
    {
      "type": "way",
      "id": 331022590,
      "timestamp": "2016-01-03T12:27:56Z",
      "version": 2,
      "changeset": 36337031,
      "user": "wanderlustig",
      "uid": 3327036,
      "center": {
        "lat": -35.9430343,
        "lon": 149.7490272
      },
      "nodes": [],
      "tags": {
        "landuse": "grass",
        "surface": "grass",
        "tourism": "camp_site"
      }
    },
    {
      "type": "way",
      "id": 331022591,
      "timestamp": "2016-01-03T12:27:56Z",
      "version": 2,
      "changeset": 36337031,
      "user": "wanderlustig",
      "uid": 3327036,
      "center": {
        "lat": -35.954115,
        "lon": 149.7447854
      },
      "nodes": [],
      "tags": {
        "landuse": "grass",
        "surface": "grass",
        "tourism": "camp_site"
      }
    },
    {
      "type": "way",
      "id": 331022592,
      "timestamp": "2016-01-03T12:27:57Z",
      "version": 2,
      "changeset": 36337031,
      "user": "wanderlustig",
      "uid": 3327036,
      "center": {
        "lat": -35.9614285,
        "lon": 149.7443642
      },
      "nodes": [],
      "tags": {
        "landuse": "grass",
        "surface": "grass",
        "tourism": "camp_site"
      }
    },
    {
      "type": "way",
      "id": 331022593,
      "timestamp": "2016-01-03T12:27:56Z",
      "version": 2,
      "changeset": 36337031,
      "user": "wanderlustig",
      "uid": 3327036,
      "center": {
        "lat": -35.9499735,
        "lon": 149.7445589
      },
      "nodes": [],
      "tags": {
        "landuse": "grass",
        "surface": "grass",
        "tourism": "camp_site"
      }
    },
    {
      "type": "way",
      "id": 331022594,
      "timestamp": "2016-01-03T12:27:55Z",
      "version": 3,
      "changeset": 36337031,
      "user": "wanderlustig",
      "uid": 3327036,
      "center": {
        "lat": -35.945056,
        "lon": 149.7437184
      },
      "nodes": [],
      "tags": {
        "landuse": "grass",
        "surface": "grass",
        "tourism": "camp_site"
      }
    },
    {
      "type": "way",
      "id": 331022595,
      "timestamp": "2016-01-03T12:27:57Z",
      "version": 2,
      "changeset": 36337031,
      "user": "wanderlustig",
      "uid": 3327036,
      "center": {
        "lat": -35.9668609,
        "lon": 149.7442676
      },
      "nodes": [],
      "tags": {
        "landuse": "grass",
        "surface": "grass",
        "tourism": "camp_site"
      }
    },
    {
      "type": "way",
      "id": 331022596,
      "timestamp": "2016-01-03T12:27:56Z",
      "version": 2,
      "changeset": 36337031,
      "user": "wanderlustig",
      "uid": 3327036,
      "center": {
        "lat": -35.9524842,
        "lon": 149.7476204
      },
      "nodes": [],
      "tags": {
        "landuse": "grass",
        "surface": "grass",
        "tourism": "camp_site"
      }
    },
    {
      "type": "way",
      "id": 331022597,
      "timestamp": "2016-01-03T12:27:58Z",
      "version": 2,
      "changeset": 36337031,
      "user": "wanderlustig",
      "uid": 3327036,
      "center": {
        "lat": -35.9712398,
        "lon": 149.7478346
      },
      "nodes": [],
      "tags": {
        "landuse": "grass",
        "surface": "grass",
        "tourism": "camp_site"
      }
    },
    {
      "type": "way",
      "id": 331022598,
      "timestamp": "2016-01-03T12:27:57Z",
      "version": 2,
      "changeset": 36337031,
      "user": "wanderlustig",
      "uid": 3327036,
      "center": {
        "lat": -35.9576824,
        "lon": 149.7460917
      },
      "nodes": [],
      "tags": {
        "landuse": "grass",
        "surface": "grass",
        "tourism": "camp_site"
      }
    },
    {
      "type": "way",
      "id": 389364743,
      "timestamp": "2016-01-03T12:27:53Z",
      "version": 1,
      "changeset": 36337031,
      "user": "wanderlustig",
      "uid": 3327036,
      "center": {
        "lat": -35.9442238,
        "lon": 149.7353315
      },
      "nodes": [],
      "tags": {
        "landuse": "grass",
        "surface": "grass",
        "tourism": "camp_site"
      }
    },
    {
      "type": "way",
      "id": 395065624,
      "timestamp": "2020-01-01T04:59:20Z",
      "version": 3,
      "changeset": 79073493,
      "user": "tastrax",
      "uid": 712752,
      "center": {
        "lat": -35.7948318,
        "lon": 149.6830769
      },
      "nodes": [],
      "tags": {
        "addr:city": "Wyanbene",
        "addr:country": "AU",
        "addr:postcode": "2622",
        "addr:street": "Wyanbene Road",
        "alt_name": "Wyanbene Caves Camping Area",
        "caravans": "yes",
        "contact:phone": "+61 2 4476 2888",
        "fee": "no",
        "name": "Wyanbene Caves",
        "tents": "yes",
        "tourism": "camp_site"
      }
    },
    {
      "type": "way",
      "id": 496531751,
      "timestamp": "2020-02-15T00:34:58Z",
      "version": 3,
      "changeset": 81029943,
      "user": "nholyoak",
      "uid": 10450084,
      "center": {
        "lat": -35.8373789,
        "lon": 149.1612945
      },
      "nodes": [],
      "tags": {
        "amenity": "shelter",
        "shelter_type": "picnic_shelter",
        "source": "LPI Imagery May 2017"
      }
    },
    {
      "type": "way",
      "id": 574712651,
      "timestamp": "2018-03-30T09:41:51Z",
      "version": 1,
      "changeset": 57655923,
      "user": "<don>",
      "uid": 45059,
      "center": {
        "lat": -35.9504581,
        "lon": 149.1450732
      },
      "nodes": [],
      "tags": {
        "caravans": "yes",
        "fee": "no",
        "name": "Bredbo Inn Hotel Campground",
        "note": "Campground from the hotel. You only have to pay for the shower, camping is free",
        "tents": "yes",
        "tourism": "camp_site"
      }
    },
    {
      "type": "way",
      "id": 756065565,
      "timestamp": "2020-02-03T22:33:18Z",
      "version": 2,
      "changeset": 80500560,
      "user": "Leon K",
      "uid": 46482,
      "center": {
        "lat": -35.703136,
        "lon": 149.1592653
      },
      "nodes": [],
      "tags": {
        "brand": "United",
        "brand:wikidata": "Q28224393",
        "brand:wikipedia": "en:United Petroleum",
        "building": "yes",
        "name": "United",
        "shop": "convenience"
      }
    },
    {
      "type": "way",
      "id": 770982892,
      "timestamp": "2020-02-09T07:46:41Z",
      "version": 1,
      "changeset": 80743465,
      "user": "Clouds777",
      "uid": 10757330,
      "center": {
        "lat": -35.6729545,
        "lon": 149.0732905
      },
      "nodes": [],
      "tags": {
        "amenity": "shelter",
        "building": "yes",
        "shelter_type": "picnic_shelter"
      }
    },
    {
      "type": "way",
      "id": 772558400,
      "timestamp": "2020-02-15T00:34:58Z",
      "version": 1,
      "changeset": 81029943,
      "user": "nholyoak",
      "uid": 10450084,
      "center": {
        "lat": -35.8375218,
        "lon": 149.1612794
      },
      "nodes": [],
      "tags": {
        "amenity": "shelter",
        "shelter_type": "picnic_shelter"
      }
    },
    {
      "type": "way",
      "id": 772558401,
      "timestamp": "2020-02-15T00:34:58Z",
      "version": 1,
      "changeset": 81029943,
      "user": "nholyoak",
      "uid": 10450084,
      "center": {
        "lat": -35.9522714,
        "lon": 149.1452466
      },
      "nodes": [],
      "tags": {
        "amenity": "shelter",
        "building": "roof"
      }
    },
    {
      "type": "way",
      "id": 934867685,
      "timestamp": "2021-04-24T23:48:56Z",
      "version": 1,
      "changeset": 103556373,
      "user": "mario7436",
      "uid": 9351600,
      "center": {
        "lat": -35.5335411,
        "lon": 149.0642254
      },
      "nodes": [],
      "tags": {
        "amenity": "shelter",
        "building": "yes",
        "shelter_type": "picnic_shelter"
      }
    }
  ]
}