{
  "osm3s": {
    "timestamp_osm_date": "2021-07-06T23:59:59Z",
    "timestamp_osm_base": "2021-07-07T05:23:02Z",
    "copyright": "The data included in this document is from www.openstreetmap.org. The data is made available under ODbL."
  },
  "elements": [
    {
      "type": "node",
      "id": 368699912,
      "lat": 35.864786,
      "lon": 127.652953,
      "timestamp": "2019-01-01T14:58:28Z",
      "version": 4,
      "changeset": 65934307,
      "user": "LuxuryCoop",
      "uid": 7245212,
      "tags": {
        "name": "킹마트 King Mart",
        "name:en": "King Mart",
        "name:ko": "킹마트 King Mart",
        "name:ko-Latn": "Kingmateu",
        "ncat": "마트",
        "shop": "supermarket",
        "source": "http://kr.open.gugi.yahoo.com"
      }
    },
    {
      "type": "node",
      "id": 368699921,
      "lat": 36.007384,
      "lon": 127.663658,
      "timestamp": "2019-01-06T16:19:20Z",
      "version": 3,
      "changeset": 66073605,
      "user": "LuxuryCoop",
      "uid": 7245212,
      "tags": {
        "name": "낚시마트",
        "name:en": "Fishing Mart",
        "name:ko": "낚시마트",
        "name:ko-Latn": "Naggsimateu",
        "ncat": "마트",
        "shop": "supermarket",
        "source": "http://kr.open.gugi.yahoo.com"
      }
    },
    {
      "type": "node",
      "id": 368699924,
      "lat": 36.0048222,
      "lon": 127.6658858,
      "timestamp": "2019-01-06T16:19:20Z",
      "version": 4,
      "changeset": 66073605,
      "user": "LuxuryCoop",
      "uid": 7245212,
      "tags": {
        "name": "금호축산물마트",
        "name:en": "Geumhochuksanmul Mart",
        "name:ko": "금호축산물마트",
        "name:ko-Latn": "Geumhochuksanmulmateu",
        "ncat": "마트",
        "shop": "supermarket",
        "source": "http://kr.open.gugi.yahoo.com"
      }
    },
    {
      "type": "node",
      "id": 368699945,
      "lat": 35.866973,
      "lon": 127.654848,
      "timestamp": "2019-01-01T14:58:28Z",
      "version": 4,
      "changeset": 65934307,
      "user": "LuxuryCoop",
      "uid": 7245212,
      "tags": {
        "name": "유할인마트 Yu Retail Shop",
        "name:en": "Yu Retail Shop",
        "name:ko": "유할인마트 Yu Retail Shop",
        "name:ko-Latn": "Yuhalinmateu",
        "ncat": "마트",
        "shop": "supermarket",
        "source": "http://kr.open.gugi.yahoo.com"
      }
    },
    {
      "type": "node",
      "id": 368699947,
      "lat": 36.0097876,
      "lon": 127.665928,
      "timestamp": "2019-01-06T16:19:20Z",
      "version": 4,
      "changeset": 66073605,
      "user": "LuxuryCoop",
      "uid": 7245212,
      "tags": {
        "name": "반딧불마트",
        "name:en": "Banditbul Mart",
        "name:ko": "반딧불마트",
        "name:ko-Latn": "Banditbulmateu",
        "ncat": "마트",
        "shop": "supermarket",
        "source": "http://kr.open.gugi.yahoo.com"
      }
    },
    {
      "type": "node",
      "id": 368699953,
      "lat": 36.00465,
      "lon": 127.662871,
      "timestamp": "2019-01-06T16:19:20Z",
      "version": 3,
      "changeset": 66073605,
      "user": "LuxuryCoop",
      "uid": 7245212,
      "tags": {
        "name": "무주할인마트",
        "name:en": "Muju Retail Shop",
        "name:ko": "무주할인마트",
        "name:ko-Latn": "Mujuhalinmateu",
        "ncat": "마트",
        "shop": "supermarket",
        "source": "http://kr.open.gugi.yahoo.com"
      }
    },
    {
      "type": "node",
      "id": 368700197,
      "lat": 35.791564,
      "lon": 127.428307,
      "timestamp": "2019-01-06T16:19:21Z",
      "version": 3,
      "changeset": 66073605,
      "user": "LuxuryCoop",
      "uid": 7245212,
      "tags": {
        "name": "무진장축산마트",
        "name:en": "Mujinjangchuksan Mart",
        "name:ko": "무진장축산마트",
        "name:ko-Latn": "Mujinjangchuksanmateu",
        "ncat": "마트",
        "shop": "supermarket",
        "source": "http://kr.open.gugi.yahoo.com"
      }
    },
    {
      "type": "node",
      "id": 368700199,
      "lat": 35.78695,
      "lon": 127.467991,
      "timestamp": "2019-01-06T16:19:21Z",
      "version": 3,
      "changeset": 66073605,
      "user": "LuxuryCoop",
      "uid": 7245212,
      "tags": {
        "name": "OK마트",
        "name:en": "OK Mart",
        "name:ko": "OK마트",
        "name:ko-Latn": "OK Mateu",
        "ncat": "마트",
        "shop": "supermarket",
        "source": "http://kr.open.gugi.yahoo.com"
      }
    },
    {
      "type": "node",
      "id": 368700205,
      "lat": 35.792663,
      "lon": 127.430047,
      "timestamp": "2019-01-06T16:19:22Z",
      "version": 3,
      "changeset": 66073605,
      "user": "LuxuryCoop",
      "uid": 7245212,
      "tags": {
        "name": "그린마트",
        "name:en": "Green Mart",
        "name:ko": "그린마트",
        "name:ko-Latn": "Geurinmateu",
        "ncat": "마트",
        "shop": "supermarket",
        "source": "http://kr.open.gugi.yahoo.com"
      }
    },
    {
      "type": "node",
      "id": 368700212,
      "lat": 35.791861,
      "lon": 127.428338,
      "timestamp": "2019-01-06T16:19:22Z",
      "version": 3,
      "changeset": 66073605,
      "user": "LuxuryCoop",
      "uid": 7245212,
      "tags": {
        "name": "한국농약마트",
        "name:en": "Korea Nongyak Mart",
        "name:ko": "한국농약마트",
        "name:ko-Latn": "Hangungnongyangmateu",
        "ncat": "마트",
        "shop": "supermarket",
        "source": "http://kr.open.gugi.yahoo.com"
      }
    },
    {
      "type": "node",
      "id": 368700215,
      "lat": 35.792422,
      "lon": 127.428743,
      "timestamp": "2019-01-06T16:19:22Z",
      "version": 3,
      "changeset": 66073605,
      "user": "LuxuryCoop",
      "uid": 7245212,
      "tags": {
        "name": "영진마트",
        "name:en": "Yeongjin Mart",
        "name:ko": "영진마트",
        "name:ko-Latn": "Yeongjinmateu",
        "ncat": "마트",
        "shop": "supermarket",
        "source": "http://kr.open.gugi.yahoo.com"
      }
    },
    {
      "type": "node",
      "id": 368700221,
      "lat": 35.791585,
      "lon": 127.42896,
      "timestamp": "2019-01-06T16:19:22Z",
      "version": 3,
      "changeset": 66073605,
      "user": "LuxuryCoop",
      "uid": 7245212,
      "tags": {
        "name": "코스코마트",
        "name:en": "Koseuko Mart",
        "name:ko": "코스코마트",
        "name:ko-Latn": "Koseukomateu",
        "ncat": "마트",
        "shop": "supermarket",
        "source": "http://kr.open.gugi.yahoo.com"
      }
    },
    {
      "type": "node",
      "id": 368700225,
      "lat": 35.796029,
      "lon": 127.428884,
      "timestamp": "2019-01-06T16:19:22Z",
      "version": 3,
      "changeset": 66073605,
      "user": "LuxuryCoop",
      "uid": 7245212,
      "tags": {
        "name": "꽃배달마트",
        "name:en": "Ggochbaedal Mart",
        "name:ko": "꽃배달마트",
        "name:ko-Latn": "Ggochbaedalmateu",
        "ncat": "마트",
        "shop": "supermarket",
        "source": "http://kr.open.gugi.yahoo.com"
      }
    },
    {
      "type": "node",
      "id": 368700230,
      "lat": 35.647618,
      "lon": 127.518236,
      "timestamp": "2019-01-01T14:58:28Z",
      "version": 4,
      "changeset": 65934307,
      "user": "LuxuryCoop",
      "uid": 7245212,
      "tags": {
        "name": "장수홈마트 Jangsuhom Mart",
        "name:en": "Jangsuhom Mart",
        "name:ko": "장수홈마트 Jangsuhom Mart",
        "name:ko-Latn": "Jangsuhommateu",
        "ncat": "마트",
        "shop": "supermarket",
        "source": "http://kr.open.gugi.yahoo.com"
      }
    },
    {
      "type": "node",
      "id": 368700241,
      "lat": 35.6518561,
      "lon": 127.5179271,
      "timestamp": "2019-01-01T14:58:28Z",
      "version": 5,
      "changeset": 65934307,
      "user": "LuxuryCoop",
      "uid": 7245212,
      "tags": {
        "name": "주공홈마트 Jugonghom Mart",
        "name:en": "Jugonghom Mart",
        "name:ko": "주공홈마트 Jugonghom Mart",
        "name:ko-Latn": "Jugonghommateu",
        "ncat": "마트",
        "shop": "supermarket",
        "source": "http://kr.open.gugi.yahoo.com"
      }
    },
    {
      "type": "node",
      "id": 368700244,
      "lat": 35.730738,
      "lon": 127.582954,
      "timestamp": "2018-08-12T05:49:05Z",
      "version": 4,
      "changeset": 61579960,
      "user": "Ian Wagner",
      "uid": 8637794,
      "tags": {
        "name": "코스코마트 Koseuko Mart",
        "name:en": "Koseuko Mart",
        "name:ko": "코스코마트",
        "name:ko-Latn": "Koseukomateu",
        "ncat": "마트",
        "shop": "supermarket",
        "source": "http://kr.open.gugi.yahoo.com"
      }
    },
    {
      "type": "node",
      "id": 368700252,
      "lat": 35.749721,
      "lon": 127.832329,
      "timestamp": "2019-01-01T14:58:29Z",
      "version": 4,
      "changeset": 65934307,
      "user": "LuxuryCoop",
      "uid": 7245212,
      "tags": {
        "name": "수승대할인마트 Suseungdae Retail Shop",
        "name:en": "Suseungdae Retail Shop",
        "name:ko": "수승대할인마트 Suseungdae Retail Shop",
        "name:ko-Latn": "Suseungdaehalinmateu",
        "ncat": "마트",
        "shop": "supermarket",
        "source": "http://kr.open.gugi.yahoo.com"
      }
    },
    {
      "type": "node",
      "id": 368700263,
      "lat": 35.676491,
      "lon": 127.268844,
      "timestamp": "2019-01-01T14:29:44Z",
      "version": 3,
      "changeset": 65933644,
      "user": "LuxuryCoop",
      "uid": 7245212,
      "tags": {
        "name": "관촌마트",
        "name:en": "Gwanchon Mart",
        "name:ko": "관촌마트",
        "name:ko-Latn": "Gwanchonmateu",
        "ncat": "마트",
        "shop": "supermarket",
        "source": "http://kr.open.gugi.yahoo.com"
      }
    },
    {
      "type": "node",
      "id": 368700268,
      "lat": 35.613824,
      "lon": 127.282528,
      "timestamp": "2019-01-06T16:19:22Z",
      "version": 3,
      "changeset": 66073605,
      "user": "LuxuryCoop",
      "uid": 7245212,
      "tags": {
        "name": "보람마트",
        "name:en": "Boram Mart",
        "name:ko": "보람마트",
        "name:ko-Latn": "Borammateu",
        "ncat": "마트",
        "shop": "supermarket",
        "source": "http://kr.open.gugi.yahoo.com"
      }
    },
    {
      "type": "node",
      "id": 368700275,
      "lat": 35.614321,
      "lon": 127.284168,
      "timestamp": "2019-01-06T16:19:22Z",
      "version": 3,
      "changeset": 66073605,
      "user": "LuxuryCoop",
      "uid": 7245212,
      "tags": {
        "name": "정마트",
        "name:en": "Jeong Mart",
        "name:ko": "정마트",
        "name:ko-Latn": "Jeongmateu",
        "ncat": "마트",
        "shop": "supermarket",
        "source": "http://kr.open.gugi.yahoo.com"
      }
    },
    {
      "type": "node",
      "id": 368700279,
      "lat": 35.676993,
      "lon": 127.268298,
      "timestamp": "2019-01-01T14:29:44Z",
      "version": 3,
      "changeset": 65933644,
      "user": "LuxuryCoop",
      "uid": 7245212,
      "tags": {
        "name": "사선대마트",
        "name:en": "Saseondae Mart",
        "name:ko": "사선대마트",
        "name:ko-Latn": "Saseondaemateu",
        "ncat": "마트",
        "shop": "supermarket",
        "source": "http://kr.open.gugi.yahoo.com"
      }
    },
    {
      "type": "node",
      "id": 368700292,
      "lat": 35.539041,
      "lon": 127.326614,
      "timestamp": "2019-01-06T16:19:22Z",
      "version": 3,
      "changeset": 66073605,
      "user": "LuxuryCoop",
      "uid": 7245212,
      "tags": {
        "name": "오수그랜드마트",
        "name:en": "Osu Grand Mart",
        "name:ko": "오수그랜드마트",
        "name:ko-Latn": "Osugeuraendeumateu",
        "ncat": "마트",
        "shop": "supermarket",
        "source": "http://kr.open.gugi.yahoo.com"
      }
    },
    {
      "type": "node",
      "id": 368700296,
      "lat": 35.679868,
      "lon": 127.69061,
      "timestamp": "2018-08-12T05:49:06Z",
      "version": 4,
      "changeset": 61579960,
      "user": "Ian Wagner",
      "uid": 8637794,
      "tags": {
        "name": "킹할인마트 King Retail Shop",
        "name:en": "King Retail Shop",
        "name:ko": "킹할인마트",
        "name:ko-Latn": "Kinghalinmateu",
        "ncat": "마트",
        "shop": "supermarket",
        "source": "http://kr.open.gugi.yahoo.com"
      }
    },
    {
      "type": "node",
      "id": 368700306,
      "lat": 35.679023,
      "lon": 127.688116,
      "timestamp": "2018-08-12T05:49:06Z",
      "version": 4,
      "changeset": 61579960,
      "user": "Ian Wagner",
      "uid": 8637794,
      "tags": {
        "name": "킹할인마트 King Retail Shop",
        "name:en": "King Retail Shop",
        "name:ko": "킹할인마트",
        "name:ko-Latn": "Kinghalinmateu",
        "ncat": "마트",
        "shop": "supermarket",
        "source": "http://kr.open.gugi.yahoo.com"
      }
    },
    {
      "type": "node",
      "id": 368700307,
      "lat": 35.5185006,
      "lon": 127.7264077,
      "timestamp": "2019-01-01T14:58:29Z",
      "version": 4,
      "changeset": 65934307,
      "user": "LuxuryCoop",
      "uid": 7245212,
      "tags": {
        "name": "함양할인마트",
        "name:en": "Hamyang Retail Shop",
        "name:ko": "함양할인마트",
        "name:ko-Latn": "Hamyanghalinmateu",
        "ncat": "마트",
        "shop": "supermarket",
        "source": "http://kr.open.gugi.yahoo.com"
      }
    },
    {
      "type": "node",
      "id": 368700530,
      "lat": 35.492417,
      "lon": 127.833279,
      "timestamp": "2019-01-01T14:58:29Z",
      "version": 3,
      "changeset": 65934307,
      "user": "LuxuryCoop",
      "uid": 7245212,
      "tags": {
        "name": "생초할인마트",
        "name:en": "Saengcho Retail Shop",
        "name:ko": "생초할인마트",
        "name:ko-Latn": "Saengchohalinmateu",
        "ncat": "마트",
        "shop": "supermarket",
        "source": "http://kr.open.gugi.yahoo.com"
      }
    },
    {
      "type": "node",
      "id": 368724978,
      "lat": 35.505753,
      "lon": 127.604777,
      "timestamp": "2019-01-01T14:58:33Z",
      "version": 4,
      "changeset": 65934307,
      "user": "LuxuryCoop",
      "uid": 7245212,
      "tags": {
        "name": "신흥문방구 Sinheung Stationery",
        "name:en": "Sinheung Stationery",
        "name:ko": "신흥문방구 Sinheung Stationery",
        "name:ko-Latn": "Sinheungmunbanggu",
        "ncat": "문방구",
        "shop": "convenience",
        "source": "http://kr.open.gugi.yahoo.com"
      }
    },
    {
      "type": "node",
      "id": 368725180,
      "lat": 36.016721,
      "lon": 127.780209,
      "timestamp": "2019-01-06T16:24:06Z",
      "version": 3,
      "changeset": 66073605,
      "user": "LuxuryCoop",
      "uid": 7245212,
      "tags": {
        "name": "용화문방구",
        "name:en": "Yonghwa Stationery",
        "name:ko": "용화문방구",
        "name:ko-Latn": "Yonghwamunbanggu",
        "ncat": "문방구",
        "shop": "convenience",
        "source": "http://kr.open.gugi.yahoo.com"
      }
    },
    {
      "type": "node",
      "id": 368725199,
      "lat": 35.676993,
      "lon": 127.268298,
      "timestamp": "2019-01-01T14:29:57Z",
      "version": 3,
      "changeset": 65933644,
      "user": "LuxuryCoop",
      "uid": 7245212,
      "tags": {
        "name": "미희문방구",
        "name:en": "Mihui Stationery",
        "name:ko": "미희문방구",
        "name:ko-Latn": "Mihuimunbanggu",
        "ncat": "문방구",
        "shop": "convenience",
        "source": "http://kr.open.gugi.yahoo.com"
      }
    },
    {
      "type": "node",
      "id": 368871117,
      "lat": 35.471908,
      "lon": 127.960823,
      "timestamp": "2019-01-01T14:58:57Z",
      "version": 3,
      "changeset": 65934307,
      "user": "LuxuryCoop",
      "uid": 7245212,
      "tags": {
        "name": "황매산청소년야영장",
        "name:en": "Hwangmaesan Youth Camping Site",
        "name:ko": "황매산청소년야영장",
        "name:ko-Latn": "Hwangmaesancheongsonyeonyayeongjang",
        "ncat": "야영장",
        "source": "http://kr.open.gugi.yahoo.com",
        "tourism": "camp_site"
      }
    },
    {
      "type": "node",
      "id": 368871120,
      "lat": 35.755471,
      "lon": 127.4023,
      "timestamp": "2019-01-06T16:54:20Z",
      "version": 3,
      "changeset": 66074445,
      "user": "LuxuryCoop",
      "uid": 7245212,
      "tags": {
        "name": "진안군청소년야영장",
        "name:en": "Jinangun Youth Camping Site",
        "name:ko": "진안군청소년야영장",
        "name:ko-Latn": "Jinanguncheongsonyeonyayeongjang",
        "ncat": "야영장",
        "source": "http://kr.open.gugi.yahoo.com",
        "tourism": "camp_site"
      }
    },
    {
      "type": "node",
      "id": 368871149,
      "lat": 35.71695,
      "lon": 127.407218,
      "timestamp": "2019-01-06T16:54:20Z",
      "version": 3,
      "changeset": 66074445,
      "user": "LuxuryCoop",
      "uid": 7245212,
      "tags": {
        "name": "평장야영장",
        "name:en": "Pyeongjang Camping Site",
        "name:ko": "평장야영장",
        "name:ko-Latn": "Pyeongjangyayeongjang",
        "ncat": "야영장",
        "source": "http://kr.open.gugi.yahoo.com",
        "tourism": "camp_site"
      }
    },
    {
      "type": "node",
      "id": 368871155,
      "lat": 35.700991,
      "lon": 127.282092,
      "timestamp": "2019-01-01T14:33:06Z",
      "version": 3,
      "changeset": 65933644,
      "user": "LuxuryCoop",
      "uid": 7245212,
      "tags": {
        "name": "학생야영장",
        "name:en": "Student Camping Site",
        "name:ko": "학생야영장",
        "name:ko-Latn": "Haksaengyayeongjang",
        "ncat": "야영장",
        "source": "http://kr.open.gugi.yahoo.com",
        "tourism": "camp_site"
      }
    },
    {
      "type": "node",
      "id": 368871205,
      "lat": 35.921845,
      "lon": 127.946614,
      "timestamp": "2019-01-01T14:58:57Z",
      "version": 3,
      "changeset": 65934307,
      "user": "LuxuryCoop",
      "uid": 7245212,
      "tags": {
        "name": "김천학생야영장",
        "name:en": "Gimcheon Student Camping Site",
        "name:ko": "김천학생야영장",
        "name:ko-Latn": "Gimcheonhaksaengyayeongjang",
        "ncat": "야영장",
        "source": "http://kr.open.gugi.yahoo.com",
        "tourism": "camp_site"
      }
    },
    {
      "type": "node",
      "id": 368871269,
      "lat": 36.0138806,
      "lon": 127.7574383,
      "timestamp": "2019-01-06T16:54:22Z",
      "version": 4,
      "changeset": 66074445,
      "user": "LuxuryCoop",
      "uid": 7245212,
      "tags": {
        "name": "반디랜드청소년야영장",
        "name:en": "Bandiraendeu Youth Camping Site",
        "name:ko": "반디랜드청소년야영장",
        "name:ko-Latn": "Bandiraendeucheongsonyeonyayeongjang",
        "ncat": "야영장",
        "source": "http://kr.open.gugi.yahoo.com",
        "tourism": "camp_site"
      }
    },
    {
      "type": "node",
      "id": 368874997,
      "lat": 35.839771,
      "lon": 127.280149,
      "timestamp": "2019-01-16T22:01:12Z",
      "version": 5,
      "changeset": 66376963,
      "user": "datacleanup",
      "uid": 9362643,
      "tags": {
        "leisure": "sauna",
        "name": "화심온천",
        "name:en": "Hwasim Hot Spring",
        "name:ko": "화심온천",
        "name:ko-Latn": "Hwasimoncheon",
        "natural": "spring",
        "ncat": "온천",
        "source": "http://kr.open.gugi.yahoo.com"
      }
    },
    {
      "type": "node",
      "id": 368874999,
      "lat": 35.721126,
      "lon": 127.295442,
      "timestamp": "2019-01-16T22:01:12Z",
      "version": 5,
      "changeset": 66376963,
      "user": "datacleanup",
      "uid": 9362643,
      "tags": {
        "leisure": "sauna",
        "name": "마이산회봉온천",
        "name:en": "Maisanhoebong Hot Spring",
        "name:ko": "마이산회봉온천",
        "name:ko-Latn": "Maisanhoebongoncheon",
        "natural": "spring",
        "ncat": "온천",
        "source": "http://kr.open.gugi.yahoo.com"
      }
    },
    {
      "type": "node",
      "id": 368875004,
      "lat": 35.520065,
      "lon": 127.727995,
      "timestamp": "2019-01-16T22:01:12Z",
      "version": 5,
      "changeset": 66376963,
      "user": "datacleanup",
      "uid": 9362643,
      "tags": {
        "leisure": "sauna",
        "name": "금호온천",
        "name:en": "Geumho Hot Spring",
        "name:ko": "금호온천",
        "name:ko-Latn": "Geumhooncheon",
        "natural": "spring",
        "ncat": "온천",
        "source": "http://kr.open.gugi.yahoo.com"
      }
    },
    {
      "type": "node",
      "id": 368875009,
      "lat": 35.537409,
      "lon": 127.523791,
      "timestamp": "2019-01-16T22:01:12Z",
      "version": 6,
      "changeset": 66376963,
      "user": "datacleanup",
      "uid": 9362643,
      "tags": {
        "leisure": "sauna",
        "name": "장수온천 Jangsu Oncheon",
        "name:en": "Jangsu Hot Spring",
        "name:ko": "장수온천 Jangsu Oncheon",
        "name:ko-Latn": "Jangsuoncheon",
        "natural": "spring",
        "ncat": "온천",
        "source": "http://kr.open.gugi.yahoo.com"
      }
    },
    {
      "type": "node",
      "id": 368940808,
      "lat": 35.497019,
      "lon": 127.630846,
      "timestamp": "2019-01-01T14:59:15Z",
      "version": 5,
      "changeset": 65934307,
      "user": "LuxuryCoop",
      "uid": 7245212,
      "tags": {
        "name": "지리산낙농축협 Jirisannangnong National Livestock Cooperative Federation",
        "name:en": "Jirisannangnong National Livestock Cooperative Federation",
        "name:ko": "지리산낙농축협 Jirisannangnong National Livestock Cooperative Federation",
        "name:ko-Latn": "Jirisannangnongchukhyeop",
        "ncat": "축협",
        "shop": "supermarket",
        "source": "http://kr.open.gugi.yahoo.com"
      }
    },
    {
      "type": "node",
      "id": 368940817,
      "lat": 35.513403,
      "lon": 127.420523,
      "timestamp": "2019-01-06T17:05:21Z",
      "version": 4,
      "changeset": 66074445,
      "user": "LuxuryCoop",
      "uid": 7245212,
      "tags": {
        "name": "남원축협",
        "name:en": "Namwon National Livestock Cooperative Federation",
        "name:ko": "남원축협",
        "name:ko-Latn": "Namwonchukhyeop",
        "ncat": "축협",
        "shop": "supermarket",
        "source": "http://kr.open.gugi.yahoo.com"
      }
    },
    {
      "type": "node",
      "id": 368941981,
      "lat": 35.866738,
      "lon": 127.654749,
      "timestamp": "2019-01-01T14:59:15Z",
      "version": 5,
      "changeset": 65934307,
      "user": "LuxuryCoop",
      "uid": 7245212,
      "tags": {
        "name": "무진장축협 Mujinjang National Livestock Cooperative Federation",
        "name:en": "Mujinjang National Livestock Cooperative Federation",
        "name:ko": "무진장축협 Mujinjang National Livestock Cooperative Federation",
        "name:ko-Latn": "Mujinjangchukhyeop",
        "ncat": "축협",
        "shop": "supermarket",
        "source": "http://kr.open.gugi.yahoo.com"
      }
    },
    {
      "type": "node",
      "id": 368941991,
      "lat": 36.006489,
      "lon": 127.662719,
      "timestamp": "2019-01-06T17:05:36Z",
      "version": 4,
      "changeset": 66074445,
      "user": "LuxuryCoop",
      "uid": 7245212,
      "tags": {
        "name": "무진장축협",
        "name:en": "Mujinjang National Livestock Cooperative Federation",
        "name:ko": "무진장축협",
        "name:ko-Latn": "Mujinjangchukhyeop",
        "ncat": "축협",
        "shop": "supermarket",
        "source": "http://kr.open.gugi.yahoo.com"
      }
    },
    {
      "type": "node",
      "id": 368942128,
      "lat": 35.7223,
      "lon": 127.36556,
      "timestamp": "2019-01-06T17:05:37Z",
      "version": 4,
      "changeset": 66074445,
      "user": "LuxuryCoop",
      "uid": 7245212,
      "tags": {
        "name": "진안축협",
        "name:en": "Jinan National Livestock Cooperative Federation",
        "name:ko": "진안축협",
        "name:ko-Latn": "Jinanchukhyeop",
        "ncat": "축협",
        "shop": "supermarket",
        "source": "http://kr.open.gugi.yahoo.com"
      }
    },
    {
      "type": "node",
      "id": 368942139,
      "lat": 35.777147,
      "lon": 127.364716,
      "timestamp": "2019-01-06T17:05:37Z",
      "version": 4,
      "changeset": 66074445,
      "user": "LuxuryCoop",
      "uid": 7245212,
      "tags": {
        "name": "무진장축협",
        "name:en": "Mujinjang National Livestock Cooperative Federation",
        "name:ko": "무진장축협",
        "name:ko-Latn": "Mujinjangchukhyeop",
        "ncat": "축협",
        "shop": "supermarket",
        "source": "http://kr.open.gugi.yahoo.com"
      }
    },
    {
      "type": "node",
      "id": 368942140,
      "lat": 35.731868,
      "lon": 127.414427,
      "timestamp": "2019-01-06T17:05:37Z",
      "version": 4,
      "changeset": 66074445,
      "user": "LuxuryCoop",
      "uid": 7245212,
      "tags": {
        "name": "진안축협",
        "name:en": "Jinan National Livestock Cooperative Federation",
        "name:ko": "진안축협",
        "name:ko-Latn": "Jinanchukhyeop",
        "ncat": "축협",
        "shop": "supermarket",
        "source": "http://kr.open.gugi.yahoo.com"
      }
    },
    {
      "type": "node",
      "id": 368942148,
      "lat": 35.792402,
      "lon": 127.4331868,
      "timestamp": "2019-01-06T17:05:38Z",
      "version": 5,
      "changeset": 66074445,
      "user": "LuxuryCoop",
      "uid": 7245212,
      "tags": {
        "name": "진안축협",
        "name:en": "Jinan National Livestock Cooperative Federation",
        "name:ko": "진안축협",
        "name:ko-Latn": "Jinanchukhyeop",
        "ncat": "축협",
        "shop": "supermarket",
        "source": "http://kr.open.gugi.yahoo.com"
      }
    },
    {
      "type": "node",
      "id": 368942149,
      "lat": 35.605288,
      "lon": 127.494603,
      "timestamp": "2019-01-01T14:59:15Z",
      "version": 5,
      "changeset": 65934307,
      "user": "LuxuryCoop",
      "uid": 7245212,
      "tags": {
        "name": "장수축협 Jangsu National Livestock Cooperative Federation",
        "name:en": "Jangsu National Livestock Cooperative Federation",
        "name:ko": "장수축협 Jangsu National Livestock Cooperative Federation",
        "name:ko-Latn": "Jangsuchukhyeop",
        "ncat": "축협",
        "shop": "supermarket",
        "source": "http://kr.open.gugi.yahoo.com"
      }
    },
    {
      "type": "node",
      "id": 368942159,
      "lat": 35.588659,
      "lon": 127.396807,
      "timestamp": "2019-01-06T17:05:38Z",
      "version": 4,
      "changeset": 66074445,
      "user": "LuxuryCoop",
      "uid": 7245212,
      "tags": {
        "name": "무진장축협",
        "name:en": "Mujinjang National Livestock Cooperative Federation",
        "name:ko": "무진장축협",
        "name:ko-Latn": "Mujinjangchukhyeop",
        "ncat": "축협",
        "shop": "supermarket",
        "source": "http://kr.open.gugi.yahoo.com"
      }
    },
    {
      "type": "node",
      "id": 368942168,
      "lat": 35.6473391,
      "lon": 127.5193969,
      "timestamp": "2019-01-01T14:59:15Z",
      "version": 5,
      "changeset": 65934307,
      "user": "LuxuryCoop",
      "uid": 7245212,
      "tags": {
        "name": "무진장축협 Mujinjang National Livestock Cooperative Federation",
        "name:en": "Mujinjang National Livestock Cooperative Federation",
        "name:ko": "무진장축협 Mujinjang National Livestock Cooperative Federation",
        "name:ko-Latn": "Mujinjangchukhyeop",
        "ncat": "축협",
        "shop": "supermarket",
        "source": "http://kr.open.gugi.yahoo.com"
      }
    },
    {
      "type": "node",
      "id": 368942172,
      "lat": 35.728546,
      "lon": 127.580135,
      "timestamp": "2018-08-12T05:50:05Z",
      "version": 5,
      "changeset": 61579960,
      "user": "Ian Wagner",
      "uid": 8637794,
      "tags": {
        "name": "무진장축협 Mujinjang National Livestock Cooperative Federation",
        "name:en": "Mujinjang National Livestock Cooperative Federation",
        "name:ko": "무진장축협",
        "name:ko-Latn": "Mujinjangchukhyeop",
        "ncat": "축협",
        "shop": "supermarket",
        "source": "http://kr.open.gugi.yahoo.com"
      }
    },
    {
      "type": "node",
      "id": 368942181,
      "lat": 35.686093,
      "lon": 127.91616,
      "timestamp": "2019-01-01T14:59:15Z",
      "version": 4,
      "changeset": 65934307,
      "user": "LuxuryCoop",
      "uid": 7245212,
      "tags": {
        "name": "거창축협",
        "name:en": "Geochang National Livestock Cooperative Federation",
        "name:ko": "거창축협",
        "name:ko-Latn": "Geochangchukhyeop",
        "ncat": "축협",
        "shop": "supermarket",
        "source": "http://kr.open.gugi.yahoo.com"
      }
    },
    {
      "type": "node",
      "id": 368942196,
      "lat": 35.6855628,
      "lon": 127.9104748,
      "timestamp": "2019-01-01T14:59:16Z",
      "version": 5,
      "changeset": 65934307,
      "user": "LuxuryCoop",
      "uid": 7245212,
      "tags": {
        "name": "NongHyup Supermarket",
        "name:ko": "NongHyup Supermarket",
        "shop": "supermarket"
      }
    },
    {
      "type": "node",
      "id": 368942199,
      "lat": 35.687823,
      "lon": 127.928203,
      "timestamp": "2019-01-01T14:59:16Z",
      "version": 4,
      "changeset": 65934307,
      "user": "LuxuryCoop",
      "uid": 7245212,
      "tags": {
        "name": "거창축협",
        "name:en": "Geochang National Livestock Cooperative Federation",
        "name:ko": "거창축협",
        "name:ko-Latn": "Geochangchukhyeop",
        "ncat": "축협",
        "shop": "supermarket",
        "source": "http://kr.open.gugi.yahoo.com"
      }
    },
    {
      "type": "node",
      "id": 368942206,
      "lat": 35.567115,
      "lon": 127.926146,
      "timestamp": "2019-01-01T14:59:16Z",
      "version": 4,
      "changeset": 65934307,
      "user": "LuxuryCoop",
      "uid": 7245212,
      "tags": {
        "name": "거창축협",
        "name:en": "Geochang National Livestock Cooperative Federation",
        "name:ko": "거창축협",
        "name:ko-Latn": "Geochangchukhyeop",
        "ncat": "축협",
        "shop": "supermarket",
        "source": "http://kr.open.gugi.yahoo.com"
      }
    },
    {
      "type": "node",
      "id": 368942215,
      "lat": 35.750389,
      "lon": 127.833046,
      "timestamp": "2019-01-01T14:59:16Z",
      "version": 6,
      "changeset": 65934307,
      "user": "LuxuryCoop",
      "uid": 7245212,
      "tags": {
        "name": "거창축협",
        "name:en": "Geochang National Livestock Cooperative Federation",
        "name:ko": "거창축협",
        "name:ko-Latn": "Geochangchukhyeop",
        "ncat": "축협",
        "shop": "supermarket",
        "source": "http://kr.open.gugi.yahoo.com"
      }
    },
    {
      "type": "node",
      "id": 368942218,
      "lat": 35.615779,
      "lon": 127.282223,
      "timestamp": "2019-01-06T17:05:38Z",
      "version": 4,
      "changeset": 66074445,
      "user": "LuxuryCoop",
      "uid": 7245212,
      "tags": {
        "name": "임실축협",
        "name:en": "Imsil National Livestock Cooperative Federation",
        "name:ko": "임실축협",
        "name:ko-Latn": "Imsilchukhyeop",
        "ncat": "축협",
        "shop": "supermarket",
        "source": "http://kr.open.gugi.yahoo.com"
      }
    },
    {
      "type": "node",
      "id": 368942229,
      "lat": 35.537994,
      "lon": 127.327958,
      "timestamp": "2019-01-06T17:05:38Z",
      "version": 4,
      "changeset": 66074445,
      "user": "LuxuryCoop",
      "uid": 7245212,
      "tags": {
        "name": "임실축협",
        "name:en": "Imsil National Livestock Cooperative Federation",
        "name:ko": "임실축협",
        "name:ko-Latn": "Imsilchukhyeop",
        "ncat": "축협",
        "shop": "supermarket",
        "source": "http://kr.open.gugi.yahoo.com"
      }
    },
    {
      "type": "node",
      "id": 368942236,
      "lat": 35.673417,
      "lon": 127.270208,
      "timestamp": "2019-01-01T14:34:17Z",
      "version": 4,
      "changeset": 65933644,
      "user": "LuxuryCoop",
      "uid": 7245212,
      "tags": {
        "name": "임실축협",
        "name:en": "Imsil National Livestock Cooperative Federation",
        "name:ko": "임실축협",
        "name:ko-Latn": "Imsilchukhyeop",
        "ncat": "축협",
        "shop": "supermarket",
        "source": "http://kr.open.gugi.yahoo.com"
      }
    },
    {
      "type": "node",
      "id": 368942239,
      "lat": 35.614653,
      "lon": 127.283945,
      "timestamp": "2019-01-06T17:05:38Z",
      "version": 4,
      "changeset": 66074445,
      "user": "LuxuryCoop",
      "uid": 7245212,
      "tags": {
        "name": "임실축협",
        "name:en": "Imsil National Livestock Cooperative Federation",
        "name:ko": "임실축협",
        "name:ko-Latn": "Imsilchukhyeop",
        "ncat": "축협",
        "shop": "supermarket",
        "source": "http://kr.open.gugi.yahoo.com"
      }
    },
    {
      "type": "node",
      "id": 368942248,
      "lat": 35.613013,
      "lon": 127.285659,
      "timestamp": "2019-01-06T17:05:38Z",
      "version": 4,
      "changeset": 66074445,
      "user": "LuxuryCoop",
      "uid": 7245212,
      "tags": {
        "name": "임실축협",
        "name:en": "Imsil National Livestock Cooperative Federation",
        "name:ko": "임실축협",
        "name:ko-Latn": "Imsilchukhyeop",
        "ncat": "축협",
        "shop": "supermarket",
        "source": "http://kr.open.gugi.yahoo.com"
      }
    },
    {
      "type": "node",
      "id": 368942266,
      "lat": 35.62887,
      "lon": 127.812594,
      "timestamp": "2019-01-01T14:59:16Z",
      "version": 5,
      "changeset": 65934307,
      "user": "LuxuryCoop",
      "uid": 7245212,
      "tags": {
        "name": "함양축협",
        "name:en": "Hamyang National Livestock Cooperative Federation",
        "name:ko": "함양축협",
        "name:ko-Latn": "Hamyangchukhyeop",
        "ncat": "축협",
        "shop": "supermarket",
        "source": "http://kr.open.gugi.yahoo.com"
      }
    },
    {
      "type": "node",
      "id": 368942268,
      "lat": 35.563917,
      "lon": 127.636796,
      "timestamp": "2018-08-12T05:50:06Z",
      "version": 5,
      "changeset": 61579960,
      "user": "Ian Wagner",
      "uid": 8637794,
      "tags": {
        "name": "함양축협 Hamyang National Livestock Cooperative Federation",
        "name:en": "Hamyang National Livestock Cooperative Federation",
        "name:ko": "함양축협",
        "name:ko-Latn": "Hamyangchukhyeop",
        "ncat": "축협",
        "shop": "supermarket",
        "source": "http://kr.open.gugi.yahoo.com"
      }
    },
    {
      "type": "node",
      "id": 368942279,
      "lat": 35.518834,
      "lon": 127.7274544,
      "timestamp": "2019-01-01T14:59:16Z",
      "version": 5,
      "changeset": 65934307,
      "user": "LuxuryCoop",
      "uid": 7245212,
      "tags": {
        "name": "함양축협",
        "name:en": "Hamyang National Livestock Cooperative Federation",
        "name:ko": "함양축협",
        "name:ko-Latn": "Hamyangchukhyeop",
        "ncat": "축협",
        "shop": "supermarket",
        "source": "http://kr.open.gugi.yahoo.com"
      }
    },
    {
      "type": "node",
      "id": 368942288,
      "lat": 35.629158,
      "lon": 127.812229,
      "timestamp": "2019-01-01T14:59:16Z",
      "version": 5,
      "changeset": 65934307,
      "user": "LuxuryCoop",
      "uid": 7245212,
      "tags": {
        "name": "함양축협",
        "name:en": "Hamyang National Livestock Cooperative Federation",
        "name:ko": "함양축협",
        "name:ko-Latn": "Hamyangchukhyeop",
        "ncat": "축협",
        "shop": "supermarket",
        "source": "http://kr.open.gugi.yahoo.com"
      }
    },
    {
      "type": "node",
      "id": 368950434,
      "lat": 35.905041,
      "lon": 127.754712,
      "timestamp": "2019-01-01T14:59:21Z",
      "version": 4,
      "changeset": 65934307,
      "user": "LuxuryCoop",
      "uid": 7245212,
      "tags": {
        "name": "마지막편의점 Majimak Convenience Store",
        "name:en": "Majimak Convenience Store",
        "name:ko": "마지막편의점 Majimak Convenience Store",
        "name:ko-Latn": "Majimakpyeonuijeom",
        "ncat": "편의점",
        "shop": "convenience",
        "source": "http://kr.open.gugi.yahoo.com"
      }
    },
    {
      "type": "node",
      "id": 368950439,
      "lat": 36.0078316,
      "lon": 127.6620401,
      "timestamp": "2019-01-06T17:08:00Z",
      "version": 4,
      "changeset": 66074904,
      "user": "LuxuryCoop",
      "uid": 7245212,
      "tags": {
        "name": "그린마트편의점",
        "name:en": "Green Mart Convenience Store",
        "name:ko": "그린마트편의점",
        "name:ko-Latn": "Geurinmateupyeonuijeom",
        "ncat": "편의점",
        "shop": "convenience",
        "source": "http://kr.open.gugi.yahoo.com"
      }
    },
    {
      "type": "node",
      "id": 368950504,
      "lat": 35.732314,
      "lon": 127.580071,
      "timestamp": "2018-08-12T05:50:08Z",
      "version": 4,
      "changeset": 61579960,
      "user": "Ian Wagner",
      "uid": 8637794,
      "tags": {
        "name": "굿모닝편의점 Good Morning Convenience Store",
        "name:en": "Good Morning Convenience Store",
        "name:ko": "굿모닝편의점",
        "name:ko-Latn": "Gutmoningpyeonuijeom",
        "ncat": "편의점",
        "shop": "convenience",
        "source": "http://kr.open.gugi.yahoo.com"
      }
    },
    {
      "type": "node",
      "id": 368950505,
      "lat": 35.688572,
      "lon": 127.915263,
      "timestamp": "2019-01-01T14:59:21Z",
      "version": 3,
      "changeset": 65934307,
      "user": "LuxuryCoop",
      "uid": 7245212,
      "tags": {
        "name": "24시편의점",
        "name:en": "24 Si Convenience Store",
        "name:ko": "24시편의점",
        "name:ko-Latn": "24 Sipyeonuijeom",
        "ncat": "편의점",
        "shop": "convenience",
        "source": "http://kr.open.gugi.yahoo.com"
      }
    },
    {
      "type": "node",
      "id": 415143874,
      "lat": 35.4646952,
      "lon": 127.75544,
      "timestamp": "2018-08-12T05:50:54Z",
      "version": 6,
      "changeset": 61579960,
      "user": "Ian Wagner",
      "uid": 8637794,
      "tags": {
        "name": "대천리",
        "name:en": "Daecheon-ri",
        "name:ko": "대천리",
        "name:ko-Latn": "Daecheon-ri",
        "ncat": "교차로및지명",
        "place": "village",
        "source": "mp2osm"
      }
    },
    {
      "type": "node",
      "id": 415143875,
      "lat": 35.48309,
      "lon": 127.76368,
      "timestamp": "2018-08-12T05:50:54Z",
      "version": 6,
      "changeset": 61579960,
      "user": "Ian Wagner",
      "uid": 8637794,
      "tags": {
        "name": "호산리",
        "name:en": "Hosan-ri",
        "name:ko": "호산리",
        "name:ko-Latn": "Hosan-ri",
        "ncat": "교차로및지명",
        "place": "village",
        "source": "mp2osm"
      }
    },
    {
      "type": "node",
      "id": 415143876,
      "lat": 35.4686452,
      "lon": 127.7692787,
      "timestamp": "2018-08-12T05:50:54Z",
      "version": 7,
      "changeset": 61579960,
      "user": "Ian Wagner",
      "uid": 8637794,
      "tags": {
        "name": "유평리",
        "name:ko": "유평리",
        "name:ko-Latn": "Yupyeong-ri",
        "ncat": "교차로및지명",
        "place": "village",
        "source": "mp2osm"
      }
    },
    {
      "type": "node",
      "id": 415143878,
      "lat": 35.46919,
      "lon": 127.78922,
      "timestamp": "2018-08-12T05:50:54Z",
      "version": 6,
      "changeset": 61579960,
      "user": "Ian Wagner",
      "uid": 8637794,
      "tags": {
        "name": "서주리",
        "name:en": "Seoju-ri",
        "name:ko": "서주리",
        "name:ko-Latn": "Seoju-ri",
        "ncat": "교차로및지명",
        "place": "village",
        "source": "mp2osm"
      }
    },
    {
      "type": "node",
      "id": 415143891,
      "lat": 35.47665,
      "lon": 127.79235,
      "timestamp": "2018-08-12T05:50:54Z",
      "version": 6,
      "changeset": 61579960,
      "user": "Ian Wagner",
      "uid": 8637794,
      "tags": {
        "name": "화촌리",
        "name:en": "Hwachon-ri",
        "name:ko": "화촌리",
        "name:ko-Latn": "Hwachon-ri",
        "ncat": "교차로및지명",
        "place": "village",
        "source": "mp2osm"
      }
    },
    {
      "type": "node",
      "id": 415143892,
      "lat": 35.48818,
      "lon": 127.79209,
      "timestamp": "2018-08-12T05:50:54Z",
      "version": 4,
      "changeset": 61579960,
      "user": "Ian Wagner",
      "uid": 8637794,
      "tags": {
        "name": "국계리",
        "name:en": "Gukgye-ri",
        "name:ko": "국계리",
        "name:ko-Latn": "Gukgye-ri",
        "ncat": "교차로및지명",
        "place": "village",
        "source": "mp2osm"
      }
    },
    {
      "type": "node",
      "id": 415143893,
      "lat": 35.48335,
      "lon": 127.78608,
      "timestamp": "2018-12-24T13:20:39Z",
      "version": 8,
      "changeset": 65740337,
      "user": "LuxuryCoop",
      "uid": 7245212,
      "tags": {
        "name": "유림면",
        "name:en": "Yurim-myeon",
        "name:ko": "유림면",
        "name:ko-Latn": "Yurim-myeon",
        "ncat": "교차로및지명",
        "place": "town",
        "source": "mp2osm",
        "wikidata": "Q12609758"
      }
    },
    {
      "type": "node",
      "id": 415143894,
      "lat": 35.5027,
      "lon": 127.80216,
      "timestamp": "2018-08-12T05:50:55Z",
      "version": 4,
      "changeset": 61579960,
      "user": "Ian Wagner",
      "uid": 8637794,
      "tags": {
        "name": "대궁리",
        "name:en": "Daegung-ri",
        "name:ko": "대궁리",
        "name:ko-Latn": "Daegung-ri",
        "ncat": "교차로및지명",
        "place": "village",
        "source": "mp2osm"
      }
    },
    {
      "type": "node",
      "id": 415143895,
      "lat": 35.47592,
      "lon": 127.80593,
      "timestamp": "2018-08-12T05:50:55Z",
      "version": 6,
      "changeset": 61579960,
      "user": "Ian Wagner",
      "uid": 8637794,
      "tags": {
        "name": "장항리",
        "name:en": "Janghang-ri",
        "name:ko": "장항리",
        "name:ko-Latn": "Janghang-ri",
        "ncat": "교차로및지명",
        "place": "village",
        "source": "mp2osm"
      }
    },
    {
      "type": "node",
      "id": 415143896,
      "lat": 35.4753,
      "lon": 127.81958,
      "timestamp": "2018-08-12T05:50:55Z",
      "version": 6,
      "changeset": 61579960,
      "user": "Ian Wagner",
      "uid": 8637794,
      "tags": {
        "name": "상촌리",
        "name:en": "Sangchon-ri",
        "name:ko": "상촌리",
        "name:ko-Latn": "Sangchon-ri",
        "ncat": "교차로및지명",
        "place": "village",
        "source": "mp2osm"
      }
    },
    {
      "type": "node",
      "id": 415143897,
      "lat": 35.49582,
      "lon": 127.82404,
      "timestamp": "2018-08-12T05:50:55Z",
      "version": 4,
      "changeset": 61579960,
      "user": "Ian Wagner",
      "uid": 8637794,
      "tags": {
        "name": "어서리",
        "name:en": "Eoseo-ri",
        "name:ko": "어서리",
        "name:ko-Latn": "Eoseo-ri",
        "ncat": "교차로및지명",
        "place": "village",
        "source": "mp2osm"
      }
    },
    {
      "type": "node",
      "id": 415143898,
      "lat": 35.48228,
      "lon": 127.832,
      "timestamp": "2018-08-12T05:50:55Z",
      "version": 6,
      "changeset": 61579960,
      "user": "Ian Wagner",
      "uid": 8637794,
      "tags": {
        "name": "하촌리",
        "name:en": "Hachon-ri",
        "name:ko": "하촌리",
        "name:ko-Latn": "Hachon-ri",
        "ncat": "교차로및지명",
        "place": "village",
        "source": "mp2osm"
      }
    },
    {
      "type": "node",
      "id": 415143899,
      "lat": 35.46947,
      "lon": 127.83512,
      "timestamp": "2018-08-12T05:50:55Z",
      "version": 6,
      "changeset": 61579960,
      "user": "Ian Wagner",
      "uid": 8637794,
      "tags": {
        "name": "평촌리",
        "name:en": "Pyeongchon-ri",
        "name:ko": "평촌리",
        "name:ko-Latn": "Pyeongchon-ri",
        "ncat": "교차로및지명",
        "place": "village",
        "source": "mp2osm"
      }
    },
    {
      "type": "node",
      "id": 415143900,
      "lat": 35.49771,
      "lon": 127.84378,
      "timestamp": "2018-12-24T13:20:39Z",
      "version": 5,
      "changeset": 65740337,
      "user": "LuxuryCoop",
      "uid": 7245212,
      "tags": {
        "name": "생초면",
        "name:en": "Saengcho-myeon",
        "name:ko": "생초면",
        "name:ko-Latn": "Saengcho-myeon",
        "ncat": "교차로및지명",
        "place": "town",
        "source": "mp2osm",
        "wikidata": "Q12600749"
      }
    },
    {
      "type": "node",
      "id": 415143901,
      "lat": 35.46342,
      "lon": 127.84681,
      "timestamp": "2018-08-12T05:50:55Z",
      "version": 6,
      "changeset": 61579960,
      "user": "Ian Wagner",
      "uid": 8637794,
      "tags": {
        "name": "대포리",
        "name:en": "Daepo-ri",
        "name:ko": "대포리",
        "name:ko-Latn": "Daepo-ri",
        "ncat": "교차로및지명",
        "place": "village",
        "source": "mp2osm"
      }
    },
    {
      "type": "node",
      "id": 415143925,
      "lat": 35.47797,
      "lon": 127.85406,
      "timestamp": "2018-08-12T05:50:56Z",
      "version": 6,
      "changeset": 61579960,
      "user": "Ian Wagner",
      "uid": 8637794,
      "tags": {
        "name": "신연리",
        "name:en": "Sinyeon-ri",
        "name:ko": "신연리",
        "name:ko-Latn": "Sinyeon-ri",
        "ncat": "교차로및지명",
        "place": "village",
        "source": "mp2osm"
      }
    },
    {
      "type": "node",
      "id": 415143926,
      "lat": 35.47191,
      "lon": 127.84679,
      "timestamp": "2018-08-12T05:50:56Z",
      "version": 6,
      "changeset": 61579960,
      "user": "Ian Wagner",
      "uid": 8637794,
      "tags": {
        "name": "갈전리",
        "name:en": "Galjeon-ri",
        "name:ko": "갈전리",
        "name:ko-Latn": "Galjeon-ri",
        "ncat": "교차로및지명",
        "place": "village",
        "source": "mp2osm"
      }
    },
    {
      "type": "node",
      "id": 415143928,
      "lat": 35.47399,
      "lon": 127.88084,
      "timestamp": "2018-08-12T05:50:56Z",
      "version": 5,
      "changeset": 61579960,
      "user": "Ian Wagner",
      "uid": 8637794,
      "tags": {
        "name": "내곡리",
        "name:en": "Naegok-ri",
        "name:ko": "내곡리",
        "name:ko-Latn": "Naegok-ri",
        "ncat": "교차로및지명",
        "place": "village",
        "source": "mp2osm"
      }
    },
    {
      "type": "node",
      "id": 415143929,
      "lat": 35.49526,
      "lon": 127.88745,
      "timestamp": "2018-08-12T05:50:56Z",
      "version": 3,
      "changeset": 61579960,
      "user": "Ian Wagner",
      "uid": 8637794,
      "tags": {
        "name": "오전리",
        "name:en": "Ojeon-ri",
        "name:ko": "오전리",
        "name:ko-Latn": "Ojeon-ri",
        "ncat": "교차로및지명",
        "place": "village",
        "source": "mp2osm"
      }
    },
    {
      "type": "node",
      "id": 415143930,
      "lat": 35.48938,
      "lon": 127.89185,
      "timestamp": "2018-12-24T13:38:34Z",
      "version": 4,
      "changeset": 65740337,
      "user": "LuxuryCoop",
      "uid": 7245212,
      "tags": {
        "name": "오부면",
        "name:en": "Obu-myeon",
        "name:ko": "오부면",
        "name:ko-Latn": "Obu-myeon",
        "ncat": "교차로및지명",
        "place": "town",
        "source": "mp2osm",
        "wikidata": "Q12607856"
      }
    },
    {
      "type": "node",
      "id": 415143931,
      "lat": 35.46507,
      "lon": 127.89153,
      "timestamp": "2018-08-12T05:50:56Z",
      "version": 3,
      "changeset": 61579960,
      "user": "Ian Wagner",
      "uid": 8637794,
      "tags": {
        "name": "방곡리",
        "name:en": "Banggok-ri",
        "name:ko": "방곡리",
        "name:ko-Latn": "Banggok-ri",
        "ncat": "교차로및지명",
        "place": "village",
        "source": "mp2osm"
      }
    },
    {
      "type": "node",
      "id": 415143957,
      "lat": 35.50101,
      "lon": 127.91348,
      "timestamp": "2018-08-12T05:50:56Z",
      "version": 3,
      "changeset": 61579960,
      "user": "Ian Wagner",
      "uid": 8637794,
      "tags": {
        "name": "대현리",
        "name:en": "Daehyeon-ri",
        "name:ko": "대현리",
        "name:ko-Latn": "Daehyeon-ri",
        "ncat": "교차로및지명",
        "place": "village",
        "source": "mp2osm"
      }
    },
    {
      "type": "node",
      "id": 415143958,
      "lat": 35.48279,
      "lon": 127.90045,
      "timestamp": "2018-08-12T05:50:56Z",
      "version": 3,
      "changeset": 61579960,
      "user": "Ian Wagner",
      "uid": 8637794,
      "tags": {
        "name": "일물리",
        "name:en": "Ilmul-ri",
        "name:ko": "일물리",
        "name:ko-Latn": "Ilmul-ri",
        "ncat": "교차로및지명",
        "place": "village",
        "source": "mp2osm"
      }
    },
    {
      "type": "node",
      "id": 415143959,
      "lat": 35.46477,
      "lon": 127.91652,
      "timestamp": "2018-08-12T05:50:57Z",
      "version": 4,
      "changeset": 61579960,
      "user": "Ian Wagner",
      "uid": 8637794,
      "tags": {
        "name": "장위리",
        "name:en": "Jang-wi-ri",
        "name:ko": "장위리",
        "name:ko-Latn": "Jang-wi-ri",
        "ncat": "교차로및지명",
        "place": "village",
        "source": "mp2osm"
      }
    },
    {
      "type": "node",
      "id": 415143960,
      "lat": 35.47987,
      "lon": 127.91889,
      "timestamp": "2018-08-12T05:50:57Z",
      "version": 3,
      "changeset": 61579960,
      "user": "Ian Wagner",
      "uid": 8637794,
      "tags": {
        "name": "양곡리",
        "name:en": "Yanggok-ri",
        "name:ko": "양곡리",
        "name:ko-Latn": "Yanggok-ri",
        "ncat": "교차로및지명",
        "place": "village",
        "source": "mp2osm"
      }
    },
    {
      "type": "node",
      "id": 415143961,
      "lat": 35.47938,
      "lon": 127.94105,
      "timestamp": "2018-08-12T05:50:57Z",
      "version": 3,
      "changeset": 61579960,
      "user": "Ian Wagner",
      "uid": 8637794,
      "tags": {
        "name": "상중리",
        "name:en": "Sangjung-ri",
        "name:ko": "상중리",
        "name:ko-Latn": "Sangjung-ri",
        "ncat": "교차로및지명",
        "place": "village",
        "source": "mp2osm"
      }
    },
    {
      "type": "node",
      "id": 415143967,
      "lat": 35.46535,
      "lon": 127.94337,
      "timestamp": "2018-08-12T05:50:57Z",
      "version": 3,
      "changeset": 61579960,
      "user": "Ian Wagner",
      "uid": 8637794,
      "tags": {
        "name": "신기리",
        "name:en": "Sin-gi-ri",
        "name:ko": "신기리",
        "name:ko-Latn": "Sin-gi-ri",
        "ncat": "교차로및지명",
        "place": "village",
        "source": "mp2osm"
      }
    },
    {
      "type": "node",
      "id": 415143968,
      "lat": 35.46974,
      "lon": 127.94176,
      "timestamp": "2018-12-24T13:38:35Z",
      "version": 5,
      "changeset": 65740337,
      "user": "LuxuryCoop",
      "uid": 7245212,
      "tags": {
        "name": "차황면",
        "name:en": "Chahwang-myeon",
        "name:ko": "차황면",
        "name:ko-Latn": "Chahwang-myeon",
        "ncat": "교차로및지명",
        "place": "town",
        "source": "mp2osm",
        "wikidata": "Q12618541"
      }
    },
    {
      "type": "node",
      "id": 415143970,
      "lat": 35.4924,
      "lon": 127.9415,
      "timestamp": "2018-08-12T05:50:57Z",
      "version": 4,
      "changeset": 61579960,
      "user": "Ian Wagner",
      "uid": 8637794,
      "tags": {
        "name": "실매리",
        "name:en": "Silmae-ri",
        "name:ko": "실매리",
        "name:ko-Latn": "Silmae-ri",
        "ncat": "교차로및지명",
        "place": "village",
        "source": "mp2osm"
      }
    },
    {
      "type": "node",
      "id": 415143971,
      "lat": 35.48275,
      "lon": 127.96345,
      "timestamp": "2018-08-12T05:50:57Z",
      "version": 3,
      "changeset": 61579960,
      "user": "Ian Wagner",
      "uid": 8637794,
      "tags": {
        "name": "법평리",
        "name:en": "Beoppyeong-ri",
        "name:ko": "법평리",
        "name:ko-Latn": "Beoppyeong-ri",
        "ncat": "교차로및지명",
        "place": "village",
        "source": "mp2osm"
      }
    },
    {
      "type": "node",
      "id": 415149462,
      "lat": 35.79734,
      "lon": 127.74982,
      "timestamp": "2018-08-12T05:50:57Z",
      "version": 5,
      "changeset": 61579960,
      "user": "Ian Wagner",
      "uid": 8637794,
      "tags": {
        "name": "산수리",
        "name:en": "Sansu-ri",
        "name:ko": "산수리",
        "name:ko-Latn": "Sansu-ri",
        "ncat": "교차로및지명",
        "place": "village",
        "source": "mp2osm"
      }
    },
    {
      "type": "node",
      "id": 415149463,
      "lat": 35.81148,
      "lon": 127.77126,
      "timestamp": "2018-08-12T05:50:58Z",
      "version": 5,
      "changeset": 61579960,
      "user": "Ian Wagner",
      "uid": 8637794,
      "tags": {
        "name": "병곡리",
        "name:en": "Byeonggok-ri",
        "name:ko": "병곡리",
        "name:ko-Latn": "Byeonggok-ri",
        "ncat": "교차로및지명",
        "place": "village",
        "source": "mp2osm"
      }
    },
    {
      "type": "node",
      "id": 415149464,
      "lat": 35.87774,
      "lon": 127.77512,
      "timestamp": "2018-08-12T05:50:58Z",
      "version": 5,
      "changeset": 61579960,
      "user": "Ian Wagner",
      "uid": 8637794,
      "tags": {
        "name": "삼공리",
        "name:en": "Samgong-ri",
        "name:ko": "삼공리",
        "name:ko-Latn": "Samgong-ri",
        "ncat": "교차로및지명",
        "place": "village",
        "source": "mp2osm"
      }
    },
    {
      "type": "node",
      "id": 415149465,
      "lat": 36.0044628,
      "lon": 127.7566466,
      "timestamp": "2018-08-12T05:50:58Z",
      "version": 3,
      "changeset": 61579960,
      "user": "Ian Wagner",
      "uid": 8637794,
      "tags": {
        "name": "청량리",
        "name:en": "Cheongnyang-ri",
        "name:ko": "청량리",
        "name:ko-Latn": "Cheongnyang-ri",
        "ncat": "교차로및지명",
        "place": "village",
        "source": "mp2osm"
      }
    },
    {
      "type": "node",
      "id": 415149466,
      "lat": 35.9592711,
      "lon": 127.7802679,
      "timestamp": "2018-08-12T05:50:58Z",
      "version": 3,
      "changeset": 61579960,
      "user": "Ian Wagner",
      "uid": 8637794,
      "tags": {
        "name": "두길리",
        "name:en": "Dugil-ri",
        "name:ko": "두길리",
        "name:ko-Latn": "Dugil-ri",
        "ncat": "교차로및지명",
        "place": "village",
        "source": "mp2osm"
      }
    },
    {
      "type": "node",
      "id": 415149467,
      "lat": 35.9771634,
      "lon": 127.7848819,
      "timestamp": "2018-08-12T05:50:58Z",
      "version": 3,
      "changeset": 61579960,
      "user": "Ian Wagner",
      "uid": 8637794,
      "tags": {
        "name": "설천면",
        "name:en": "Seolcheon-myeon",
        "name:ko": "설천면",
        "name:ko-Latn": "Seolcheon-myeon",
        "ncat": "교차로및지명",
        "place": "town",
        "source": "mp2osm"
      }
    },
    {
      "type": "node",
      "id": 415149468,
      "lat": 35.76148,
      "lon": 127.77488,
      "timestamp": "2018-08-12T05:50:58Z",
      "version": 5,
      "changeset": 61579960,
      "user": "Ian Wagner",
      "uid": 8637794,
      "tags": {
        "name": "창선리",
        "name:en": "Changseon-ri",
        "name:ko": "창선리",
        "name:ko-Latn": "Changseon-ri",
        "ncat": "교차로및지명",
        "place": "village",
        "source": "mp2osm"
      }
    },
    {
      "type": "node",
      "id": 415149469,
      "lat": 35.79015,
      "lon": 127.77793,
      "timestamp": "2018-08-12T05:50:59Z",
      "version": 6,
      "changeset": 61579960,
      "user": "Ian Wagner",
      "uid": 8637794,
      "tags": {
        "name": "북상면",
        "name:en": "Buksang-myeon",
        "name:ko": "북상면",
        "name:ko-Latn": "Buksangmyeon",
        "ncat": "교차로및지명",
        "place": "town",
        "source": "mp2osm"
      }
    },
    {
      "type": "node",
      "id": 415149470,
      "lat": 35.77084,
      "lon": 127.80803,
      "timestamp": "2018-08-12T05:50:59Z",
      "version": 5,
      "changeset": 61579960,
      "user": "Ian Wagner",
      "uid": 8637794,
      "tags": {
        "name": "농산리",
        "name:en": "Nongsan-ri",
        "name:ko": "농산리",
        "name:ko-Latn": "Nongsan-ri",
        "ncat": "교차로및지명",
        "place": "village",
        "source": "mp2osm"
      }
    },
    {
      "type": "node",
      "id": 415149471,
      "lat": 35.75532,
      "lon": 127.814,
      "timestamp": "2018-08-12T05:50:59Z",
      "version": 5,
      "changeset": 61579960,
      "user": "Ian Wagner",
      "uid": 8637794,
      "tags": {
        "name": "강천리",
        "name:en": "Gangcheon-ri",
        "name:ko": "강천리",
        "name:ko-Latn": "Gangcheon-ri",
        "ncat": "교차로및지명",
        "place": "village",
        "source": "mp2osm"
      }
    },
    {
      "type": "node",
      "id": 415149472,
      "lat": 35.79103,
      "lon": 127.8155,
      "timestamp": "2018-08-12T05:50:59Z",
      "version": 5,
      "changeset": 61579960,
      "user": "Ian Wagner",
      "uid": 8637794,
      "tags": {
        "name": "갈계리",
        "name:en": "Galgye-ri",
        "name:ko": "갈계리",
        "name:ko-Latn": "Galgye-ri",
        "ncat": "교차로및지명",
        "place": "village",
        "source": "mp2osm"
      }
    },
    {
      "type": "node",
      "id": 415149473,
      "lat": 35.88184,
      "lon": 127.81248,
      "timestamp": "2018-08-12T05:50:59Z",
      "version": 3,
      "changeset": 61579960,
      "user": "Ian Wagner",
      "uid": 8637794,
      "tags": {
        "name": "삼거리",
        "name:en": "Samgeo-ri",
        "name:ko": "삼거리",
        "name:ko-Latn": "Samgeo-ri",
        "ncat": "교차로및지명",
        "place": "village",
        "source": "mp2osm"
      }
    },
    {
      "type": "node",
      "id": 415149474,
      "lat": 35.9837696,
      "lon": 127.8177998,
      "timestamp": "2018-08-12T05:50:59Z",
      "version": 3,
      "changeset": 61579960,
      "user": "Ian Wagner",
      "uid": 8637794,
      "tags": {
        "name": "장덕리",
        "name:en": "Jangdeok-ri",
        "name:ko": "장덕리",
        "name:ko-Latn": "Jangdeok-ri",
        "ncat": "교차로및지명",
        "place": "village",
        "source": "mp2osm"
      }
    },
    {
      "type": "node",
      "id": 415149475,
      "lat": 35.95776,
      "lon": 127.82805,
      "timestamp": "2018-08-12T05:50:59Z",
      "version": 3,
      "changeset": 61579960,
      "user": "Ian Wagner",
      "uid": 8637794,
      "tags": {
        "name": "철목리",
        "name:en": "Cheolmok-ri",
        "name:ko": "철목리",
        "name:ko-Latn": "Cheolmok-ri",
        "ncat": "교차로및지명",
        "place": "village",
        "source": "mp2osm"
      }
    },
    {
      "type": "node",
      "id": 415149476,
      "lat": 35.91931,
      "lon": 127.82627,
      "timestamp": "2018-08-12T05:51:00Z",
      "version": 3,
      "changeset": 61579960,
      "user": "Ian Wagner",
      "uid": 8637794,
      "tags": {
        "name": "은산리",
        "name:en": "Eunsan-ri",
        "name:ko": "은산리",
        "name:ko-Latn": "Eunsan-ri",
        "ncat": "교차로및지명",
        "place": "village",
        "source": "mp2osm"
      }
    },
    {
      "type": "node",
      "id": 415149477,
      "lat": 35.83298,
      "lon": 127.80333,
      "timestamp": "2018-08-12T05:51:00Z",
      "version": 5,
      "changeset": 61579960,
      "user": "Ian Wagner",
      "uid": 8637794,
      "tags": {
        "name": "소정리",
        "name:en": "Sojeong-ri",
        "name:ko": "소정리",
        "name:ko-Latn": "Sojeong-ri",
        "ncat": "교차로및지명",
        "place": "village",
        "source": "mp2osm"
      }
    },
    {
      "type": "node",
      "id": 415149478,
      "lat": 35.84281,
      "lon": 127.83937,
      "timestamp": "2018-08-12T05:51:00Z",
      "version": 3,
      "changeset": 61579960,
      "user": "Ian Wagner",
      "uid": 8637794,
      "tags": {
        "name": "개명리",
        "name:en": "Gaemyeong-ri",
        "name:ko": "개명리",
        "name:ko-Latn": "Gaemyeong-ri",
        "ncat": "교차로및지명",
        "place": "village",
        "source": "mp2osm"
      }
    },
    {
      "type": "node",
      "id": 415149479,
      "lat": 35.77122,
      "lon": 127.83539,
      "timestamp": "2018-08-12T05:51:00Z",
      "version": 5,
      "changeset": 61579960,
      "user": "Ian Wagner",
      "uid": 8637794,
      "tags": {
        "name": "황산리",
        "name:en": "Hwangsan-ri",
        "name:ko": "황산리",
        "name:ko-Latn": "Hwangsan-ri",
        "ncat": "교차로및지명",
        "place": "village",
        "source": "mp2osm"
      }
    },
    {
      "type": "node",
      "id": 415149480,
      "lat": 35.89789,
      "lon": 127.8505,
      "timestamp": "2018-08-12T05:51:00Z",
      "version": 3,
      "changeset": 61579960,
      "user": "Ian Wagner",
      "uid": 8637794,
      "tags": {
        "name": "덕지리",
        "name:en": "Deokji-ri",
        "name:ko": "덕지리",
        "name:ko-Latn": "Deokji-ri",
        "ncat": "교차로및지명",
        "place": "village",
        "source": "mp2osm"
      }
    },
    {
      "type": "node",
      "id": 415149481,
      "lat": 35.86422,
      "lon": 127.86803,
      "timestamp": "2018-08-12T05:51:00Z",
      "version": 3,
      "changeset": 61579960,
      "user": "Ian Wagner",
      "uid": 8637794,
      "tags": {
        "name": "봉산리",
        "name:en": "Bongsan-ri",
        "name:ko": "봉산리",
        "name:ko-Latn": "Bongsan-ri",
        "ncat": "교차로및지명",
        "place": "village",
        "source": "mp2osm"
      }
    },
    {
      "type": "node",
      "id": 415149482,
      "lat": 35.89178,
      "lon": 127.87207,
      "timestamp": "2018-08-12T05:51:01Z",
      "version": 5,
      "changeset": 61579960,
      "user": "Ian Wagner",
      "uid": 8637794,
      "tags": {
        "name": "봉계리",
        "name:en": "Bonggye-ri",
        "name:ko": "봉계리",
        "name:ko-Latn": "Bonggye-ri",
        "ncat": "교차로및지명",
        "place": "village",
        "source": "mp2osm"
      }
    },
    {
      "type": "node",
      "id": 415149483,
      "lat": 35.95083,
      "lon": 127.85541,
      "timestamp": "2018-08-12T05:51:01Z",
      "version": 3,
      "changeset": 61579960,
      "user": "Ian Wagner",
      "uid": 8637794,
      "tags": {
        "name": "지성리",
        "name:en": "Jiseong-ri",
        "name:ko": "지성리",
        "name:ko-Latn": "Jiseong-ri",
        "ncat": "교차로및지명",
        "place": "village",
        "source": "mp2osm"
      }
    },
    {
      "type": "node",
      "id": 415149484,
      "lat": 35.97838,
      "lon": 127.8611,
      "timestamp": "2018-08-12T05:51:01Z",
      "version": 3,
      "changeset": 61579960,
      "user": "Ian Wagner",
      "uid": 8637794,
      "tags": {
        "name": "현내리",
        "name:en": "Hyeonnae-ri",
        "name:ko": "현내리",
        "name:ko-Latn": "Hyeonnae-ri",
        "ncat": "교차로및지명",
        "place": "village",
        "source": "mp2osm"
      }
    },
    {
      "type": "node",
      "id": 415149485,
      "lat": 35.80925,
      "lon": 127.86376,
      "timestamp": "2018-08-12T05:51:01Z",
      "version": 3,
      "changeset": 61579960,
      "user": "Ian Wagner",
      "uid": 8637794,
      "tags": {
        "name": "농산리",
        "name:en": "Nongsan-ri",
        "name:ko": "농산리",
        "name:ko-Latn": "Nongsan-ri",
        "ncat": "교차로및지명",
        "place": "village",
        "source": "mp2osm"
      }
    },
    {
      "type": "node",
      "id": 415149486,
      "lat": 35.84836,
      "lon": 127.86455,
      "timestamp": "2018-08-12T05:51:01Z",
      "version": 3,
      "changeset": 61579960,
      "user": "Ian Wagner",
      "uid": 8637794,
      "tags": {
        "name": "고제면",
        "name:en": "Goje-myeon",
        "name:ko": "고제면",
        "name:ko-Latn": "Goje-myeon",
        "ncat": "교차로및지명",
        "place": "town",
        "source": "mp2osm"
      }
    },
    {
      "type": "node",
      "id": 415149487,
      "lat": 35.93276,
      "lon": 127.84711,
      "timestamp": "2018-08-12T05:51:01Z",
      "version": 3,
      "changeset": 61579960,
      "user": "Ian Wagner",
      "uid": 8637794,
      "tags": {
        "name": "무풍면",
        "name:en": "Mupung-myeon",
        "name:ko": "무풍면",
        "name:ko-Latn": "Mupung-myeon",
        "ncat": "교차로및지명",
        "place": "town",
        "source": "mp2osm"
      }
    },
    {
      "type": "node",
      "id": 415149488,
      "lat": 35.9284,
      "lon": 127.85895,
      "timestamp": "2018-08-12T05:51:01Z",
      "version": 3,
      "changeset": 61579960,
      "user": "Ian Wagner",
      "uid": 8637794,
      "tags": {
        "name": "증산리",
        "name:en": "Jeungsan-ri",
        "name:ko": "증산리",
        "name:ko-Latn": "Jeungsan-ri",
        "ncat": "교차로및지명",
        "place": "village",
        "source": "mp2osm"
      }
    },
    {
      "type": "node",
      "id": 415149489,
      "lat": 35.77925,
      "lon": 127.86056,
      "timestamp": "2018-08-12T05:51:01Z",
      "version": 5,
      "changeset": 61579960,
      "user": "Ian Wagner",
      "uid": 8637794,
      "tags": {
        "name": "모동리",
        "name:en": "Modong-ri",
        "name:ko": "모동리",
        "name:ko-Latn": "Modong-ri",
        "ncat": "교차로및지명",
        "place": "village",
        "source": "mp2osm"
      }
    },
    {
      "type": "node",
      "id": 415149490,
      "lat": 35.79356,
      "lon": 127.87878,
      "timestamp": "2018-08-12T05:51:02Z",
      "version": 5,
      "changeset": 61579960,
      "user": "Ian Wagner",
      "uid": 8637794,
      "tags": {
        "name": "완대리",
        "name:en": "Wandae-ri",
        "name:ko": "완대리",
        "name:ko-Latn": "Wandae-ri",
        "ncat": "교차로및지명",
        "place": "village",
        "source": "mp2osm"
      }
    },
    {
      "type": "node",
      "id": 415149491,
      "lat": 35.75412,
      "lon": 127.89103,
      "timestamp": "2018-08-12T05:51:02Z",
      "version": 3,
      "changeset": 61579960,
      "user": "Ian Wagner",
      "uid": 8637794,
      "tags": {
        "name": "연교리",
        "name:en": "Yeon-gyo-ri",
        "name:ko": "연교리",
        "name:ko-Latn": "Yeon-gyo-ri",
        "ncat": "교차로및지명",
        "place": "village",
        "source": "mp2osm"
      }
    },
    {
      "type": "node",
      "id": 415149492,
      "lat": 35.77567,
      "lon": 127.89187,
      "timestamp": "2018-08-12T05:51:02Z",
      "version": 3,
      "changeset": 61579960,
      "user": "Ian Wagner",
      "uid": 8637794,
      "tags": {
        "name": "내오리",
        "name:en": "Nae-o-ri",
        "name:ko": "내오리",
        "name:ko-Latn": "Nae-o-ri",
        "ncat": "교차로및지명",
        "place": "village",
        "source": "mp2osm"
      }
    },
    {
      "type": "node",
      "id": 415149493,
      "lat": 35.83375,
      "lon": 127.87955,
      "timestamp": "2018-08-12T05:51:02Z",
      "version": 3,
      "changeset": 61579960,
      "user": "Ian Wagner",
      "uid": 8637794,
      "tags": {
        "name": "궁항리",
        "name:en": "Gunghang-ri",
        "name:ko": "궁항리",
        "name:ko-Latn": "Gunghang-ri",
        "ncat": "교차로및지명",
        "place": "village",
        "source": "mp2osm"
      }
    },
    {
      "type": "node",
      "id": 415149494,
      "lat": 35.84186,
      "lon": 127.90955,
      "timestamp": "2018-08-12T05:51:02Z",
      "version": 3,
      "changeset": 61579960,
      "user": "Ian Wagner",
      "uid": 8637794,
      "tags": {
        "name": "군암리",
        "name:en": "Gunam-ri",
        "name:ko": "군암리",
        "name:ko-Latn": "Gunam-ri",
        "ncat": "교차로및지명",
        "place": "village",
        "source": "mp2osm"
      }
    },
    {
      "type": "node",
      "id": 415149495,
      "lat": 35.87223,
      "lon": 127.90878,
      "timestamp": "2018-08-12T05:51:02Z",
      "version": 4,
      "changeset": 61579960,
      "user": "Ian Wagner",
      "uid": 8637794,
      "tags": {
        "name": "신촌리",
        "name:en": "Sinchon-ri",
        "name:ko": "신촌리",
        "name:ko-Latn": "Sinchon-ri",
        "ncat": "교차로및지명",
        "place": "village",
        "source": "mp2osm"
      }
    },
    {
      "type": "node",
      "id": 415149496,
      "lat": 35.94771,
      "lon": 127.88414,
      "timestamp": "2018-08-12T05:51:02Z",
      "version": 3,
      "changeset": 61579960,
      "user": "Ian Wagner",
      "uid": 8637794,
      "tags": {
        "name": "금평리",
        "name:en": "Geumpyeong-ri",
        "name:ko": "금평리",
        "name:ko-Latn": "Geumpyeong-ri",
        "ncat": "교차로및지명",
        "place": "village",
        "source": "mp2osm"
      }
    },
    {
      "type": "node",
      "id": 415149497,
      "lat": 35.99529,
      "lon": 127.90764,
      "timestamp": "2018-08-12T05:51:03Z",
      "version": 3,
      "changeset": 61579960,
      "user": "Ian Wagner",
      "uid": 8637794,
      "tags": {
        "name": "하대리",
        "name:en": "Hadae-ri",
        "name:ko": "하대리",
        "name:ko-Latn": "Hadae-ri",
        "ncat": "교차로및지명",
        "place": "village",
        "source": "mp2osm"
      }
    },
    {
      "type": "node",
      "id": 415149498,
      "lat": 35.96653,
      "lon": 127.91419,
      "timestamp": "2018-08-12T05:51:03Z",
      "version": 3,
      "changeset": 61579960,
      "user": "Ian Wagner",
      "uid": 8637794,
      "tags": {
        "name": "어전리",
        "name:en": "Eojeon-ri",
        "name:ko": "어전리",
        "name:ko-Latn": "Eojeon-ri",
        "ncat": "교차로및지명",
        "place": "village",
        "source": "mp2osm"
      }
    },
    {
      "type": "node",
      "id": 415149499,
      "lat": 35.92746,
      "lon": 127.90238,
      "timestamp": "2018-08-12T05:51:03Z",
      "version": 3,
      "changeset": 61579960,
      "user": "Ian Wagner",
      "uid": 8637794,
      "tags": {
        "name": "덕산리",
        "name:en": "Deoksan-ri",
        "name:ko": "덕산리",
        "name:ko-Latn": "Deoksan-ri",
        "ncat": "교차로및지명",
        "place": "village",
        "source": "mp2osm"
      }
    },
    {
      "type": "node",
      "id": 415149500,
      "lat": 35.90392,
      "lon": 127.91232,
      "timestamp": "2018-08-12T05:51:03Z",
      "version": 5,
      "changeset": 61579960,
      "user": "Ian Wagner",
      "uid": 8637794,
      "tags": {
        "name": "외감리",
        "name:en": "Oegam-ri",
        "name:ko": "외감리",
        "name:ko-Latn": "Oegam-ri",
        "ncat": "교차로및지명",
        "place": "village",
        "source": "mp2osm"
      }
    },
    {
      "type": "node",
      "id": 415149501,
      "lat": 35.90036,
      "lon": 127.90127,
      "timestamp": "2018-08-12T05:51:03Z",
      "version": 5,
      "changeset": 61579960,
      "user": "Ian Wagner",
      "uid": 8637794,
      "tags": {
        "name": "내감리",
        "name:en": "Naegam-ri",
        "name:ko": "내감리",
        "name:ko-Latn": "Naegam-ri",
        "ncat": "교차로및지명",
        "place": "village",
        "source": "mp2osm"
      }
    },
    {
      "type": "node",
      "id": 415149502,
      "lat": 35.81221,
      "lon": 127.90769,
      "timestamp": "2018-08-12T05:51:03Z",
      "version": 3,
      "changeset": 61579960,
      "user": "Ian Wagner",
      "uid": 8637794,
      "tags": {
        "name": "노현리",
        "name:en": "Nohyeon-ri",
        "name:ko": "노현리",
        "name:ko-Latn": "Nohyeon-ri",
        "ncat": "교차로및지명",
        "place": "village",
        "source": "mp2osm"
      }
    },
    {
      "type": "node",
      "id": 415149503,
      "lat": 35.76771,
      "lon": 127.91311,
      "timestamp": "2018-08-12T05:51:03Z",
      "version": 3,
      "changeset": 61579960,
      "user": "Ian Wagner",
      "uid": 8637794,
      "tags": {
        "name": "주상면",
        "name:en": "Jusang-myeon",
        "name:ko": "주상면",
        "name:ko-Latn": "Jusang-myeon",
        "ncat": "교차로및지명",
        "place": "town",
        "source": "mp2osm"
      }
    },
    {
      "type": "node",
      "id": 415149504,
      "lat": 35.79328,
      "lon": 127.90558,
      "timestamp": "2018-08-12T05:51:04Z",
      "version": 3,
      "changeset": 61579960,
      "user": "Ian Wagner",
      "uid": 8637794,
      "tags": {
        "name": "죽림리",
        "name:en": "Jungnim-ri",
        "name:ko": "죽림리",
        "name:ko-Latn": "Jungnim-ri",
        "ncat": "교차로및지명",
        "place": "village",
        "source": "mp2osm"
      }
    },
    {
      "type": "node",
      "id": 415149505,
      "lat": 35.77299,
      "lon": 127.91889,
      "timestamp": "2018-08-12T05:51:04Z",
      "version": 3,
      "changeset": 61579960,
      "user": "Ian Wagner",
      "uid": 8637794,
      "tags": {
        "name": "성기리",
        "name:en": "Seonggi-ri",
        "name:ko": "성기리",
        "name:ko-Latn": "Seonggi-ri",
        "ncat": "교차로및지명",
        "place": "village",
        "source": "mp2osm"
      }
    },
    {
      "type": "node",
      "id": 415149506,
      "lat": 35.79429,
      "lon": 127.9321,
      "timestamp": "2018-08-12T05:51:04Z",
      "version": 3,
      "changeset": 61579960,
      "user": "Ian Wagner",
      "uid": 8637794,
      "tags": {
        "name": "동호리",
        "name:en": "Dongho-ri",
        "name:ko": "동호리",
        "name:ko-Latn": "Dongho-ri",
        "ncat": "교차로및지명",
        "place": "village",
        "source": "mp2osm"
      }
    },
    {
      "type": "node",
      "id": 415149507,
      "lat": 35.8059115,
      "lon": 127.918964,
      "timestamp": "2018-08-12T05:51:04Z",
      "version": 4,
      "changeset": 61579960,
      "user": "Ian Wagner",
      "uid": 8637794,
      "tags": {
        "name": "웅양면",
        "name:en": "Ungyang-myeon",
        "name:ko": "웅양면",
        "name:ko-Latn": "Ungyang-myeon",
        "ncat": "교차로및지명",
        "place": "town",
        "source": "mp2osm"
      }
    },
    {
      "type": "node",
      "id": 415149508,
      "lat": 35.87411,
      "lon": 127.92127,
      "timestamp": "2018-08-12T05:51:04Z",
      "version": 3,
      "changeset": 61579960,
      "user": "Ian Wagner",
      "uid": 8637794,
      "tags": {
        "name": "한기리",
        "name:en": "Han-gi-ri",
        "name:ko": "한기리",
        "name:ko-Latn": "Han-gi-ri",
        "ncat": "교차로및지명",
        "place": "village",
        "source": "mp2osm"
      }
    },
    {
      "type": "node",
      "id": 415149509,
      "lat": 35.82845,
      "lon": 127.94409,
      "timestamp": "2018-08-12T05:51:04Z",
      "version": 3,
      "changeset": 61579960,
      "user": "Ian Wagner",
      "uid": 8637794,
      "tags": {
        "name": "산포리",
        "name:en": "Sanpo-ri",
        "name:ko": "산포리",
        "name:ko-Latn": "Sanpo-ri",
        "ncat": "교차로및지명",
        "place": "village",
        "source": "mp2osm"
      }
    },
    {
      "type": "node",
      "id": 415149510,
      "lat": 35.88375,
      "lon": 127.94135,
      "timestamp": "2018-08-12T05:51:04Z",
      "version": 3,
      "changeset": 61579960,
      "user": "Ian Wagner",
      "uid": 8637794,
      "tags": {
        "name": "문의리",
        "name:en": "Munui-ri",
        "name:ko": "문의리",
        "name:ko-Latn": "Munui-ri",
        "ncat": "교차로및지명",
        "place": "village",
        "source": "mp2osm"
      }
    },
    {
      "type": "node",
      "id": 415149511,
      "lat": 35.86435,
      "lon": 127.9532,
      "timestamp": "2018-08-12T05:51:04Z",
      "version": 3,
      "changeset": 61579960,
      "user": "Ian Wagner",
      "uid": 8637794,
      "tags": {
        "name": "대리",
        "name:en": "Dae-ri",
        "name:ko": "대리",
        "name:ko-Latn": "Dae-ri",
        "ncat": "교차로및지명",
        "place": "village",
        "source": "mp2osm"
      }
    },
    {
      "type": "node",
      "id": 415149512,
      "lat": 35.92471,
      "lon": 127.93266,
      "timestamp": "2018-08-12T05:51:05Z",
      "version": 3,
      "changeset": 61579960,
      "user": "Ian Wagner",
      "uid": 8637794,
      "tags": {
        "name": "연화리",
        "name:en": "Yeonhwa-ri",
        "name:ko": "연화리",
        "name:ko-Latn": "Yeonhwa-ri",
        "ncat": "교차로및지명",
        "place": "village",
        "source": "mp2osm"
      }
    },
    {
      "type": "node",
      "id": 415149513,
      "lat": 35.78088,
      "lon": 127.94886,
      "timestamp": "2018-08-12T05:51:05Z",
      "version": 3,
      "changeset": 61579960,
      "user": "Ian Wagner",
      "uid": 8637794,
      "tags": {
        "name": "남산리",
        "name:en": "Namsan-ri",
        "name:ko": "남산리",
        "name:ko-Latn": "Namsan-ri",
        "ncat": "교차로및지명",
        "place": "village",
        "source": "mp2osm"
      }
    },
    {
      "type": "node",
      "id": 415149515,
      "lat": 35.91293,
      "lon": 127.94601,
      "timestamp": "2018-08-12T05:51:05Z",
      "version": 3,
      "changeset": 61579960,
      "user": "Ian Wagner",
      "uid": 8637794,
      "tags": {
        "name": "대덕면",
        "name:en": "Daedeok-myeon",
        "name:ko": "대덕면",
        "name:ko-Latn": "Daedeok-myeon",
        "ncat": "교차로및지명",
        "place": "town",
        "source": "mp2osm"
      }
    },
    {
      "type": "node",
      "id": 415149516,
      "lat": 35.8977,
      "lon": 127.95019,
      "timestamp": "2018-08-12T05:51:05Z",
      "version": 3,
      "changeset": 61579960,
      "user": "Ian Wagner",
      "uid": 8637794,
      "tags": {
        "name": "화전리",
        "name:en": "Hwajeon-ri",
        "name:ko": "화전리",
        "name:ko-Latn": "Hwajeon-ri",
        "ncat": "교차로및지명",
        "place": "village",
        "source": "mp2osm"
      }
    },
    {
      "type": "node",
      "id": 415149517,
      "lat": 35.92139,
      "lon": 127.9627,
      "timestamp": "2018-08-12T05:51:05Z",
      "version": 3,
      "changeset": 61579960,
      "user": "Ian Wagner",
      "uid": 8637794,
      "tags": {
        "name": "관기리",
        "name:en": "Gwangi-ri",
        "name:ko": "관기리",
        "name:ko-Latn": "Gwangi-ri",
        "ncat": "교차로및지명",
        "place": "village",
        "source": "mp2osm"
      }
    },
    {
      "type": "node",
      "id": 415149521,
      "lat": 35.98263,
      "lon": 127.93485,
      "timestamp": "2018-08-12T05:51:05Z",
      "version": 3,
      "changeset": 61579960,
      "user": "Ian Wagner",
      "uid": 8637794,
      "tags": {
        "name": "월곡리",
        "name:en": "Wolgok-ri",
        "name:ko": "월곡리",
        "name:ko-Latn": "Wolgok-ri",
        "ncat": "교차로및지명",
        "place": "village",
        "source": "mp2osm"
      }
    },
    {
      "type": "node",
      "id": 415149522,
      "lat": 35.99535,
      "lon": 127.94786,
      "timestamp": "2018-08-12T05:51:05Z",
      "version": 3,
      "changeset": 61579960,
      "user": "Ian Wagner",
      "uid": 8637794,
      "tags": {
        "name": "부항면",
        "name:en": "Buhang-myeon",
        "name:ko": "부항면",
        "name:ko-Latn": "Buhang-myeon",
        "ncat": "교차로및지명",
        "place": "town",
        "source": "mp2osm"
      }
    },
    {
      "type": "node",
      "id": 415149523,
      "lat": 35.95479,
      "lon": 127.94607,
      "timestamp": "2018-08-12T05:51:05Z",
      "version": 3,
      "changeset": 61579960,
      "user": "Ian Wagner",
      "uid": 8637794,
      "tags": {
        "name": "조룡리",
        "name:en": "Joryong-ri",
        "name:ko": "조룡리",
        "name:ko-Latn": "Joryong-ri",
        "ncat": "교차로및지명",
        "place": "village",
        "source": "mp2osm"
      }
    },
    {
      "type": "node",
      "id": 415149524,
      "lat": 35.99449,
      "lon": 127.95861,
      "timestamp": "2018-08-12T05:51:06Z",
      "version": 3,
      "changeset": 61579960,
      "user": "Ian Wagner",
      "uid": 8637794,
      "tags": {
        "name": "두산리",
        "name:en": "Dusan-ri",
        "name:ko": "두산리",
        "name:ko-Latn": "Dusan-ri",
        "ncat": "교차로및지명",
        "place": "village",
        "source": "mp2osm"
      }
    },
    {
      "type": "node",
      "id": 415149525,
      "lat": 35.97812,
      "lon": 127.96077,
      "timestamp": "2018-08-12T05:51:06Z",
      "version": 3,
      "changeset": 61579960,
      "user": "Ian Wagner",
      "uid": 8637794,
      "tags": {
        "name": "사등리",
        "name:en": "Sadeung-ri",
        "name:ko": "사등리",
        "name:ko-Latn": "Sadeung-ri",
        "ncat": "교차로및지명",
        "place": "village",
        "source": "mp2osm"
      }
    },
    {
      "type": "node",
      "id": 415149530,
      "lat": 35.8021,
      "lon": 127.5081,
      "timestamp": "2018-08-12T05:51:06Z",
      "version": 3,
      "changeset": 61579960,
      "user": "Ian Wagner",
      "uid": 8637794,
      "tags": {
        "name": "가막리",
        "name:en": "Gamak-ri",
        "name:ko": "가막리",
        "name:ko-Latn": "Gamak-ri",
        "ncat": "교차로및지명",
        "place": "village",
        "source": "mp2osm"
      }
    },
    {
      "type": "node",
      "id": 415149531,
      "lat": 35.78468,
      "lon": 127.53028,
      "timestamp": "2018-08-12T05:51:06Z",
      "version": 3,
      "changeset": 61579960,
      "user": "Ian Wagner",
      "uid": 8637794,
      "tags": {
        "name": "연평리",
        "name:en": "Yeonpyeong-ri",
        "name:ko": "연평리",
        "name:ko-Latn": "Yeonpyeong-ri",
        "ncat": "교차로및지명",
        "place": "village",
        "source": "mp2osm"
      }
    },
    {
      "type": "node",
      "id": 415149532,
      "lat": 35.8156,
      "lon": 127.53981,
      "timestamp": "2018-08-12T05:51:07Z",
      "version": 3,
      "changeset": 61579960,
      "user": "Ian Wagner",
      "uid": 8637794,
      "tags": {
        "name": "성산리",
        "name:en": "Seongsan-ri",
        "name:ko": "성산리",
        "name:ko-Latn": "Seongsan-ri",
        "ncat": "교차로및지명",
        "place": "village",
        "source": "mp2osm"
      }
    },
    {
      "type": "node",
      "id": 415149533,
      "lat": 35.78706,
      "lon": 127.55312,
      "timestamp": "2018-08-12T05:51:08Z",
      "version": 3,
      "changeset": 61579960,
      "user": "Ian Wagner",
      "uid": 8637794,
      "tags": {
        "name": "오봉리",
        "name:en": "Obong-ri",
        "name:ko": "오봉리",
        "name:ko-Latn": "Obong-ri",
        "ncat": "교차로및지명",
        "place": "village",
        "source": "mp2osm"
      }
    },
    {
      "type": "node",
      "id": 415149534,
      "lat": 36.0037723,
      "lon": 127.5214622,
      "timestamp": "2018-08-12T05:51:08Z",
      "version": 3,
      "changeset": 61579960,
      "user": "Ian Wagner",
      "uid": 8637794,
      "tags": {
        "name": "신정리",
        "name:en": "Sinjeong-ri",
        "name:ko": "신정리",
        "name:ko-Latn": "Sinjeong-ri",
        "ncat": "교차로및지명",
        "place": "village",
        "source": "mp2osm"
      }
    },
    {
      "type": "node",
      "id": 415149535,
      "lat": 35.9635053,
      "lon": 127.5160452,
      "timestamp": "2018-08-12T05:51:08Z",
      "version": 3,
      "changeset": 61579960,
      "user": "Ian Wagner",
      "uid": 8637794,
      "tags": {
        "name": "송풍리",
        "name:en": "Songpung-ri",
        "name:ko": "송풍리",
        "name:ko-Latn": "Songpung-ri",
        "ncat": "교차로및지명",
        "place": "village",
        "source": "mp2osm"
      }
    },
    {
      "type": "node",
      "id": 415149536,
      "lat": 35.9937095,
      "lon": 127.5527308,
      "timestamp": "2018-08-12T05:51:08Z",
      "version": 3,
      "changeset": 61579960,
      "user": "Ian Wagner",
      "uid": 8637794,
      "tags": {
        "name": "대유리",
        "name:en": "Daeyu-ri",
        "name:ko": "대유리",
        "name:ko-Latn": "Daeyu-ri",
        "ncat": "교차로및지명",
        "place": "village",
        "source": "mp2osm"
      }
    },
    {
      "type": "node",
      "id": 415149537,
      "lat": 35.9876205,
      "lon": 127.6168839,
      "timestamp": "2018-08-12T05:51:08Z",
      "version": 3,
      "changeset": 61579960,
      "user": "Ian Wagner",
      "uid": 8637794,
      "tags": {
        "name": "용포리",
        "name:en": "Yongpo-ri",
        "name:ko": "용포리",
        "name:ko-Latn": "Yongpo-ri",
        "ncat": "교차로및지명",
        "place": "village",
        "source": "mp2osm"
      }
    },
    {
      "type": "node",
      "id": 415149538,
      "lat": 35.9554,
      "lon": 127.61236,
      "timestamp": "2018-08-12T05:51:08Z",
      "version": 5,
      "changeset": 61579960,
      "user": "Ian Wagner",
      "uid": 8637794,
      "tags": {
        "name": "방이리",
        "name:en": "Bang-i-ri",
        "name:ko": "방이리",
        "name:ko-Latn": "Bang-i-ri",
        "ncat": "교차로및지명",
        "place": "village",
        "source": "mp2osm"
      }
    },
    {
      "type": "node",
      "id": 415149539,
      "lat": 35.9737783,
      "lon": 127.6464624,
      "timestamp": "2018-08-12T05:51:08Z",
      "version": 5,
      "changeset": 61579960,
      "user": "Ian Wagner",
      "uid": 8637794,
      "tags": {
        "name": "가옥리",
        "name:en": "Gaok-ri",
        "name:ko": "가옥리",
        "name:ko-Latn": "Gaok-ri",
        "ncat": "교차로및지명",
        "place": "village",
        "source": "mp2osm"
      }
    },
    {
      "type": "node",
      "id": 415149540,
      "lat": 35.95585,
      "lon": 127.65532,
      "timestamp": "2018-08-12T05:51:08Z",
      "version": 4,
      "changeset": 61579960,
      "user": "Ian Wagner",
      "uid": 8637794,
      "tags": {
        "name": "사천리",
        "name:en": "Sacheon-ri",
        "name:ko": "사천리",
        "name:ko-Latn": "Sacheon-ri",
        "ncat": "교차로및지명",
        "place": "village",
        "source": "mp2osm"
      }
    },
    {
      "type": "node",
      "id": 415149541,
      "lat": 35.9926608,
      "lon": 127.6730648,
      "timestamp": "2018-08-12T05:51:09Z",
      "version": 5,
      "changeset": 61579960,
      "user": "Ian Wagner",
      "uid": 8637794,
      "tags": {
        "name": "당산리",
        "name:en": "Dangsan-ri",
        "name:ko": "당산리",
        "name:ko-Latn": "Dangsan-ri",
        "ncat": "교차로및지명",
        "place": "village",
        "source": "mp2osm"
      }
    },
    {
      "type": "node",
      "id": 415149542,
      "lat": 35.9667,
      "lon": 127.69931,
      "timestamp": "2018-08-12T05:51:09Z",
      "version": 4,
      "changeset": 61579960,
      "user": "Ian Wagner",
      "uid": 8637794,
      "tags": {
        "name": "북창리",
        "name:en": "Bukchang-ri",
        "name:ko": "북창리",
        "name:ko-Latn": "Bukchang-ri",
        "ncat": "교차로및지명",
        "place": "village",
        "source": "mp2osm"
      }
    },
    {
      "type": "node",
      "id": 415149543,
      "lat": 35.76234,
      "lon": 127.50656,
      "timestamp": "2018-08-12T05:51:09Z",
      "version": 3,
      "changeset": 61579960,
      "user": "Ian Wagner",
      "uid": 8637794,
      "tags": {
        "name": "오천리",
        "name:en": "Ocheon-ri",
        "name:ko": "오천리",
        "name:ko-Latn": "Ocheon-ri",
        "ncat": "교차로및지명",
        "place": "village",
        "source": "mp2osm"
      }
    },
    {
      "type": "node",
      "id": 415149544,
      "lat": 35.932006,
      "lon": 127.5072728,
      "timestamp": "2018-08-12T05:51:09Z",
      "version": 3,
      "changeset": 61579960,
      "user": "Ian Wagner",
      "uid": 8637794,
      "tags": {
        "name": "월계리",
        "name:en": "Wolgye-ri",
        "name:ko": "월계리",
        "name:ko-Latn": "Wolgye-ri",
        "ncat": "교차로및지명",
        "place": "village",
        "source": "mp2osm"
      }
    },
    {
      "type": "node",
      "id": 415149545,
      "lat": 35.92765,
      "lon": 127.53279,
      "timestamp": "2018-08-12T05:51:09Z",
      "version": 3,
      "changeset": 61579960,
      "user": "Ian Wagner",
      "uid": 8637794,
      "tags": {
        "name": "삼락리",
        "name:en": "Samnak-ri",
        "name:ko": "삼락리",
        "name:ko-Latn": "Samnak-ri",
        "ncat": "교차로및지명",
        "place": "village",
        "source": "mp2osm"
      }
    },
    {
      "type": "node",
      "id": 415149546,
      "lat": 35.86094,
      "lon": 127.5017,
      "timestamp": "2018-08-12T05:51:09Z",
      "version": 3,
      "changeset": 61579960,
      "user": "Ian Wagner",
      "uid": 8637794,
      "tags": {
        "name": "월포리",
        "name:en": "Wolpo-ri",
        "name:ko": "월포리",
        "name:ko-Latn": "Wolpo-ri",
        "ncat": "교차로및지명",
        "place": "village",
        "source": "mp2osm"
      }
    },
    {
      "type": "node",
      "id": 415149547,
      "lat": 35.88583,
      "lon": 127.49834,
      "timestamp": "2018-08-12T05:51:09Z",
      "version": 3,
      "changeset": 61579960,
      "user": "Ian Wagner",
      "uid": 8637794,
      "tags": {
        "name": "용평리",
        "name:en": "Yongpyeong-ri",
        "name:ko": "용평리",
        "name:ko-Latn": "Yongpyeong-ri",
        "ncat": "교차로및지명",
        "place": "village",
        "source": "mp2osm"
      }
    },
    {
      "type": "node",
      "id": 415149548,
      "lat": 35.90935,
      "lon": 127.50958,
      "timestamp": "2018-08-12T05:51:09Z",
      "version": 3,
      "changeset": 61579960,
      "user": "Ian Wagner",
      "uid": 8637794,
      "tags": {
        "name": "망화리",
        "name:en": "Manghwa-ri",
        "name:ko": "망화리",
        "name:ko-Latn": "Manghwa-ri",
        "ncat": "교차로및지명",
        "place": "village",
        "source": "mp2osm"
      }
    },
    {
      "type": "node",
      "id": 415149549,
      "lat": 35.88444,
      "lon": 127.51636,
      "timestamp": "2018-08-12T05:51:10Z",
      "version": 3,
      "changeset": 61579960,
      "user": "Ian Wagner",
      "uid": 8637794,
      "tags": {
        "name": "구룡리",
        "name:en": "Guryong-ri",
        "name:ko": "구룡리",
        "name:ko-Latn": "Guryong-ri",
        "ncat": "교차로및지명",
        "place": "village",
        "source": "mp2osm"
      }
    },
    {
      "type": "node",
      "id": 415149550,
      "lat": 35.75818,
      "lon": 127.54136,
      "timestamp": "2018-08-12T05:51:10Z",
      "version": 3,
      "changeset": 61579960,
      "user": "Ian Wagner",
      "uid": 8637794,
      "tags": {
        "name": "용광리",
        "name:en": "Yonggwang-ri",
        "name:ko": "용광리",
        "name:ko-Latn": "Yonggwang-ri",
        "ncat": "교차로및지명",
        "place": "village",
        "source": "mp2osm"
      }
    },
    {
      "type": "node",
      "id": 415149551,
      "lat": 35.8703,
      "lon": 127.5417,
      "timestamp": "2018-08-12T05:51:10Z",
      "version": 3,
      "changeset": 61579960,
      "user": "Ian Wagner",
      "uid": 8637794,
      "tags": {
        "name": "신괴리",
        "name:en": "Sin-goe-ri",
        "name:ko": "신괴리",
        "name:ko-Latn": "Sin-goe-ri",
        "ncat": "교차로및지명",
        "place": "village",
        "source": "mp2osm"
      }
    },
    {
      "type": "node",
      "id": 415149552,
      "lat": 35.85208,
      "lon": 127.55254,
      "timestamp": "2018-08-12T05:51:10Z",
      "version": 3,
      "changeset": 61579960,
      "user": "Ian Wagner",
      "uid": 8637794,
      "tags": {
        "name": "자산리",
        "name:en": "Jasan-ri",
        "name:ko": "자산리",
        "name:ko-Latn": "Jasan-ri",
        "ncat": "교차로및지명",
        "place": "village",
        "source": "mp2osm"
      }
    },
    {
      "type": "node",
      "id": 415149553,
      "lat": 35.88811,
      "lon": 127.55297,
      "timestamp": "2018-08-12T05:51:10Z",
      "version": 3,
      "changeset": 61579960,
      "user": "Ian Wagner",
      "uid": 8637794,
      "tags": {
        "name": "노성리",
        "name:en": "Noseong-ri",
        "name:ko": "노성리",
        "name:ko-Latn": "Noseong-ri",
        "ncat": "교차로및지명",
        "place": "village",
        "source": "mp2osm"
      }
    },
    {
      "type": "node",
      "id": 415149554,
      "lat": 35.89783,
      "lon": 127.54869,
      "timestamp": "2018-12-24T13:44:03Z",
      "version": 4,
      "changeset": 65740337,
      "user": "LuxuryCoop",
      "uid": 7245212,
      "tags": {
        "name": "안천면",
        "name:en": "Ancheon-myeon",
        "name:ko": "안천면",
        "name:ko-Latn": "Ancheon-myeon",
        "ncat": "교차로및지명",
        "place": "town",
        "source": "mp2osm",
        "wikidata": "Q12605851"
      }
    },
    {
      "type": "node",
      "id": 415149555,
      "lat": 35.90523,
      "lon": 127.56728,
      "timestamp": "2018-08-12T05:51:10Z",
      "version": 3,
      "changeset": 61579960,
      "user": "Ian Wagner",
      "uid": 8637794,
      "tags": {
        "name": "백화리",
        "name:en": "Baekhwa-ri",
        "name:ko": "백화리",
        "name:ko-Latn": "Baekhwa-ri",
        "ncat": "교차로및지명",
        "place": "village",
        "source": "mp2osm"
      }
    },
    {
      "type": "node",
      "id": 415149556,
      "lat": 35.9375064,
      "lon": 127.5692302,
      "timestamp": "2018-08-12T05:51:10Z",
      "version": 3,
      "changeset": 61579960,
      "user": "Ian Wagner",
      "uid": 8637794,
      "tags": {
        "name": "고창리",
        "name:en": "Gochang-ri",
        "name:ko": "고창리",
        "name:ko-Latn": "Gochang-ri",
        "ncat": "교차로및지명",
        "place": "village",
        "source": "mp2osm"
      }
    },
    {
      "type": "node",
      "id": 415149557,
      "lat": 35.9662956,
      "lon": 127.5578608,
      "timestamp": "2018-08-12T05:51:10Z",
      "version": 3,
      "changeset": 61579960,
      "user": "Ian Wagner",
      "uid": 8637794,
      "tags": {
        "name": "대소리",
        "name:en": "Daeso-ri",
        "name:ko": "대소리",
        "name:ko-Latn": "Daeso-ri",
        "ncat": "교차로및지명",
        "place": "village",
        "source": "mp2osm"
      }
    },
    {
      "type": "node",
      "id": 415149558,
      "lat": 35.9762345,
      "lon": 127.5700328,
      "timestamp": "2018-08-12T05:51:11Z",
      "version": 3,
      "changeset": 61579960,
      "user": "Ian Wagner",
      "uid": 8637794,
      "tags": {
        "name": "부남면",
        "name:en": "Bunam-myeon",
        "name:ko": "부남면",
        "name:ko-Latn": "Bunam-myeon",
        "ncat": "교차로및지명",
        "place": "town",
        "source": "mp2osm"
      }
    },
    {
      "type": "node",
      "id": 415149559,
      "lat": 35.9863733,
      "lon": 127.5851121,
      "timestamp": "2018-08-12T05:51:11Z",
      "version": 3,
      "changeset": 61579960,
      "user": "Ian Wagner",
      "uid": 8637794,
      "tags": {
        "name": "굴암리",
        "name:en": "Guram-ri",
        "name:ko": "굴암리",
        "name:ko-Latn": "Guram-ri",
        "ncat": "교차로및지명",
        "place": "village",
        "source": "mp2osm"
      }
    },
    {
      "type": "node",
      "id": 415149560,
      "lat": 35.84081,
      "lon": 127.57301,
      "timestamp": "2018-08-12T05:51:11Z",
      "version": 3,
      "changeset": 61579960,
      "user": "Ian Wagner",
      "uid": 8637794,
      "tags": {
        "name": "대량리",
        "name:en": "Daeryang-ri",
        "name:ko": "대량리",
        "name:ko-Latn": "Daeryang-ri",
        "ncat": "교차로및지명",
        "place": "village",
        "source": "mp2osm"
      }
    },
    {
      "type": "node",
      "id": 415149561,
      "lat": 35.83594,
      "lon": 127.57488,
      "timestamp": "2018-12-24T13:44:03Z",
      "version": 4,
      "changeset": 65740337,
      "user": "LuxuryCoop",
      "uid": 7245212,
      "tags": {
        "name": "동향면",
        "name:en": "Donghyang-myeon",
        "name:ko": "동향면",
        "name:ko-Latn": "Donghyang-myeon",
        "ncat": "교차로및지명",
        "place": "town",
        "source": "mp2osm",
        "wikidata": "Q16183907"
      }
    },
    {
      "type": "node",
      "id": 415149562,
      "lat": 35.8097,
      "lon": 127.58058,
      "timestamp": "2018-08-12T05:51:11Z",
      "version": 3,
      "changeset": 61579960,
      "user": "Ian Wagner",
      "uid": 8637794,
      "tags": {
        "name": "신송리",
        "name:en": "Sinsong-ri",
        "name:ko": "신송리",
        "name:ko-Latn": "Sinsong-ri",
        "ncat": "교차로및지명",
        "place": "village",
        "source": "mp2osm"
      }
    },
    {
      "type": "node",
      "id": 415149563,
      "lat": 35.7964,
      "lon": 127.59848,
      "timestamp": "2018-08-12T05:51:11Z",
      "version": 5,
      "changeset": 61579960,
      "user": "Ian Wagner",
      "uid": 8637794,
      "tags": {
        "name": "임평리",
        "name:en": "Impyeong-ri",
        "name:ko": "임평리",
        "name:ko-Latn": "Impyeong-ri",
        "ncat": "교차로및지명",
        "place": "village",
        "source": "mp2osm"
      }
    },
    {
      "type": "node",
      "id": 415149564,
      "lat": 35.76065,
      "lon": 127.56427,
      "timestamp": "2018-08-12T05:51:11Z",
      "version": 3,
      "changeset": 61579960,
      "user": "Ian Wagner",
      "uid": 8637794,
      "tags": {
        "name": "금곡리",
        "name:en": "Geumgok-ri",
        "name:ko": "금곡리",
        "name:ko-Latn": "Geumgok-ri",
        "ncat": "교차로및지명",
        "place": "village",
        "source": "mp2osm"
      }
    },
    {
      "type": "node",
      "id": 415149565,
      "lat": 35.75376,
      "lon": 127.58222,
      "timestamp": "2018-08-12T05:51:11Z",
      "version": 5,
      "changeset": 61579960,
      "user": "Ian Wagner",
      "uid": 8637794,
      "tags": {
        "name": "무농리",
        "name:en": "Munong-ri",
        "name:ko": "무농리",
        "name:ko-Latn": "Munong-ri",
        "ncat": "교차로및지명",
        "place": "village",
        "source": "mp2osm"
      }
    },
    {
      "type": "node",
      "id": 415149566,
      "lat": 35.77869,
      "lon": 127.58737,
      "timestamp": "2018-08-12T05:51:12Z",
      "version": 5,
      "changeset": 61579960,
      "user": "Ian Wagner",
      "uid": 8637794,
      "tags": {
        "name": "월현리",
        "name:en": "Wolhyeon-ri",
        "name:ko": "월현리",
        "name:ko-Latn": "Wolhyeon-ri",
        "ncat": "교차로및지명",
        "place": "village",
        "source": "mp2osm"
      }
    },
    {
      "type": "node",
      "id": 415149567,
      "lat": 35.7667,
      "lon": 127.59987,
      "timestamp": "2018-08-12T05:51:12Z",
      "version": 5,
      "changeset": 61579960,
      "user": "Ian Wagner",
      "uid": 8637794,
      "tags": {
        "name": "매계리",
        "name:en": "Maegye-ri",
        "name:ko": "매계리",
        "name:ko-Latn": "Maegye-ri",
        "ncat": "교차로및지명",
        "place": "village",
        "source": "mp2osm"
      }
    },
    {
      "type": "node",
      "id": 415149568,
      "lat": 35.90233,
      "lon": 127.58989,
      "timestamp": "2019-08-11T17:15:46Z",
      "version": 6,
      "changeset": 73246493,
      "user": "鎭韓金",
      "uid": 10031194,
      "tags": {
        "name": "장안리",
        "name:en": "Jang-an-ri",
        "name:ja": "長安里",
        "name:ko": "장안리",
        "name:ko-Latn": "Jang-an-ri",
        "ncat": "교차로및지명",
        "place": "village",
        "source": "mp2osm"
      }
    },
    {
      "type": "node",
      "id": 415149569,
      "lat": 35.85435,
      "lon": 127.59058,
      "timestamp": "2018-08-12T05:51:12Z",
      "version": 5,
      "changeset": 61579960,
      "user": "Ian Wagner",
      "uid": 8637794,
      "tags": {
        "name": "능금리",
        "name:en": "Neunggeum-ri",
        "name:ko": "능금리",
        "name:ko-Latn": "Neunggeum-ri",
        "ncat": "교차로및지명",
        "place": "village",
        "source": "mp2osm"
      }
    },
    {
      "type": "node",
      "id": 415149570,
      "lat": 35.90866,
      "lon": 127.6118,
      "timestamp": "2018-08-12T05:51:12Z",
      "version": 6,
      "changeset": 61579960,
      "user": "Ian Wagner",
      "uid": 8637794,
      "tags": {
        "name": "삼유리",
        "name:en": "Samyu-ri",
        "name:ko": "삼유리",
        "name:ko-Latn": "Samyu-ri",
        "ncat": "교차로및지명",
        "place": "village",
        "source": "mp2osm"
      }
    },
    {
      "type": "node",
      "id": 415149571,
      "lat": 35.86886,
      "lon": 127.62434,
      "timestamp": "2018-08-12T05:51:12Z",
      "version": 5,
      "changeset": 61579960,
      "user": "Ian Wagner",
      "uid": 8637794,
      "tags": {
        "name": "진도리",
        "name:en": "Jindo-ri",
        "name:ko": "진도리",
        "name:ko-Latn": "Jindo-ri",
        "ncat": "교차로및지명",
        "place": "village",
        "source": "mp2osm"
      }
    },