{
  "osm3s": {
    "timestamp_osm_date": "2021-12-23T23:59:59Z",
    "timestamp_osm_base": "2021-12-24T02:49:42Z",
    "copyright": "The data included in this document is from www.openstreetmap.org. The data is made available under ODbL."
  },
  "elements": [
    {
      "type": "node",
      "id": 35416289,
      "lat": 42.0663046,
      "lon": -122.9362399,
      "timestamp": "2020-06-15T18:54:33Z",
      "version": 3,
      "changeset": 86683925,
      "user": "Adam Schneider",
      "uid": 5403394,
      "tags": {
        "mountain_pass": "yes",
        "name": "Squaw Creek Gap",
        "natural": "saddle"
      }
    },
    {
      "type": "node",
      "id": 35461713,
      "lat": 42.0620465,
      "lon": -122.6059299,
      "timestamp": "2019-05-23T02:08:45Z",
      "version": 9,
      "changeset": 70534775,
      "user": "mapman44",
      "uid": 2888253,
      "tags": {
        "ele": "1313.7",
        "mountain_pass": "yes",
        "name": "Siskiyou Summit",
        "natural": "saddle"
      }
    },
    {
      "type": "node",
      "id": 35496246,
      "lat": 42.1399803,
      "lon": -122.8027302,
      "timestamp": "2020-06-17T02:40:21Z",
      "version": 3,
      "changeset": 86746297,
      "user": "Adam Schneider",
      "uid": 5403394,
      "tags": {
        "name": "Wagner Gap",
        "natural": "saddle"
      }
    },
    {
      "type": "node",
      "id": 35541905,
      "lat": 42.0401405,
      "lon": -122.9126871,
      "timestamp": "2020-06-15T18:54:36Z",
      "version": 4,
      "changeset": 86683925,
      "user": "Adam Schneider",
      "uid": 5403394,
      "tags": {
        "ele": "1937.3",
        "mountain_pass": "yes",
        "name": "Silver Fork Gap",
        "natural": "saddle"
      }
    },
    {
      "type": "node",
      "id": 35542700,
      "lat": 42.0817775,
      "lon": -122.7393797,
      "timestamp": "2020-06-17T02:40:21Z",
      "version": 4,
      "changeset": 86746297,
      "user": "Adam Schneider",
      "uid": 5403394,
      "tags": {
        "mountain_pass": "yes",
        "name": "Grouse Gap",
        "natural": "saddle"
      }
    },
    {
      "type": "node",
      "id": 35552735,
      "lat": 42.1550508,
      "lon": -122.7016153,
      "timestamp": "2018-05-22T06:54:16Z",
      "version": 5,
      "changeset": 59170907,
      "user": "Adam Schneider",
      "uid": 5403394,
      "tags": {
        "mountain_pass": "yes",
        "name": "Lamb Saddle",
        "natural": "saddle"
      }
    },
    {
      "type": "node",
      "id": 35558266,
      "lat": 42.1422271,
      "lon": -122.690291,
      "timestamp": "2018-05-22T06:54:17Z",
      "version": 4,
      "changeset": 59170907,
      "user": "Adam Schneider",
      "uid": 5403394,
      "tags": {
        "mountain_pass": "yes",
        "name": "Coggins Saddle",
        "natural": "saddle"
      }
    },
    {
      "type": "node",
      "id": 35619188,
      "lat": 42.0499171,
      "lon": -122.8460346,
      "timestamp": "2020-06-15T18:54:36Z",
      "version": 4,
      "changeset": 86683925,
      "user": "Adam Schneider",
      "uid": 5403394,
      "tags": {
        "mountain_pass": "yes",
        "name": "Wrangle Gap",
        "natural": "saddle"
      }
    },
    {
      "type": "node",
      "id": 35620243,
      "lat": 42.0735519,
      "lon": -122.6167964,
      "timestamp": "2018-03-28T23:28:25Z",
      "version": 3,
      "changeset": 57616546,
      "user": "Adam Schneider",
      "uid": 5403394,
      "tags": {
        "mountain_pass": "yes",
        "name": "Toll Road Gap",
        "natural": "saddle"
      }
    },
    {
      "type": "node",
      "id": 35682492,
      "lat": 42.0691122,
      "lon": -123.0187051,
      "timestamp": "2020-06-16T00:19:59Z",
      "version": 4,
      "changeset": 86690905,
      "user": "Adam Schneider",
      "uid": 5403394,
      "tags": {
        "mountain_pass": "yes",
        "name": "Hanley Gap",
        "natural": "saddle"
      }
    },
    {
      "type": "node",
      "id": 150933574,
      "lat": 42.2951316,
      "lon": -122.619753,
      "timestamp": "2020-10-23T06:46:21Z",
      "version": 4,
      "changeset": 92932713,
      "user": "tguen",
      "uid": 9465017,
      "tags": {
        "ele": "1054",
        "gnis:id": "1136158",
        "name": "Climax",
        "place": "hamlet"
      }
    },
    {
      "type": "node",
      "id": 150938837,
      "lat": 42.4223516,
      "lon": -122.6261441,
      "timestamp": "2020-10-23T06:46:21Z",
      "version": 4,
      "changeset": 92932713,
      "user": "tguen",
      "uid": 9465017,
      "tags": {
        "ele": "501",
        "gnis:id": "1144788",
        "name": "Lakecreek",
        "place": "hamlet"
      }
    },
    {
      "type": "node",
      "id": 150942733,
      "lat": 42.4242907,
      "lon": -122.9714337,
      "timestamp": "2020-10-23T06:46:21Z",
      "version": 4,
      "changeset": 92932713,
      "user": "tguen",
      "uid": 9465017,
      "tags": {
        "ele": "365",
        "gnis:id": "1136834",
        "name": "Tolo",
        "place": "hamlet"
      }
    },
    {
      "type": "node",
      "id": 150944339,
      "lat": 42.0531908,
      "lon": -122.6511405,
      "timestamp": "2020-10-23T06:46:21Z",
      "version": 4,
      "changeset": 92932713,
      "user": "tguen",
      "uid": 9465017,
      "tags": {
        "ele": "1134",
        "gnis:id": "1639299",
        "name": "Colestin",
        "place": "hamlet"
      }
    },
    {
      "type": "node",
      "id": 150945918,
      "lat": 42.5345684,
      "lon": -122.9253236,
      "timestamp": "2020-10-23T06:46:21Z",
      "version": 4,
      "changeset": 92932713,
      "user": "tguen",
      "uid": 9465017,
      "tags": {
        "ele": "430",
        "gnis:id": "1159293",
        "name": "Beagle",
        "place": "hamlet"
      }
    },
    {
      "type": "node",
      "id": 150950839,
      "lat": 42.4681827,
      "lon": -122.7100366,
      "timestamp": "2020-10-23T06:46:21Z",
      "version": 4,
      "changeset": 92932713,
      "user": "tguen",
      "uid": 9465017,
      "tags": {
        "ele": "438",
        "gnis:id": "1118139",
        "name": "Brownsboro",
        "place": "hamlet"
      }
    },
    {
      "type": "node",
      "id": 150951070,
      "lat": 42.1176389,
      "lon": -122.3661323,
      "timestamp": "2020-10-23T06:46:21Z",
      "version": 4,
      "changeset": 92932713,
      "user": "tguen",
      "uid": 9465017,
      "tags": {
        "ele": "1027",
        "gnis:id": "1125418",
        "name": "Pinehurst",
        "place": "hamlet"
      }
    },
    {
      "type": "node",
      "id": 150955165,
      "lat": 42.4512357,
      "lon": -122.9128211,
      "timestamp": "2020-10-23T06:46:21Z",
      "version": 4,
      "changeset": 92932713,
      "user": "tguen",
      "uid": 9465017,
      "tags": {
        "ele": "367",
        "gnis:id": "1136812",
        "name": "Table Rock",
        "place": "hamlet"
      }
    },
    {
      "type": "node",
      "id": 150956451,
      "lat": 42.4718284,
      "lon": -122.8014155,
      "timestamp": "2020-10-23T06:46:21Z",
      "version": 6,
      "changeset": 92932713,
      "user": "tguen",
      "uid": 9465017,
      "tags": {
        "census:population": "7982;2006",
        "ele": "398",
        "gnis:id": "1161353",
        "name": "Eagle Point",
        "place": "village",
        "population": "7982",
        "wikidata": "Q2662130"
      }
    },
    {
      "type": "node",
      "id": 150959811,
      "lat": 42.376782,
      "lon": -122.912721,
      "timestamp": "2020-10-23T06:46:21Z",
      "version": 6,
      "changeset": 92932713,
      "user": "tguen",
      "uid": 9465017,
      "tags": {
        "census:population": "16150;2006",
        "ele": "388",
        "gnis:id": "1118785",
        "name": "Central Point",
        "place": "town",
        "population": "16150",
        "wikidata": "Q588999",
        "wikipedia": "en:Central Point, Oregon"
      }
    },
    {
      "type": "node",
      "id": 150961816,
      "lat": 42.543184,
      "lon": -122.565589,
      "timestamp": "2020-10-23T06:46:21Z",
      "version": 5,
      "changeset": 92932713,
      "user": "tguen",
      "uid": 9465017,
      "tags": {
        "census:population": "429;2006",
        "ele": "772",
        "gnis:id": "1139061",
        "name": "Butte Falls",
        "place": "village",
        "population": "429",
        "wikidata": "Q2418192"
      }
    },
    {
      "type": "node",
      "id": 150967513,
      "lat": 42.2365133,
      "lon": -123.0422659,
      "timestamp": "2020-10-23T06:46:21Z",
      "version": 4,
      "changeset": 92932713,
      "user": "tguen",
      "uid": 9465017,
      "tags": {
        "ele": "473",
        "gnis:id": "1148830",
        "name": "Ruch",
        "place": "hamlet"
      }
    },
    {
      "type": "node",
      "id": 150968314,
      "lat": 42.4915124,
      "lon": -122.9753242,
      "timestamp": "2020-10-23T06:46:21Z",
      "version": 4,
      "changeset": 92932713,
      "user": "tguen",
      "uid": 9465017,
      "tags": {
        "ele": "390",
        "gnis:id": "1126544",
        "name": "Sams Valley",
        "place": "hamlet"
      }
    },
    {
      "type": "node",
      "id": 150968337,
      "lat": 42.1120831,
      "lon": -122.3841883,
      "timestamp": "2020-10-23T06:46:21Z",
      "version": 4,
      "changeset": 92932713,
      "user": "tguen",
      "uid": 9465017,
      "tags": {
        "ele": "1103",
        "gnis:id": "1136554",
        "name": "Mountain View",
        "place": "hamlet"
      }
    },
    {
      "type": "node",
      "id": 150970183,
      "lat": 42.3972084,
      "lon": -122.9386665,
      "timestamp": "2020-10-23T06:46:21Z",
      "version": 5,
      "changeset": 92932713,
      "user": "tguen",
      "uid": 9465017,
      "tags": {
        "ele": "375",
        "gnis:id": "1166710",
        "name": "Seven Oaks",
        "place": "hamlet"
      }
    },
    {
      "type": "node",
      "id": 150974964,
      "lat": 42.1087496,
      "lon": -122.4030776,
      "timestamp": "2020-10-23T06:46:21Z",
      "version": 4,
      "changeset": 92932713,
      "user": "tguen",
      "uid": 9465017,
      "tags": {
        "ele": "1128",
        "gnis:id": "1136478",
        "name": "Lincoln",
        "place": "hamlet"
      }
    },
    {
      "type": "node",
      "id": 150976451,
      "lat": 42.1740149,
      "lon": -122.9980971,
      "timestamp": "2020-10-23T06:46:21Z",
      "version": 4,
      "changeset": 92932713,
      "user": "tguen",
      "uid": 9465017,
      "tags": {
        "ele": "513",
        "gnis:id": "1138957",
        "name": "Buncom",
        "place": "hamlet"
      }
    },
    {
      "type": "node",
      "id": 357349272,
      "lat": 42.0435865,
      "lon": -122.8907604,
      "timestamp": "2020-06-29T23:24:29Z",
      "version": 3,
      "changeset": 87316684,
      "user": "Adam Schneider",
      "uid": 5403394,
      "tags": {
        "ele": "2260",
        "gnis:county_id": "029",
        "gnis:created": "11/28/1980",
        "gnis:feature_id": "1639304",
        "gnis:state_id": "41",
        "name": "Dutchman Peak",
        "natural": "peak",
        "wikidata": "Q49026382",
        "wikipedia": "en:Dutchman Peak"
      }
    },
    {
      "type": "node",
      "id": 369018152,
      "lat": 42.0909696,
      "lon": -122.5578045,
      "timestamp": "2020-09-15T23:18:30Z",
      "version": 3,
      "changeset": 90949788,
      "user": "tguen",
      "uid": 9465017,
      "tags": {
        "ele": "1113",
        "gnis:feature_id": "1637988",
        "historic": "mine",
        "name": "Buck Rock Tunnel",
        "natural": "cave_entrance",
        "tourism": "viewpoint"
      }
    },
    {
      "type": "node",
      "id": 412110149,
      "lat": 42.0619337,
      "lon": -122.6058155,
      "timestamp": "2018-03-19T05:36:08Z",
      "version": 7,
      "changeset": 57306822,
      "user": "Adam Schneider",
      "uid": 5403394,
      "tags": {
        "ele": "1313.7",
        "mountain_pass": "yes",
        "name": "Siskiyou Summit",
        "natural": "saddle"
      }
    },
    {
      "type": "node",
      "id": 1573748245,
      "lat": 42.3739544,
      "lon": -122.9161537,
      "timestamp": "2021-01-12T01:46:02Z",
      "version": 3,
      "changeset": 97335703,
      "user": "123maps",
      "uid": 542575,
      "tags": {
        "alt_name": "C & K Market",
        "name": "Ray's Food Place",
        "opening_hours": "Mo-Su 07:00-10:00",
        "shop": "supermarket",
        "source": "local_knowledge"
      }
    },
    {
      "type": "node",
      "id": 1573775860,
      "lat": 42.3763092,
      "lon": -122.90443,
      "timestamp": "2021-07-03T18:46:16Z",
      "version": 4,
      "changeset": 107365720,
      "user": "Timothy Smith",
      "uid": 115918,
      "tags": {
        "brand": "Albertsons",
        "brand:wikidata": "Q2831861",
        "brand:wikipedia": "en:Albertsons",
        "name": "Albertsons",
        "shop": "supermarket",
        "source": "local knowledge"
      }
    },
    {
      "type": "node",
      "id": 1689700241,
      "lat": 42.1972487,
      "lon": -122.7153995,
      "timestamp": "2020-03-16T20:43:33Z",
      "version": 5,
      "changeset": 82273721,
      "user": "mapman44",
      "uid": 2888253,
      "tags": {
        "name": "Ashland",
        "place": "town",
        "population": "20078",
        "source": "Wikipedia",
        "wikidata": "Q450100"
      }
    },
    {
      "type": "node",
      "id": 1700447852,
      "lat": 42.314411,
      "lon": -122.965346,
      "timestamp": "2019-06-06T16:16:31Z",
      "version": 7,
      "changeset": 70995688,
      "user": "mapman44",
      "uid": 2888253,
      "tags": {
        "name": "Jacksonville",
        "place": "town",
        "population": "2785",
        "source": "Wikipedia",
        "wikidata": "Q335307"
      }
    },
    {
      "type": "node",
      "id": 1700447854,
      "lat": 42.3264181,
      "lon": -122.8718605,
      "timestamp": "2019-11-11T21:52:54Z",
      "version": 10,
      "changeset": 76930032,
      "user": "woodpeck_repair",
      "uid": 145231,
      "tags": {
        "name": "Medford",
        "name:en": "Medford",
        "name:ja": "メドフォード",
        "name:ru": "Медфорд",
        "name:uk": "Медфорд",
        "place": "city",
        "population": "74907",
        "source": "Wikipedia",
        "wikidata": "Q836663"
      }
    },
    {
      "type": "node",
      "id": 1700447857,
      "lat": 42.2740364,
      "lon": -122.8153283,
      "timestamp": "2020-03-16T20:43:33Z",
      "version": 6,
      "changeset": 82273721,
      "user": "mapman44",
      "uid": 2888253,
      "tags": {
        "name": "Phoenix",
        "place": "village",
        "population": "4538",
        "source": "Wikipedia",
        "wikidata": "Q1922043"
      }
    },
    {
      "type": "node",
      "id": 1700447860,
      "lat": 42.243808,
      "lon": -122.788924,
      "timestamp": "2020-03-16T20:43:33Z",
      "version": 5,
      "changeset": 82273721,
      "user": "mapman44",
      "uid": 2888253,
      "tags": {
        "name": "Talent",
        "place": "village",
        "population": "6066",
        "source": "Wikipedia",
        "wikidata": "Q2106770"
      }
    },
    {
      "type": "node",
      "id": 1775592473,
      "lat": 42.1846553,
      "lon": -122.6892294,
      "timestamp": "2019-02-15T01:02:31Z",
      "version": 4,
      "changeset": 67212079,
      "user": "b-jazz",
      "uid": 5800005,
      "tags": {
        "addr:city": "Ashland",
        "addr:housenumber": "1475",
        "addr:postcode": "97520",
        "addr:state": "OR",
        "addr:street": "Siskiyou Boulevard",
        "name": "Market of Choice",
        "opening_hours": "07:00-23:00",
        "phone": "+1-541-488-2773",
        "shop": "supermarket",
        "website": "https://www.marketofchoice.com/"
      }
    },
    {
      "type": "node",
      "id": 1797393288,
      "lat": 42.1849103,
      "lon": -122.6888565,
      "timestamp": "2012-12-29T14:31:45Z",
      "version": 4,
      "changeset": 14451264,
      "user": "wmann",
      "uid": 128017,
      "tags": {
        "name": "gateway shopping ctr lft",
        "shop": "supermarket"
      }
    },
    {
      "type": "node",
      "id": 1797752082,
      "lat": 42.1796503,
      "lon": -122.7168322,
      "timestamp": "2013-06-25T04:04:17Z",
      "version": 3,
      "changeset": 16693648,
      "user": "123maps",
      "uid": 542575,
      "tags": {
        "amenity": "drinking_water"
      }
    },
    {
      "type": "node",
      "id": 1797752106,
      "lat": 42.1839687,
      "lon": -122.7176856,
      "timestamp": "2012-06-22T01:01:24Z",
      "version": 1,
      "changeset": 11974410,
      "user": "oldtopos",
      "uid": 169004,
      "tags": {
        "amenity": "drinking_water"
      }
    },
    {
      "type": "node",
      "id": 1797752119,
      "lat": 42.1852387,
      "lon": -122.7171723,
      "timestamp": "2012-06-22T01:01:25Z",
      "version": 1,
      "changeset": 11974410,
      "user": "oldtopos",
      "uid": 169004,
      "tags": {
        "amenity": "drinking_water"
      }
    },
    {
      "type": "node",
      "id": 1797752123,
      "lat": 42.1862258,
      "lon": -122.7169941,
      "timestamp": "2012-06-23T14:15:52Z",
      "version": 2,
      "changeset": 11989381,
      "user": "oldtopos",
      "uid": 169004,
      "tags": {
        "amenity": "drinking_water"
      }
    },
    {
      "type": "node",
      "id": 1797752127,
      "lat": 42.1872691,
      "lon": -122.7178122,
      "timestamp": "2012-06-23T14:15:52Z",
      "version": 2,
      "changeset": 11989381,
      "user": "oldtopos",
      "uid": 169004,
      "tags": {
        "amenity": "drinking_water"
      }
    },
    {
      "type": "node",
      "id": 1797752132,
      "lat": 42.1889999,
      "lon": -122.7178616,
      "timestamp": "2012-06-22T01:01:25Z",
      "version": 1,
      "changeset": 11974410,
      "user": "oldtopos",
      "uid": 169004,
      "tags": {
        "amenity": "drinking_water"
      }
    },
    {
      "type": "node",
      "id": 1797752137,
      "lat": 42.1924205,
      "lon": -122.71788,
      "timestamp": "2019-07-03T04:12:44Z",
      "version": 3,
      "changeset": 71843811,
      "user": "Timothy Smith",
      "uid": 115918,
      "tags": {
        "amenity": "drinking_water",
        "drinking_water": "mineral"
      }
    },
    {
      "type": "node",
      "id": 1797752138,
      "lat": 42.1932851,
      "lon": -122.7177792,
      "timestamp": "2012-06-22T01:01:26Z",
      "version": 1,
      "changeset": 11974410,
      "user": "oldtopos",
      "uid": 169004,
      "tags": {
        "amenity": "drinking_water"
      }
    },
    {
      "type": "node",
      "id": 1797756050,
      "lat": 42.1952528,
      "lon": -122.7110212,
      "timestamp": "2021-07-22T22:28:29Z",
      "version": 4,
      "changeset": 108453089,
      "user": "cbhackmeyer",
      "uid": 2607010,
      "tags": {
        "addr:city": "Ashland",
        "addr:state": "Oregon",
        "addr:street": "East Main Street",
        "amenity": "drinking_water",
        "bottle": "no"
      }
    },
    {
      "type": "node",
      "id": 1798826442,
      "lat": 42.195916,
      "lon": -122.7159635,
      "timestamp": "2018-07-27T20:20:18Z",
      "version": 4,
      "changeset": 61129983,
      "user": "Ptolemaeus_",
      "uid": 2953765,
      "tags": {
        "amenity": "drinking_water"
      }
    },
    {
      "type": "node",
      "id": 1798835782,
      "lat": 42.197419,
      "lon": -122.7153866,
      "timestamp": "2015-10-30T02:38:46Z",
      "version": 4,
      "changeset": 34963561,
      "user": "jpbernard",
      "uid": 3232285,
      "tags": {
        "amenity": "drinking_water",
        "emergency": "fire_hydrant"
      }
    },
    {
      "type": "node",
      "id": 1799429976,
      "lat": 42.1947572,
      "lon": -122.7164724,
      "timestamp": "2012-06-23T14:12:49Z",
      "version": 1,
      "changeset": 11989381,
      "user": "oldtopos",
      "uid": 169004,
      "tags": {
        "amenity": "drinking_water"
      }
    },
    {
      "type": "node",
      "id": 1799521683,
      "lat": 42.1973701,
      "lon": -122.7102481,
      "timestamp": "2012-06-23T15:38:30Z",
      "version": 1,
      "changeset": 11990307,
      "user": "oldtopos",
      "uid": 169004,
      "tags": {
        "amenity": "drinking_water"
      }
    },
    {
      "type": "node",
      "id": 1800694267,
      "lat": 42.1957925,
      "lon": -122.7123398,
      "timestamp": "2021-07-23T04:15:58Z",
      "version": 2,
      "changeset": 108459033,
      "user": "cbhackmeyer",
      "uid": 2607010,
      "tags": {
        "amenity": "drinking_water",
        "bottle": "no"
      }
    },
    {
      "type": "node",
      "id": 1864299199,
      "lat": 42.3140888,
      "lon": -122.8602027,
      "timestamp": "2020-10-30T23:35:40Z",
      "version": 4,
      "changeset": 93312199,
      "user": "wheelmap_visitor",
      "uid": 290680,
      "tags": {
        "brand": "Grocery Outlet",
        "brand:wikidata": "Q5609934",
        "brand:wikipedia": "en:Grocery Outlet",
        "name": "Grocery Outlet",
        "official_name": "Grocery Outlet Bargain Market",
        "shop": "supermarket",
        "wheelchair": "yes"
      }
    },
    {
      "type": "node",
      "id": 1864583555,
      "lat": 42.350203,
      "lon": -122.8948896,
      "timestamp": "2014-12-30T19:37:37Z",
      "version": 2,
      "changeset": 27807902,
      "user": "jwagenet",
      "uid": 1869395,
      "tags": {
        "name": "Grange Co-op Pet Country",
        "shop": "supermarket"
      }
    },
    {
      "type": "node",
      "id": 1876207296,
      "lat": 42.378023,
      "lon": -122.8990623,
      "timestamp": "2012-08-21T15:19:17Z",
      "version": 1,
      "changeset": 12809607,
      "user": "123maps",
      "uid": 542575,
      "tags": {
        "name": "Pilot",
        "shop": "convenience"
      }
    },
    {
      "type": "node",
      "id": 1882467482,
      "lat": 42.3663848,
      "lon": -122.9076619,
      "timestamp": "2012-08-25T13:52:34Z",
      "version": 1,
      "changeset": 12855549,
      "user": "123maps",
      "uid": 542575,
      "tags": {
        "amenity": "drinking_water"
      }
    },
    {
      "type": "node",
      "id": 1897450501,
      "lat": 42.3414618,
      "lon": -122.8600565,
      "timestamp": "2021-06-13T08:00:44Z",
      "version": 4,
      "changeset": 106274369,
      "user": "archpdx",
      "uid": 12493764,
      "tags": {
        "brand": "7-Eleven",
        "brand:wikidata": "Q259340",
        "brand:wikipedia": "en:7-Eleven",
        "name": "7-Eleven",
        "shop": "convenience"
      }
    },
    {
      "type": "node",
      "id": 1921359250,
      "lat": 42.3916288,
      "lon": -122.8957248,
      "timestamp": "2014-01-07T06:05:30Z",
      "version": 3,
      "changeset": 19857508,
      "user": "jwagenet",
      "uid": 1869395,
      "tags": {
        "amenity": "drinking_water"
      }
    },
    {
      "type": "node",
      "id": 1922834519,
      "lat": 42.3161862,
      "lon": -122.965094,
      "timestamp": "2021-11-26T04:54:39Z",
      "version": 4,
      "changeset": 114245585,
      "user": "Timothy Smith",
      "uid": 115918,
      "tags": {
        "addr:housenumber": "401",
        "addr:street": "North 5th Street",
        "brand": "Ray's Food Place",
        "brand:wikidata": "Q108163041",
        "name": "Ray's Food Place",
        "phone": "+1 541-899-1262",
        "shop": "supermarket",
        "website": "https://www.gorays.com/"
      }
    },
    {
      "type": "node",
      "id": 1922836397,
      "lat": 42.3457944,
      "lon": -122.9296732,
      "timestamp": "2019-11-03T01:39:36Z",
      "version": 2,
      "changeset": 76541458,
      "user": "barnesda",
      "uid": 7755553,
      "tags": {
        "addr:housenumber": "2015",
        "addr:street": "Hanley Road",
        "name": "West Hills Country Store",
        "opening_hours": "Mo-Fr 06:00-20:00; Sa, Su 07:00-20:00",
        "phone": "+1 541-772-5792",
        "shop": "convenience",
        "website": "http://westhillscountrystore.com/"
      }
    },
    {
      "type": "node",
      "id": 1937569999,
      "lat": 42.3249764,
      "lon": -122.900636,
      "timestamp": "2021-08-01T02:08:54Z",
      "version": 4,
      "changeset": 108960787,
      "user": "Timothy Smith",
      "uid": 115918,
      "tags": {
        "addr:housenumber": "113",
        "addr:street": "Ross Lane",
        "brand": "Albertsons",
        "brand:wikidata": "Q2831861",
        "brand:wikipedia": "en:Albertsons",
        "name": "Albertsons",
        "opening_hours": "06:00-23:00",
        "phone": "+1 541-858-5937",
        "shop": "supermarket",
        "website": "https://www.albertsons.com/"
      }
    },
    {
      "type": "node",
      "id": 1971128571,
      "lat": 42.3862722,
      "lon": -122.9192094,
      "timestamp": "2014-01-06T04:59:19Z",
      "version": 2,
      "changeset": 19838068,
      "user": "jwagenet",
      "uid": 1869395,
      "tags": {
        "name": "Fair City Market & Deli",
        "shop": "convenience"
      }
    },
    {
      "type": "node",
      "id": 1971129467,
      "lat": 42.3213744,
      "lon": -122.8503603,
      "timestamp": "2012-10-18T03:20:54Z",
      "version": 1,
      "changeset": 13539370,
      "user": "123maps",
      "uid": 542575,
      "tags": {
        "name": "Minute Market",
        "shop": "convenience"
      }
    },
    {
      "type": "node",
      "id": 1983846890,
      "lat": 42.3436492,
      "lon": -122.881505,
      "timestamp": "2019-10-25T02:27:34Z",
      "version": 6,
      "changeset": 76179138,
      "user": "barnesda",
      "uid": 7755553,
      "tags": {
        "addr:housenumber": "55",
        "addr:street": "Rossanley Drive",
        "brand": "Trader Joe's",
        "brand:wikidata": "Q688825",
        "brand:wikipedia": "en:Trader Joe's",
        "name": "Trader Joe's",
        "opening_hours": "Mo-Su 08:00-21:00",
        "phone": "+1 541-608-4993",
        "shop": "supermarket",
        "website": "https://www.traderjoes.com/"
      }
    },
    {
      "type": "node",
      "id": 1983847039,
      "lat": 42.3896616,
      "lon": -122.8857111,
      "timestamp": "2014-01-07T06:05:32Z",
      "version": 2,
      "changeset": 19857508,
      "user": "jwagenet",
      "uid": 1869395,
      "tags": {
        "name": "Lil' Pantry",
        "shop": "convenience"
      }
    },
    {
      "type": "node",
      "id": 1991877576,
      "lat": 42.3630469,
      "lon": -122.9288846,
      "timestamp": "2012-11-01T06:35:55Z",
      "version": 1,
      "changeset": 13707330,
      "user": "123maps",
      "uid": 542575,
      "tags": {
        "name": "Dick's Market",
        "shop": "convenience"
      }
    },
    {
      "type": "node",
      "id": 1991877660,
      "lat": 42.3142289,
      "lon": -122.9732752,
      "timestamp": "2018-04-16T06:59:38Z",
      "version": 2,
      "changeset": 58128033,
      "user": "Adam Schneider",
      "uid": 5403394,
      "tags": {
        "amenity": "drinking_water"
      }
    },
    {
      "type": "node",
      "id": 1999517650,
      "lat": 42.3176843,
      "lon": -122.9705023,
      "timestamp": "2012-11-06T02:30:56Z",
      "version": 1,
      "changeset": 13768466,
      "user": "123maps",
      "uid": 542575,
      "tags": {
        "amenity": "drinking_water"
      }
    },
    {
      "type": "node",
      "id": 2037618772,
      "lat": 42.3712274,
      "lon": -122.9150122,
      "timestamp": "2019-06-27T21:47:43Z",
      "version": 3,
      "changeset": 71687730,
      "user": "mapman44",
      "uid": 2888253,
      "tags": {
        "brand": "7-Eleven",
        "brand:wikidata": "Q259340",
        "brand:wikipedia": "en:7-Eleven",
        "name": "7-Eleven",
        "shop": "convenience"
      }
    },
    {
      "type": "node",
      "id": 2062605371,
      "lat": 42.3537156,
      "lon": -122.8860176,
      "timestamp": "2012-12-12T04:55:13Z",
      "version": 1,
      "changeset": 14245463,
      "user": "123maps",
      "uid": 542575,
      "tags": {
        "name": "Minute Market",
        "shop": "convenience"
      }
    },
    {
      "type": "node",
      "id": 2062609674,
      "lat": 42.3380943,
      "lon": -122.8754818,
      "timestamp": "2012-12-12T05:41:55Z",
      "version": 2,
      "changeset": 14245609,
      "user": "123maps",
      "uid": 542575,
      "tags": {
        "name": "OK Market",
        "shop": "convenience"
      }
    },
    {
      "type": "node",
      "id": 2062609678,
      "lat": 42.3499493,
      "lon": -122.8937828,
      "timestamp": "2014-12-30T19:37:37Z",
      "version": 2,
      "changeset": 27807902,
      "user": "jwagenet",
      "uid": 1869395,
      "tags": {
        "name": "Stop n Shop",
        "shop": "convenience"
      }
    },
    {
      "type": "node",
      "id": 2084099828,
      "lat": 42.3195895,
      "lon": -122.8740495,
      "timestamp": "2012-12-27T05:10:12Z",
      "version": 1,
      "changeset": 14421377,
      "user": "123maps",
      "uid": 542575,
      "tags": {
        "name": "Minute Market",
        "shop": "convenience"
      }
    },
    {
      "type": "node",
      "id": 2092913387,
      "lat": 42.2449549,
      "lon": -122.7888152,
      "timestamp": "2013-01-02T23:44:28Z",
      "version": 1,
      "changeset": 14507025,
      "user": "Emile Snyder",
      "uid": 1181673,
      "tags": {
        "amenity": "drinking_water"
      }
    },
    {
      "type": "node",
      "id": 2092917906,
      "lat": 42.2380372,
      "lon": -122.7775313,
      "timestamp": "2015-05-25T01:11:50Z",
      "version": 2,
      "changeset": 31433067,
      "user": "Timothy Smith",
      "uid": 115918,
      "tags": {
        "amenity": "shelter"
      }
    },
    {
      "type": "node",
      "id": 2092917930,
      "lat": 42.2379923,
      "lon": -122.7773719,
      "timestamp": "2013-01-02T23:55:48Z",
      "version": 1,
      "changeset": 14507025,
      "user": "Emile Snyder",
      "uid": 1181673,
      "tags": {
        "amenity": "drinking_water"
      }
    },
    {
      "type": "node",
      "id": 2110786250,
      "lat": 42.4050952,
      "lon": -122.885743,
      "timestamp": "2014-01-07T06:05:33Z",
      "version": 2,
      "changeset": 19857508,
      "user": "jwagenet",
      "uid": 1869395,
      "tags": {
        "name": "One Stop Market",
        "shop": "convenience"
      }
    },
    {
      "type": "node",
      "id": 2131800282,
      "lat": 42.3682578,
      "lon": -122.8926129,
      "timestamp": "2013-01-28T04:50:57Z",
      "version": 2,
      "changeset": 14817333,
      "user": "123maps",
      "uid": 542575,
      "tags": {
        "amenity": "shelter"
      }
    },
    {
      "type": "node",
      "id": 2148466632,
      "lat": 42.1975585,
      "lon": -122.4689877,
      "timestamp": "2013-02-10T01:22:33Z",
      "version": 2,
      "changeset": 14974730,
      "user": "123maps",
      "uid": 542575,
      "tags": {
        "amenity": "shelter",
        "name": "Table mtn warming shelter"
      }
    },
    {
      "type": "node",
      "id": 2224133347,
      "lat": 42.3162417,
      "lon": -122.9701692,
      "timestamp": "2013-04-24T03:02:51Z",
      "version": 2,
      "changeset": 15844065,
      "user": "123maps",
      "uid": 542575,
      "tags": {
        "amenity": "drinking_water"
      }
    },
    {
      "type": "node",
      "id": 2332674420,
      "lat": 42.4269411,
      "lon": -122.8490728,
      "timestamp": "2013-06-05T03:58:06Z",
      "version": 1,
      "changeset": 16427103,
      "user": "123maps",
      "uid": 542575,
      "tags": {
        "name": "Lil Pantry",
        "shop": "convenience"
      }
    },
    {
      "type": "node",
      "id": 2374003543,
      "lat": 42.2216451,
      "lon": -122.7438819,
      "timestamp": "2019-03-23T01:39:57Z",
      "version": 3,
      "changeset": 68432402,
      "user": "Timothy Smith",
      "uid": 115918,
      "tags": {
        "name": "Jackson Wellsprings",
        "tourism": "camp_site"
      }
    },
    {
      "type": "node",
      "id": 2430683729,
      "lat": 42.2442082,
      "lon": -122.4143264,
      "timestamp": "2013-08-25T05:28:44Z",
      "version": 1,
      "changeset": 17493283,
      "user": "123maps",
      "uid": 542575,
      "tags": {
        "tourism": "camp_site"
      }
    },
    {
      "type": "node",
      "id": 2445325664,
      "lat": 42.0398391,
      "lon": -123.0183054,
      "timestamp": "2020-06-15T21:33:39Z",
      "version": 3,
      "changeset": 86688331,
      "user": "Adam Schneider",
      "uid": 5403394,
      "tags": {
        "amenity": "drinking_water"
      }
    },
    {
      "type": "node",
      "id": 2445325778,
      "lat": 42.0407356,
      "lon": -123.0219573,
      "timestamp": "2013-09-04T04:55:45Z",
      "version": 1,
      "changeset": 17665063,
      "user": "123maps",
      "uid": 542575,
      "tags": {
        "amenity": "drinking_water"
      }
    },
    {
      "type": "node",
      "id": 2474782447,
      "lat": 42.3605715,
      "lon": -122.855917,
      "timestamp": "2019-04-06T22:16:34Z",
      "version": 4,
      "changeset": 68963244,
      "user": "Timothy Smith",
      "uid": 115918,
      "tags": {
        "brand": "7-Eleven",
        "brand:wikidata": "Q259340",
        "brand:wikipedia": "en:7-Eleven",
        "name": "7-Eleven",
        "shop": "convenience"
      }
    },
    {
      "type": "node",
      "id": 2487394439,
      "lat": 42.3172255,
      "lon": -122.8589058,
      "timestamp": "2019-05-28T05:09:14Z",
      "version": 2,
      "changeset": 70681964,
      "user": "mapman44",
      "uid": 2888253,
      "tags": {
        "name": "Health food mart",
        "organic": "only",
        "shop": "supermarket"
      }
    },
    {
      "type": "node",
      "id": 2509639691,
      "lat": 42.3516141,
      "lon": -122.8550583,
      "timestamp": "2020-03-02T20:53:41Z",
      "version": 2,
      "changeset": 81697954,
      "user": "123maps",
      "uid": 542575,
      "tags": {
        "name": "Maguey",
        "shop": "supermarket"
      }
    },
    {
      "type": "node",
      "id": 2519391166,
      "lat": 42.3166895,
      "lon": -122.971003,
      "timestamp": "2021-02-04T21:34:48Z",
      "version": 3,
      "changeset": 98727901,
      "user": "mneko",
      "uid": 158194,
      "tags": {
        "amenity": "drinking_water"
      }
    },
    {
      "type": "node",
      "id": 2614109765,
      "lat": 42.431975,
      "lon": -122.838804,
      "timestamp": "2020-03-16T20:43:33Z",
      "version": 7,
      "changeset": 82273721,
      "user": "mapman44",
      "uid": 2888253,
      "tags": {
        "name": "White City",
        "place": "village",
        "population": "7975",
        "wikidata": "Q2101079",
        "wikipedia": "en:White City, Oregon"
      }
    },
    {
      "type": "node",
      "id": 3248875371,
      "lat": 42.3069436,
      "lon": -122.3668164,
      "timestamp": "2019-02-15T01:07:51Z",
      "version": 3,
      "changeset": 67212152,
      "user": "b-jazz",
      "uid": 5800005,
      "tags": {
        "name": "Daley Creek Campground",
        "tourism": "camp_site",
        "website": "https://www.fs.usda.gov/recarea/rogue-siskiyou/recreation/hiking/recarea/?recid=69710&actid=50"
      }
    },
    {
      "type": "node",
      "id": 3248875378,
      "lat": 42.3042256,
      "lon": -122.3671597,
      "timestamp": "2021-12-15T00:54:17Z",
      "version": 3,
      "changeset": 114944071,
      "user": "Adam Schneider",
      "uid": 5403394,
      "tags": {
        "name": "Beaver Dam Campground",
        "tourism": "camp_site"
      }
    },
    {
      "type": "node",
      "id": 3248880662,
      "lat": 42.4985787,
      "lon": -122.417671,
      "timestamp": "2014-12-23T08:18:47Z",
      "version": 1,
      "changeset": 27645451,
      "user": "Richard",
      "uid": 165,
      "tags": {
        "tourism": "camp_site"
      }
    },
    {
      "type": "node",
      "id": 3248880664,
      "lat": 42.4975579,
      "lon": -122.4191516,
      "timestamp": "2014-12-23T08:18:47Z",
      "version": 1,
      "changeset": 27645451,
      "user": "Richard",
      "uid": 165,
      "tags": {
        "tourism": "camp_site"
      }
    },
    {
      "type": "node",
      "id": 3522105297,
      "lat": 42.3323571,
      "lon": -122.8284833,
      "timestamp": "2016-12-12T02:48:07Z",
      "version": 3,
      "changeset": 44336099,
      "user": "maxerickson",
      "uid": 360392,
      "tags": {
        "addr:city": "Medford",
        "addr:housenumber": "2881",
        "addr:postcode": "97504",
        "addr:state": "OR",
        "addr:street": "Hillcrest Road",
        "name": "Dunbar Farms Honor Barn Farm Stand",
        "opening_hours": "sunrise-22:00",
        "operator": "Dunbar Farms",
        "shop": "supermarket"
      }
    },
    {
      "type": "node",
      "id": 3536400963,
      "lat": 42.1956856,
      "lon": -122.7082572,
      "timestamp": "2015-05-22T16:43:45Z",
      "version": 1,
      "changeset": 31376975,
      "user": "Timothy Smith",
      "uid": 115918,
      "tags": {
        "amenity": "drinking_water"
      }
    },
    {
      "type": "node",
      "id": 3544851794,
      "lat": 42.1942332,
      "lon": -122.7092994,
      "timestamp": "2015-05-25T15:53:10Z",
      "version": 1,
      "changeset": 31449342,
      "user": "Timothy Smith",
      "uid": 115918,
      "tags": {
        "amenity": "drinking_water"
      }
    },
    {
      "type": "node",
      "id": 3979034242,
      "lat": 42.1585293,
      "lon": -122.6193556,
      "timestamp": "2016-01-31T04:05:38Z",
      "version": 1,
      "changeset": 36909652,
      "user": "Timothy Smith",
      "uid": 115918,
      "tags": {
        "name": "Oak Slope Campground",
        "operator": "Jackson County",
        "tourism": "camp_site"
      }
    },
    {
      "type": "node",
      "id": 4031379796,
      "lat": 42.3223678,
      "lon": -123.0118387,
      "timestamp": "2020-03-17T03:14:44Z",
      "version": 2,
      "changeset": 82280733,
      "user": "Adam Schneider",
      "uid": 5403394,
      "tags": {
        "name": "Twin Peaks Saddle",
        "natural": "saddle"
      }
    },
    {
      "type": "node",
      "id": 4519437876,
      "lat": 42.2974941,
      "lon": -122.9063004,
      "timestamp": "2016-11-24T18:51:34Z",
      "version": 1,
      "changeset": 43928573,
      "user": "Timothy Smith",
      "uid": 115918,
      "tags": {
        "name": "Stage Stop",
        "shop": "convenience"
      }
    },
    {
      "type": "node",
      "id": 4519460471,
      "lat": 42.3126036,
      "lon": -122.888922,
      "timestamp": "2021-08-21T18:07:13Z",
      "version": 2,
      "changeset": 110037729,
      "user": "Timothy Smith",
      "uid": 115918,
      "tags": {
        "name": "Minute Market",
        "shop": "convenience"
      }
    },
    {
      "type": "node",
      "id": 4675457977,
      "lat": 42.0957039,
      "lon": -122.6838675,
      "timestamp": "2018-05-22T06:54:38Z",
      "version": 4,
      "changeset": 59170907,
      "user": "Adam Schneider",
      "uid": 5403394,
      "tags": {
        "mountain_pass": "yes",
        "name": "Bull Gap",
        "natural": "saddle"
      }
    },
    {
      "type": "node",
      "id": 5129727551,
      "lat": 42.282493,
      "lon": -122.5766334,
      "timestamp": "2017-09-26T01:27:51Z",
      "version": 1,
      "changeset": 52370590,
      "user": "JessAk71",
      "uid": 381909,
      "tags": {
        "name": "Willow-Witt Ranch",
        "tourism": "camp_site"
      }
    },
    {
      "type": "node",
      "id": 5198929170,
      "lat": 42.1083293,
      "lon": -122.771337,
      "timestamp": "2018-05-22T06:54:43Z",
      "version": 2,
      "changeset": 59170907,
      "user": "Adam Schneider",
      "uid": 5403394,
      "tags": {
        "mountain_pass": "yes",
        "name": "Wagner Glade Gap",
        "natural": "saddle"
      }
    },
    {
      "type": "node",
      "id": 5315740318,
      "lat": 42.5015439,
      "lon": -122.40518,
      "timestamp": "2018-01-02T03:39:29Z",
      "version": 1,
      "changeset": 55090857,
      "user": "123maps",
      "uid": 542575,
      "tags": {
        "fee": "yes",
        "name": "Fourbit Ford Campground",
        "tourism": "camp_site",
        "website": "https://www.fs.usda.gov/recarea/rogue-siskiyou/recreation/camping-cabins/recarea/?recid=69738&actid=29"
      }
    },
    {
      "type": "node",
      "id": 5315740319,
      "lat": 42.4891183,
      "lon": -122.3928225,
      "timestamp": "2018-01-02T03:39:29Z",
      "version": 1,
      "changeset": 55090857,
      "user": "123maps",
      "uid": 542575,
      "tags": {
        "natural": "cave_entrance"
      }
    },
    {
      "type": "node",
      "id": 5324697490,
      "lat": 42.3989069,
      "lon": -122.4162455,
      "timestamp": "2019-07-19T20:43:05Z",
      "version": 2,
      "changeset": 72445849,
      "user": "Adam Schneider",
      "uid": 5403394,
      "tags": {
        "name": "Jack Spring",
        "natural": "spring"
      }
    },
    {
      "type": "node",
      "id": 5512589303,
      "lat": 42.0505136,
      "lon": -122.806305,
      "timestamp": "2020-06-29T23:24:29Z",
      "version": 2,
      "changeset": 87316684,
      "user": "Adam Schneider",
      "uid": 5403394,
      "tags": {
        "alt_name": "Siskiyou Pass",
        "mountain_pass": "yes",
        "name": "Siskiyou Gap",
        "natural": "saddle"
      }
    },
    {
      "type": "node",
      "id": 5512590255,
      "lat": 42.0499778,
      "lon": -122.8563202,
      "timestamp": "2018-03-28T23:28:15Z",
      "version": 1,
      "changeset": 57616546,
      "user": "Adam Schneider",
      "uid": 5403394,
      "tags": {
        "name": "Wrangle Campground",
        "tourism": "camp_site"
      }
    },
    {
      "type": "node",
      "id": 5512624435,
      "lat": 42.0754705,
      "lon": -122.7141202,
      "timestamp": "2018-03-29T00:12:26Z",
      "version": 1,
      "changeset": 57616961,
      "user": "Adam Schneider",
      "uid": 5403394,
      "tags": {
        "name": "Mount Ashland Campground",
        "tourism": "camp_site"
      }
    },
    {
      "type": "node",
      "id": 5634261663,
      "lat": 42.1387118,
      "lon": -122.8036442,
      "timestamp": "2020-06-29T23:24:29Z",
      "version": 2,
      "changeset": 87316684,
      "user": "Adam Schneider",
      "uid": 5403394,
      "tags": {
        "natural": "spring"
      }
    },
    {
      "type": "node",
      "id": 5634265813,
      "lat": 42.1448076,
      "lon": -122.7486616,
      "timestamp": "2020-11-26T09:20:11Z",
      "version": 4,
      "changeset": 94826785,
      "user": "Richard",
      "uid": 165,
      "tags": {
        "name": "Horn Gap",
        "natural": "saddle"
      }
    },
    {
      "type": "node",
      "id": 5885891585,
      "lat": 42.1551487,
      "lon": -122.6290435,
      "timestamp": "2018-09-05T22:56:17Z",
      "version": 1,
      "changeset": 62326287,
      "user": "jorendg",
      "uid": 3865057,
      "tags": {
        "addr:housenumber": "5310",
        "addr:postcode": "97520",
        "addr:street": "Hwy 66",
        "email": "info@glenyanrvpark.com",
        "internet_access": "wlan",
        "name": "Glenyan RV Park & Campground",
        "phone": "5414881785",
        "tourism": "camp_site",
        "website": "http://www.glenyanrvpark.com"
      }
    },
    {
      "type": "node",
      "id": 6226593991,
      "lat": 42.3178008,
      "lon": -122.8609217,
      "timestamp": "2019-10-11T02:12:57Z",
      "version": 3,
      "changeset": 75539471,
      "user": "barnesda",
      "uid": 7755553,
      "tags": {
        "addr:housenumber": "251",
        "addr:street": "East Barnett Road",
        "brand": "WinCo Foods",
        "brand:wikidata": "Q8023592",
        "brand:wikipedia": "en:WinCo Foods",
        "name": "WinCo Foods",
        "opening_hours": "24/7",
        "phone": "+1 541-245-3555",
        "shop": "supermarket",
        "website": "https://www.wincofoods.com/"
      }
    },
    {
      "type": "node",
      "id": 6355630683,
      "lat": 42.3126615,
      "lon": -122.9673732,
      "timestamp": "2021-11-26T04:50:44Z",
      "version": 2,
      "changeset": 114245458,
      "user": "Timothy Smith",
      "uid": 115918,
      "tags": {
        "amenity": "drinking_water"
      }
    },
    {
      "type": "node",
      "id": 6355769867,
      "lat": 42.3161531,
      "lon": -122.8635455,
      "timestamp": "2019-03-23T01:51:58Z",
      "version": 1,
      "changeset": 68432527,
      "user": "Timothy Smith",
      "uid": 115918,
      "tags": {
        "brand": "Circle K",
        "brand:wikidata": "Q3268010",
        "brand:wikipedia": "en:Circle K",
        "name": "Circle K",
        "shop": "convenience"
      }
    },
    {
      "type": "node",
      "id": 6398318962,
      "lat": 42.1832504,
      "lon": -122.4489883,
      "timestamp": "2019-04-11T12:31:22Z",
      "version": 1,
      "changeset": 69111741,
      "user": "cepesko",
      "uid": 577936,
      "tags": {
        "name": "Wildcat Camping Area",
        "tourism": "camp_site"
      }
    },
    {
      "type": "node",
      "id": 6398319091,
      "lat": 42.1688015,
      "lon": -122.4646975,
      "timestamp": "2019-04-11T12:31:23Z",
      "version": 1,
      "changeset": 69111741,
      "user": "cepesko",
      "uid": 577936,
      "tags": {
        "name": "Pacific Crest Trail walk-in campsite",
        "tourism": "camp_site"
      }
    },
    {
      "type": "node",
      "id": 6465723849,
      "lat": 42.3196866,
      "lon": -123.0001972,
      "timestamp": "2020-03-17T03:14:44Z",
      "version": 2,
      "changeset": 82280733,
      "user": "Adam Schneider",
      "uid": 5403394,
      "tags": {
        "amenity": "shelter",
        "leisure": "wildlife_hide"
      }
    },
    {
      "type": "node",
      "id": 6632241731,
      "lat": 42.4072901,
      "lon": -122.3918822,
      "timestamp": "2019-07-19T20:43:05Z",
      "version": 1,
      "changeset": 72445849,
      "user": "Adam Schneider",
      "uid": 5403394,
      "tags": {
        "natural": "spring"
      }
    },
    {
      "type": "node",
      "id": 6940744506,
      "lat": 42.3226107,
      "lon": -122.9008446,
      "timestamp": "2019-11-06T04:47:12Z",
      "version": 2,
      "changeset": 76677067,
      "user": "barnesda",
      "uid": 7755553,
      "tags": {
        "addr:housenumber": "2347",
        "addr:street": "West Main Street",
        "name": "Sherm's Thunderbird",
        "opening_hours": "06:00-22:00",
        "phone": "+1 541-779-4274",
        "shop": "supermarket",
        "website": "https://www.shermsmarkets.com/"
      }
    },
    {
      "type": "node",
      "id": 6974978409,
      "lat": 42.1844422,
      "lon": -122.7174781,
      "timestamp": "2019-11-13T20:51:50Z",
      "version": 1,
      "changeset": 77038085,
      "user": "123maps",
      "uid": 542575,
      "tags": {
        "amenity": "drinking_water"
      }
    },
    {
      "type": "node",
      "id": 6991254421,
      "lat": 42.2097629,
      "lon": -122.3753394,
      "timestamp": "2019-11-20T01:29:42Z",
      "version": 1,
      "changeset": 77296687,
      "user": "kylebarron",
      "uid": 8122137,
      "tags": {
        "amenity": "drinking_water"
      }
    },
    {
      "type": "node",
      "id": 7300987736,
      "lat": 42.3259172,
      "lon": -123.0245288,
      "timestamp": "2020-03-18T06:01:45Z",
      "version": 2,
      "changeset": 82331195,
      "user": "Adam Schneider",
      "uid": 5403394,
      "tags": {
        "amenity": "shelter",
        "name": "Jackson Ridge Shelter",
        "tourism": "viewpoint"
      }
    },
    {
      "type": "node",
      "id": 7305061742,
      "lat": 42.3289462,
      "lon": -123.0126292,
      "timestamp": "2020-03-18T06:01:45Z",
      "version": 1,
      "changeset": 82331195,
      "user": "Adam Schneider",
      "uid": 5403394,
      "tags": {
        "amenity": "shelter",
        "name": "Dick Ames Shelter",
        "tourism": "viewpoint"
      }
    },
    {
      "type": "node",
      "id": 7305061744,
      "lat": 42.3230036,
      "lon": -123.0101824,
      "timestamp": "2020-03-18T06:01:45Z",
      "version": 1,
      "changeset": 82331195,
      "user": "Adam Schneider",
      "uid": 5403394,
      "tags": {
        "amenity": "shelter",
        "name": "Cascade Crest Vista",
        "tourism": "viewpoint"
      }
    },
    {
      "type": "node",
      "id": 7370332674,
      "lat": 42.3122214,
      "lon": -122.8778744,
      "timestamp": "2020-04-07T21:35:23Z",
      "version": 3,
      "changeset": 83218796,
      "user": "John-Michael Glenn",
      "uid": 9143862,
      "tags": {
        "addr:city": "Medford",
        "addr:housenumber": "707",
        "addr:postcode": "97501",
        "addr:state": "OR",
        "addr:street": "West Stewart Avenue",
        "brand": "FastBreak",
        "name": "FastBreak",
        "opening_hours": "Sa-Su 06:00-22:00",
        "shop": "convenience",
        "wheelchair": "yes"
      }
    },
    {
      "type": "node",
      "id": 7370332675,
      "lat": 42.3790414,
      "lon": -122.9076402,
      "timestamp": "2020-04-07T21:35:23Z",
      "version": 3,
      "changeset": 83218796,
      "user": "John-Michael Glenn",
      "uid": 9143862,
      "tags": {
        "addr:city": "Central Point",
        "addr:housenumber": "1125",
        "addr:postcode": "97502",
        "addr:state": "OR",
        "addr:street": "East Pine Street",
        "brand": "FastBreak",
        "name": "FastBreak",
        "opening_hours": "Sa-Su 06:00-22:00",
        "shop": "convenience",
        "wheelchair": "yes"
      }
    },
    {
      "type": "node",
      "id": 7504291949,
      "lat": 42.0535403,
      "lon": -122.5077057,
      "timestamp": "2020-06-24T07:25:11Z",
      "version": 2,
      "changeset": 87068635,
      "user": "Adam Schneider",
      "uid": 5403394,
      "tags": {
        "natural": "spring"
      }
    },
    {
      "type": "node",
      "id": 7668064981,
      "lat": 42.0401032,
      "lon": -122.8900529,
      "timestamp": "2020-06-29T23:24:27Z",
      "version": 1,
      "changeset": 87316684,
      "user": "Adam Schneider",
      "uid": 5403394,
      "tags": {
        "name": "Dutchman Spring",
        "natural": "spring"
      }
    },
    {
      "type": "node",
      "id": 7686057136,
      "lat": 42.3783374,
      "lon": -122.9006911,
      "timestamp": "2020-07-06T00:13:36Z",
      "version": 1,
      "changeset": 87569162,
      "user": "Timothy Smith",
      "uid": 115918,
      "tags": {
        "name": "Food Mart",
        "shop": "convenience"
      }
    },
    {
      "type": "node",
      "id": 7866848621,
      "lat": 42.4263344,
      "lon": -122.851074,
      "timestamp": "2020-09-02T03:16:45Z",
      "version": 1,
      "changeset": 90271567,
      "user": "Gary Clement",
      "uid": 11746102,
      "tags": {
        "addr:city": "White City",
        "addr:housenumber": "7571",
        "addr:postcode": "97503",
        "addr:state": "OR",
        "addr:street": "Crater Lake Highway",
        "addr:unit": "Bldg #1",
        "brand": "Grocery Outlet",
        "brand:wikidata": "Q5609934",
        "brand:wikipedia": "en:Grocery Outlet",
        "name": "Grocery Outlet",
        "official_name": "Grocery Outlet Bargain Market",
        "shop": "supermarket"
      }
    },
    {
      "type": "node",
      "id": 7880326717,
      "lat": 42.381349,
      "lon": -122.347214,
      "timestamp": "2020-09-06T05:06:19Z",
      "version": 1,
      "changeset": 90469430,
      "user": "123maps",
      "uid": 542575,
      "tags": {
        "name": "C7",
        "tourism": "camp_site"
      }
    },
    {
      "type": "node",
      "id": 7880342976,
      "lat": 42.3808008,
      "lon": -122.3469634,
      "timestamp": "2020-09-06T05:06:18Z",
      "version": 1,
      "changeset": 90469430,
      "user": "123maps",
      "uid": 542575,
      "tags": {
        "name": "C6",
        "tourism": "camp_site"
      }
    },
    {
      "type": "node",
      "id": 8280001343,
      "lat": 42.3288914,
      "lon": -123.0097097,
      "timestamp": "2020-12-31T23:37:00Z",
      "version": 1,
      "changeset": 96753736,
      "user": "123maps",
      "uid": 542575,
      "tags": {
        "natural": "cave_entrance"
      }
    },
    {
      "type": "node",
      "id": 8307081491,
      "lat": 42.3315959,
      "lon": -122.4499664,
      "timestamp": "2021-12-15T00:47:42Z",
      "version": 2,
      "changeset": 114943975,
      "user": "Adam Schneider",
      "uid": 5403394,
      "tags": {
        "alt_name": "Dead Indian Soda Springs",
        "name": "Latgawa Soda Springs",
        "natural": "spring"
      }
    },
    {
      "type": "node",
      "id": 8711315484,
      "lat": 42.266798,
      "lon": -122.4193489,
      "timestamp": "2021-05-08T05:11:48Z",
      "version": 1,
      "changeset": 104349495,
      "user": "123maps",
      "uid": 542575,
      "tags": {
        "tourism": "camp_site"
      }
    },
    {
      "type": "node",
      "id": 8711320466,
      "lat": 42.3051966,
      "lon": -122.3637319,
      "timestamp": "2021-05-08T05:11:49Z",
      "version": 1,
      "changeset": 104349495,
      "user": "123maps",
      "uid": 542575,
      "tags": {
        "natural": "spring"
      }
    },
    {
      "type": "node",
      "id": 8855105337,
      "lat": 42.0639712,
      "lon": -122.5481817,
      "timestamp": "2021-06-21T19:51:08Z",
      "version": 1,
      "changeset": 106735183,
      "user": "123maps",
      "uid": 542575,
      "tags": {
        "tourism": "camp_site"
      }
    },
    {
      "type": "node",
      "id": 8855106163,
      "lat": 42.0596358,
      "lon": -122.5249829,
      "timestamp": "2021-06-21T19:51:11Z",
      "version": 1,
      "changeset": 106735183,
      "user": "123maps",
      "uid": 542575,
      "tags": {
        "tourism": "camp_site"
      }
    },
    {
      "type": "node",
      "id": 8870861481,
      "lat": 42.1640081,
      "lon": -122.4627117,
      "timestamp": "2021-06-28T02:43:46Z",
      "version": 1,
      "changeset": 107055705,
      "user": "123maps",
      "uid": 542575,
      "tags": {
        "amenity": "drinking_water"
      }
    },
    {
      "type": "node",
      "id": 8937058158,
      "lat": 42.2035671,
      "lon": -122.7004347,
      "timestamp": "2021-07-21T01:21:16Z",
      "version": 1,
      "changeset": 108343257,
      "user": "cbhackmeyer",
      "uid": 2607010,
      "tags": {
        "amenity": "drinking_water",
        "bottle": "yes",
        "indoor": "no"
      }
    },
    {
      "type": "node",
      "id": 8940029087,
      "lat": 42.2022576,
      "lon": -122.7118232,
      "timestamp": "2021-07-21T23:37:00Z",
      "version": 1,
      "changeset": 108390474,
      "user": "cbhackmeyer",
      "uid": 2607010,
      "tags": {
        "amenity": "drinking_water",
        "bottle": "no",
        "indoor": "no"
      }
    },
    {
      "type": "node",
      "id": 8943099708,
      "lat": 42.197138,
      "lon": -122.7154165,
      "timestamp": "2021-07-23T04:15:58Z",
      "version": 1,
      "changeset": 108459033,
      "user": "cbhackmeyer",
      "uid": 2607010,
      "tags": {
        "amenity": "drinking_water",
        "bottle": "no",
        "indoor": "no"
      }
    },
    {
      "type": "node",
      "id": 8943099709,
      "lat": 42.1971418,
      "lon": -122.7154111,
      "timestamp": "2021-07-23T04:15:58Z",
      "version": 1,
      "changeset": 108459033,
      "user": "cbhackmeyer",
      "uid": 2607010,
      "tags": {
        "amenity": "drinking_water",
        "bottle": "no",
        "indoor": "no"
      }
    },
    {
      "type": "node",
      "id": 8943099710,
      "lat": 42.1971381,
      "lon": -122.7154045,
      "timestamp": "2021-07-23T04:15:58Z",
      "version": 1,
      "changeset": 108459033,
      "user": "cbhackmeyer",
      "uid": 2607010,
      "tags": {
        "amenity": "drinking_water",
        "bottle": "no",
        "indoor": "no"
      }
    },
    {
      "type": "node",
      "id": 8943099712,
      "lat": 42.1940454,
      "lon": -122.7095442,
      "timestamp": "2021-07-23T04:15:58Z",
      "version": 1,
      "changeset": 108459033,
      "user": "cbhackmeyer",
      "uid": 2607010,
      "tags": {
        "amenity": "shelter",
        "shelter_type": "public_transport"
      }
    },
    {
      "type": "node",
      "id": 8943099713,
      "lat": 42.1971345,
      "lon": -122.7154108,
      "timestamp": "2021-07-23T04:15:58Z",
      "version": 1,
      "changeset": 108459033,
      "user": "cbhackmeyer",
      "uid": 2607010,
      "tags": {
        "amenity": "drinking_water",
        "bottle": "no",
        "indoor": "no"
      }
    },
    {
      "type": "node",
      "id": 8943099714,
      "lat": 42.1970351,
      "lon": -122.715413,
      "timestamp": "2021-07-23T04:15:58Z",
      "version": 1,
      "changeset": 108459033,
      "user": "cbhackmeyer",
      "uid": 2607010,
      "tags": {
        "amenity": "drinking_water",
        "bottle": "yes",
        "indoor": "no"
      }
    },
    {
      "type": "node",
      "id": 8947760377,
      "lat": 42.1929409,
      "lon": -122.7064348,
      "timestamp": "2021-07-25T04:51:33Z",
      "version": 1,
      "changeset": 108552105,
      "user": "cbhackmeyer",
      "uid": 2607010,
      "tags": {
        "amenity": "shelter",
        "shelter_type": "public_transport"
      }
    },
    {
      "type": "way",
      "id": 168720854,
      "timestamp": "2021-08-08T20:47:54Z",
      "version": 3,
      "changeset": 109362756,
      "user": "Park Walker",
      "uid": 13706046,
      "center": {
        "lat": 42.1988106,
        "lon": -122.7116423
      },
      "nodes": [],
      "tags": {
        "addr:city": "Ashland",
        "addr:housenumber": "237",
        "addr:postcode": "97520",
        "addr:state": "OR",
        "addr:street": "N First St",
        "building": "yes",
        "name": "Ashland Food Co-op",
        "phone": "+1 541 482 2237",
        "shop": "supermarket",
        "website": "https://ashlandfood.coop"
      }
    },
    {
      "type": "way",
      "id": 168720901,
      "timestamp": "2020-03-31T02:20:51Z",
      "version": 7,
      "changeset": 82848893,
      "user": "Timothy Smith",
      "uid": 115918,
      "center": {
        "lat": 42.1936185,
        "lon": -122.7062742
      },
      "nodes": [],
      "tags": {
        "addr:city": "Ashland",
        "addr:housenumber": "585",
        "addr:postcode": "97520",
        "addr:state": "OR",
        "addr:street": "Siskiyou Boulevard",
        "brand": "Safeway",
        "brand:wikidata": "Q1508234",
        "brand:wikipedia": "en:Safeway Inc.",
        "building": "yes",
        "name": "Safeway",
        "shop": "supermarket",
        "website": "https://local.safeway.com/safeway/or/ashland/585-siskiyou-blvd.html"
      }
    },
    {
      "type": "way",
      "id": 168720912,
      "timestamp": "2012-06-23T14:13:54Z",
      "version": 1,
      "changeset": 11989381,
      "user": "oldtopos",
      "uid": 169004,
      "center": {
        "lat": 42.1970642,
        "lon": -122.7134576
      },
      "nodes": [],
      "tags": {
        "addr:housenumber": "110",
        "building": "yes",
        "name": "Stop n Shop Market",
        "shop": "convenience"
      }
    },
    {
      "type": "way",
      "id": 177842460,
      "timestamp": "2012-08-25T13:43:11Z",
      "version": 1,
      "changeset": 12855549,
      "user": "123maps",
      "uid": 542575,
      "center": {
        "lat": 42.3666915,
        "lon": -122.9075591
      },
      "nodes": [],
      "tags": {
        "amenity": "shelter"
      }
    },
    {
      "type": "way",
      "id": 187756729,
      "timestamp": "2019-04-14T18:53:16Z",
      "version": 7,
      "changeset": 69211165,
      "user": "maxerickson",
      "uid": 360392,
      "center": {
        "lat": 42.3670568,
        "lon": -122.8596358
      },
      "nodes": [],
      "tags": {
        "addr:city": "Medford",
        "addr:country": "US",
        "addr:housenumber": "3615",
        "addr:postcode": "97504",
        "addr:state": "OR",
        "addr:street": "Crater Lake Highway",
        "brand": "Walmart",
        "brand:wikidata": "Q483551",
        "brand:wikipedia": "en:Walmart",
        "building": "retail",
        "name": "Walmart Supercenter",
        "opening_hours": "Mo-Su 06:00-24:00",
        "operator": "Walmart",
        "operator:wikidata": "Q483551",
        "operator:wikipedia": "en:Walmart",
        "phone": "+1-541-227-5396",
        "ref:walmart": "5839",
        "shop": "supermarket",
        "website": "https://www.walmart.com/store/5839/medford-or/whats-new"
      }
    },
    {
      "type": "way",
      "id": 205008336,
      "timestamp": "2017-12-24T18:26:13Z",
      "version": 2,
      "changeset": 54893255,
      "user": "Timothy Smith",
      "uid": 115918,
      "center": {
        "lat": 42.202419,
        "lon": -122.7186715
      },
      "nodes": [],
      "tags": {
        "building": "yes",
        "name": "Minute Market",
        "shop": "convenience"
      }
    },
    {
      "type": "way",
      "id": 205021003,
      "timestamp": "2021-08-01T02:14:02Z",
      "version": 4,
      "changeset": 108960834,
      "user": "Timothy Smith",
      "uid": 115918,
      "center": {
        "lat": 42.1867937,
        "lon": -122.6709386
      },
      "nodes": [],
      "tags": {
        "brand": "Albertsons",
        "brand:wikidata": "Q2831861",
        "brand:wikipedia": "en:Albertsons",
        "building": "yes",
        "name": "Albertsons",
        "shop": "supermarket"
      }
    },
    {
      "type": "way",
      "id": 205150532,
      "timestamp": "2019-12-29T05:40:57Z",
      "version": 3,
      "changeset": 78971216,
      "user": "Adam Schneider",
      "uid": 5403394,
      "center": {
        "lat": 42.1840415,
        "lon": -122.6729169
      },
      "nodes": [],
      "tags": {
        "building": "retail",
        "name": "Shop N Kart",
        "shop": "supermarket"
      }
    },
    {
      "type": "way",
      "id": 206811677,
      "timestamp": "2019-02-15T07:19:53Z",
      "version": 4,
      "changeset": 67217860,
      "user": "b-jazz",
      "uid": 5800005,
      "center": {
        "lat": 42.3626208,
        "lon": -122.8587289
      },
      "nodes": [],
      "tags": {
        "addr:city": "Medford",
        "addr:housenumber": "3169",
        "addr:postcode": "97501",
        "addr:state": "OR",
        "addr:street": "Crater Lake Highway",
        "brand": "Safeway",
        "brand:wikidata": "Q1508234",
        "brand:wikipedia": "en:Safeway Inc.",
        "building": "yes",
        "name": "Safeway",
        "opening_hours": "06:00-24:00",
        "phone": "+1-541-774-4340",
        "ref": "1643",
        "shop": "supermarket",
        "website": "https://www.safeway.com/"
      }
    },
    {
      "type": "way",
      "id": 220365627,
      "timestamp": "2021-09-16T02:30:33Z",
      "version": 5,
      "changeset": 111267398,
      "user": "Timothy Smith",
      "uid": 115918,
      "center": {
        "lat": 42.2436369,
        "lon": -122.7876712
      },
      "nodes": [],
      "tags": {
        "addr:city": "Talent",
        "addr:housenumber": "215",
        "addr:postcode": "97540",
        "addr:street": "E Wagner Road;E Wagner Rd",
        "brand": "Ray's Food Place",
        "brand:wikidata": "Q108163041",
        "building": "yes",
        "name": "Ray's Food Place",
        "old_name": "Tark's Market",
        "shop": "supermarket"
      }
    },
    {
      "type": "way",
      "id": 225875273,
      "timestamp": "2013-06-16T03:55:59Z",
      "version": 1,
      "changeset": 16570803,
      "user": "Aaron Lidman",
      "uid": 53073,
      "center": {
        "lat": 42.2791165,
        "lon": -122.8224815
      },
      "nodes": [],
      "tags": {
        "building": "yes",
        "name": "Ray's",
        "shop": "supermarket"
      }
    },
    {
      "type": "way",
      "id": 262970436,
      "timestamp": "2020-03-17T03:47:41Z",
      "version": 5,
      "changeset": 82281689,
      "user": "mapman44",
      "uid": 2888253,
      "center": {
        "lat": 42.3518069,
        "lon": -122.8708711
      },
      "nodes": [],
      "tags": {
        "addr:housename": "2424",
        "addr:street": "Crater Lake Highway",
        "brand": "Fred Meyer",
        "brand:wikidata": "Q5495932",
        "brand:wikipedia": "en:Fred Meyer",
        "building": "yes",
        "name": "Fred Meyer",
        "shop": "supermarket",
        "website": "https://www.fredmeyer.com/"
      }
    },
    {
      "type": "way",
      "id": 300587240,
      "timestamp": "2020-04-07T21:35:23Z",
      "version": 4,
      "changeset": 83218796,
      "user": "John-Michael Glenn",
      "uid": 9143862,
      "center": {
        "lat": 42.1859002,
        "lon": -122.664517
      },
      "nodes": [],
      "tags": {
        "addr:city": "Ashland",
        "addr:housenumber": "2495",
        "addr:postcode": "97520",
        "addr:state": "OR",
        "addr:street": "Ashland Street",
        "brand": "FastBreak",
        "building": "commercial",
        "name": "FastBreak",
        "shop": "convenience"
      }
    },
    {
      "type": "way",
      "id": 300587285,
      "timestamp": "2020-04-07T21:35:23Z",
      "version": 6,
      "changeset": 83218796,
      "user": "John-Michael Glenn",
      "uid": 9143862,
      "center": {
        "lat": 42.1856967,
        "lon": -122.6680877
      },
      "nodes": [],
      "tags": {
        "addr:city": "Ashland",
        "addr:housenumber": "2371",
        "addr:postcode": "97520",
        "addr:state": "OR",
        "addr:street": "Ashland Street",
        "brand": "FastBreak",
        "building": "commercial",
        "name": "FastBreak",
        "shop": "convenience"
      }
    },
    {
      "type": "way",
      "id": 377576472,
      "timestamp": "2015-10-30T06:51:17Z",
      "version": 1,
      "changeset": 34965330,
      "user": "xpingfighter",
      "uid": 3322024,
      "center": {
        "lat": 42.203514,
        "lon": -122.700043
      },
      "nodes": [],
      "tags": {
        "amenity": "shelter"
      }
    },
    {
      "type": "way",
      "id": 424115873,
      "timestamp": "2016-06-10T15:51:43Z",
      "version": 1,
      "changeset": 39933222,
      "user": "Dami3585",
      "uid": 4097453,
      "center": {
        "lat": 42.4721387,
        "lon": -122.7995778
      },
      "nodes": [],
      "tags": {
        "building": "yes",
        "name": "Little Butte Market",
        "shop": "supermarket"
      }
    },
    {
      "type": "way",
      "id": 514317101,
      "timestamp": "2017-08-09T19:36:29Z",
      "version": 1,
      "changeset": 50982196,
      "user": "Palolo",
      "uid": 385046,
      "center": {
        "lat": 42.4402315,
        "lon": -122.889673
      },
      "nodes": [],
      "tags": {
        "amenity": "shelter",
        "building": "yes"
      }
    },
    {
      "type": "way",
      "id": 550355412,
      "timestamp": "2018-01-02T03:39:31Z",
      "version": 1,
      "changeset": 55090857,
      "user": "123maps",
      "uid": 542575,
      "center": {
        "lat": 42.498101,
        "lon": -122.4182268
      },
      "nodes": [],
      "tags": {
        "name": "Whisky Springs Campground",
        "tourism": "camp_site"
      }
    },
    {
      "type": "way",
      "id": 555330899,
      "timestamp": "2019-04-22T00:00:01Z",
      "version": 3,
      "changeset": 69437093,
      "user": "maxerickson",
      "uid": 360392,
      "center": {
        "lat": 42.3104644,
        "lon": -122.8564633
      },
      "nodes": [],
      "tags": {
        "addr:city": "Medford",
        "addr:country": "US",
        "addr:housenumber": "1360",
        "addr:postcode": "97501",
        "addr:state": "OR",
        "addr:street": "Center Drive",
        "brand": "Walmart",
        "brand:wikidata": "Q483551",
        "brand:wikipedia": "en:Walmart",
        "building": "retail",
        "name": "Walmart Supercenter",
        "opening_hours": "Mo-Su 06:00-24:00",
        "operator": "Walmart",
        "operator:wikidata": "Q483551",
        "operator:wikipedia": "en:Walmart",
        "phone": "+1-541-772-2060",
        "ref:walmart": "2069",
        "shop": "supermarket",
        "website": "https://www.walmart.com/store/2069/medford-or/whats-new"
      }
    },
    {
      "type": "way",
      "id": 555331775,
      "timestamp": "2019-09-27T19:33:16Z",
      "version": 2,
      "changeset": 75023847,
      "user": "Timothy Smith",
      "uid": 115918,
      "center": {
        "lat": 42.313253,
        "lon": -122.8632186
      },
      "nodes": [],
      "tags": {
        "building": "yes",
        "name": "Old 99",
        "shop": "supermarket"
      }
    },
    {
      "type": "way",
      "id": 560426078,
      "timestamp": "2019-07-19T20:43:05Z",
      "version": 2,
      "changeset": 72445849,
      "user": "Adam Schneider",
      "uid": 5403394,
      "center": {
        "lat": 42.4056818,
        "lon": -122.3908042
      },
      "nodes": [],
      "tags": {
        "name": "Willow Prairie Horse Camp",
        "tourism": "camp_site",
        "website": "https://www.recreation.gov/camping/willow-prairie-horsecamp/r/campgroundDetails.do?contractCode=NRSO&parkId=74117"
      }
    },
    {
      "type": "way",
      "id": 569764089,
      "timestamp": "2018-03-14T22:11:40Z",
      "version": 1,
      "changeset": 57192389,
      "user": "Adam Schneider",
      "uid": 5403394,
      "center": {
        "lat": 42.3779744,
        "lon": -122.3605918
      },
      "nodes": [],
      "tags": {
        "name": "North Fork Campground",
        "tourism": "camp_site"
      }
    },
    {
      "type": "way",
      "id": 602010857,
      "timestamp": "2018-06-26T09:06:55Z",
      "version": 1,
      "changeset": 60174683,
      "user": "irasesu",
      "uid": 711265,
      "center": {
        "lat": 42.357307,
        "lon": -122.8919894
      },
      "nodes": [],
      "tags": {
        "amenity": "shelter"
      }
    },
    {
      "type": "way",
      "id": 604217245,
      "timestamp": "2018-07-02T10:42:40Z",
      "version": 1,
      "changeset": 60343940,
      "user": "irasesu1",
      "uid": 981777,
      "center": {
        "lat": 42.3446492,
        "lon": -122.8324875
      },
      "nodes": [],
      "tags": {
        "amenity": "shelter",
        "building": "yes"
      }
    },
    {
      "type": "way",
      "id": 606034172,
      "timestamp": "2018-07-08T10:56:43Z",
      "version": 1,
      "changeset": 60506516,
      "user": "irasesu",
      "uid": 711265,
      "center": {
        "lat": 42.4436061,
        "lon": -122.8384122
      },
      "nodes": [],
      "tags": {
        "amenity": "shelter",
        "building": "yes"
      }
    },
    {
      "type": "way",
      "id": 606269799,
      "timestamp": "2018-07-09T07:29:10Z",
      "version": 1,
      "changeset": 60527602,
      "user": "irasesu",
      "uid": 711265,
      "center": {
        "lat": 42.4406793,
        "lon": -122.8374495
      },
      "nodes": [],
      "tags": {
        "amenity": "shelter",
        "building": "yes"
      }
    },
    {
      "type": "way",
      "id": 606281420,
      "timestamp": "2018-07-09T07:55:05Z",
      "version": 1,
      "changeset": 60528560,
      "user": "irasesu",
      "uid": 711265,
      "center": {
        "lat": 42.4408011,
        "lon": -122.8392565
      },
      "nodes": [],
      "tags": {
        "amenity": "shelter",
        "building": "yes"
      }
    },
    {
      "type": "way",
      "id": 606290063,
      "timestamp": "2018-07-09T08:11:35Z",
      "version": 1,
      "changeset": 60529202,
      "user": "irasesu",
      "uid": 711265,
      "center": {
        "lat": 42.4424389,
        "lon": -122.8409685
      },
      "nodes": [],
      "tags": {
        "amenity": "shelter",
        "building": "yes"
      }
    },
    {
      "type": "way",
      "id": 606292951,
      "timestamp": "2018-07-09T08:20:49Z",
      "version": 1,
      "changeset": 60529596,
      "user": "irasesu",
      "uid": 711265,
      "center": {
        "lat": 42.4423537,
        "lon": -122.8389399
      },
      "nodes": [],
      "tags": {
        "amenity": "shelter",
        "building": "yes"
      }
    },
    {
      "type": "way",
      "id": 663943461,
      "timestamp": "2019-01-16T20:36:12Z",
      "version": 1,
      "changeset": 66375237,
      "user": "Timothy Smith",
      "uid": 115918,
      "center": {
        "lat": 42.3380276,
        "lon": -122.8607249
      },
      "nodes": [],
      "tags": {
        "building": "yes",
        "name": "Minute Market",
        "shop": "convenience"
      }
    },
    {
      "type": "way",
      "id": 665249055,
      "timestamp": "2021-04-22T20:58:11Z",
      "version": 4,
      "changeset": 103437518,
      "user": "archpdx",
      "uid": 12493764,
      "center": {
        "lat": 42.2797894,
        "lon": -122.8207886
      },
      "nodes": [],
      "tags": {
        "addr:city": "Phoenix",
        "addr:housenumber": "730",
        "addr:postcode": "97535",
        "addr:state": "OR",
        "addr:street": "North Main Street",
        "brand": "Circle K",
        "brand:wikidata": "Q3268010",
        "brand:wikipedia": "en:Circle K",
        "building": "yes",
        "name": "Circle K",
        "opening_hours": "24/7",
        "phone": "+1-541-535-6708",
        "shop": "convenience",
        "website": "https://www.circlek.com/store-locator/US/phoenix/730-main-st/2655738/"
      }
    },
    {
      "type": "way",
      "id": 665366955,
      "timestamp": "2019-06-06T16:16:31Z",
      "version": 2,
      "changeset": 70995688,
      "user": "mapman44",
      "uid": 2888253,
      "center": {
        "lat": 42.3688429,
        "lon": -122.8909991
      },
      "nodes": [],
      "tags": {
        "amenity": "shelter",
        "building": "yes",
        "layer": "1"
      }
    },
    {
      "type": "way",
      "id": 665768312,
      "timestamp": "2019-09-28T03:17:57Z",
      "version": 2,
      "changeset": 75030902,
      "user": "Timothy Smith",
      "uid": 115918,
      "center": {
        "lat": 42.1865064,
        "lon": -122.6930724
      },
      "nodes": [],
      "tags": {
        "addr:city": "Ashland",
        "addr:housenumber": "1281",
        "addr:state": "OR",
        "addr:street": "Siskiyou Boulevard",
        "brand": "7-Eleven",
        "brand:wikidata": "Q259340",
        "brand:wikipedia": "en:7-Eleven",
        "building": "yes",
        "name": "7-Eleven",
        "shop": "convenience"
      }
    },
    {
      "type": "way",
      "id": 683766145,
      "timestamp": "2019-12-28T12:37:46Z",
      "version": 2,
      "changeset": 78954289,
      "user": "Vivian Hellyer",
      "uid": 10484301,
      "center": {
        "lat": 42.4691555,
        "lon": -122.8138711
      },
      "nodes": [],
      "tags": {
        "addr:city": "Eagle Point",
        "addr:country": "US",
        "addr:housenumber": "11500",
        "addr:postcode": "97524",
        "addr:state": "OR",
        "addr:street": "Hannon Road",
        "brand": "Walmart",
        "brand:wikidata": "Q483551",
        "brand:wikipedia": "en:Walmart",
        "building": "retail",
        "name": "Walmart Supercenter",
        "opening_hours": "Mo-Su 06:00-24:00",
        "operator": "Walmart",
        "operator:wikidata": "Q483551",
        "operator:wikipedia": "en:Walmart",
        "payment:american_express": "yes",
        "payment:cheque": "yes",
        "payment:discover_card": "yes",
        "payment:mastercard": "yes",
        "payment:notes": "yes",
        "payment:visa": "yes",
        "phone": "+1-541-826-2210",
        "ref:walmart": "5424",
        "shop": "supermarket",
        "website": "https://www.walmart.com/store/5424/eagle-point-or/whats-new"
      }
    },
    {
      "type": "way",
      "id": 708318605,
      "timestamp": "2020-06-25T02:01:40Z",
      "version": 3,
      "changeset": 87108748,
      "user": "Thierry Caro",
      "uid": 4963630,
      "center": {
        "lat": 42.069691,
        "lon": -123.0120075
      },
      "nodes": [],
      "tags": {
        "building": "cabin",
        "name": "Squaw Peak Lookout",
        "tourism": "wilderness_hut",
        "website": "https://www.fs.usda.gov/recarea/rogue-siskiyou/recarea/?recid=70362",
        "wikidata": "Q86930847",
        "wikipedia": "fr:Squaw Peak Lookout"
      }
    },
    {
      "type": "way",
      "id": 750987377,
      "timestamp": "2021-07-25T03:39:10Z",
      "version": 2,
      "changeset": 108551454,
      "user": "archpdx",
      "uid": 12493764,
      "center": {
        "lat": 42.3058414,
        "lon": -122.8780907
      },
      "nodes": [],
      "tags": {
        "building": "yes",
        "name": "Country store",
        "shop": "convenience"
      }
    },
    {
      "type": "way",
      "id": 757440737,
      "timestamp": "2019-12-20T22:01:02Z",
      "version": 1,
      "changeset": 78700441,
      "user": "Vivian Hellyer",
      "uid": 10484301,
      "center": {
        "lat": 42.4663503,
        "lon": -122.8129698
      },
      "nodes": [],
      "tags": {
        "addr:city": "Eagle Point",
        "addr:housenumber": "10668",
        "addr:postcode": "97524",
        "addr:street": "Crater Lake Highway",
        "building": "yes",
        "name": "Eagles Market and Gas",
        "opening_hours": "24/7",
        "shop": "convenience"
      }
    },
    {
      "type": "way",
      "id": 757447555,
      "timestamp": "2019-12-23T00:54:44Z",
      "version": 3,
      "changeset": 78747399,
      "user": "7596ff",
      "uid": 9541584,
      "center": {
        "lat": 42.4711079,
        "lon": -122.8111267
      },
      "nodes": [],
      "tags": {
        "addr:city": "Eagle Point",
        "addr:housenumber": "11100",
        "addr:postcode": "97524",
        "addr:street": "Crater Lake Highway",
        "building": "yes",
        "contact:facebook": "https://www.facebook.com/pages/category/Grocery-Store/Rays-Food-Place-1672730386345938/",
        "contact:fax": "1-541-826-7992",
        "contact:phone": "1-541-826-5925",
        "contact:website": "https://www.gorays.com",
        "name": "Ray's Food Place",
        "opening_hours": "Mo-Su 06:00-22:00",
        "payment:cash": "yes",
        "payment:mastercard": "yes",
        "payment:visa": "yes",
        "shop": "supermarket"
      }
    },
    {
      "type": "way",
      "id": 791454102,
      "timestamp": "2021-08-21T16:59:44Z",
      "version": 3,
      "changeset": 110035719,
      "user": "Timothy Smith",
      "uid": 115918,
      "center": {
        "lat": 42.1849494,
        "lon": -122.6677242
      },
      "nodes": [],
      "tags": {
        "brand": "ampm",
        "brand:wikidata": "Q306960",
        "brand:wikipedia": "en:Ampm",
        "building": "yes",
        "name": "ampm",
        "shop": "convenience"
      }
    },
    {
      "type": "way",
      "id": 801420162,
      "timestamp": "2020-05-07T22:46:38Z",
      "version": 1,
      "changeset": 84856053,
      "user": "barnesda",
      "uid": 7755553,
      "center": {
        "lat": 42.3135523,
        "lon": -122.9591036
      },
      "nodes": [],
      "tags": {
        "amenity": "shelter",
        "building": "yes",
        "shelter_type": "picnic_shelter"
      }
    },
    {
      "type": "way",
      "id": 801420163,
      "timestamp": "2020-05-07T22:46:38Z",
      "version": 1,
      "changeset": 84856053,
      "user": "barnesda",
      "uid": 7755553,
      "center": {
        "lat": 42.3125783,
        "lon": -122.9672705
      },
      "nodes": [],
      "tags": {
        "amenity": "shelter",
        "building": "yes",
        "shelter_type": "picnic_shelter"
      }
    },
    {
      "type": "way",
      "id": 801470761,
      "timestamp": "2021-06-12T22:33:19Z",
      "version": 2,
      "changeset": 106267510,
      "user": "Timothy Smith",
      "uid": 115918,
      "center": {
        "lat": 42.3204727,
        "lon": -122.9590145
      },
      "nodes": [],
      "tags": {
        "brand": "Circle K",
        "brand:wikidata": "Q3268010",
        "brand:wikipedia": "en:Circle K",
        "building": "yes",
        "name": "Circle K",
        "shop": "convenience"
      }
    },
    {
      "type": "way",
      "id": 801471378,
      "timestamp": "2020-05-08T05:04:46Z",
      "version": 1,
      "changeset": 84865631,
      "user": "barnesda",
      "uid": 7755553,
      "center": {
        "lat": 42.3152563,
        "lon": -122.9690805
      },
      "nodes": [],
      "tags": {
        "amenity": "shelter",
        "building": "yes"
      }
    },
    {
      "type": "way",
      "id": 804747391,
      "timestamp": "2020-05-16T21:04:27Z",
      "version": 1,
      "changeset": 85317218,
      "user": "Adam Schneider",
      "uid": 5403394,
      "center": {
        "lat": 42.3194114,
        "lon": -123.000545
      },
      "nodes": [],
      "tags": {
        "amenity": "shelter",
        "building": "roof",
        "layer": "1",
        "shelter_type": "weather_shelter"
      }
    },
    {
      "type": "way",
      "id": 821254593,
      "timestamp": "2020-07-01T03:10:53Z",
      "version": 2,
      "changeset": 87372383,
      "user": "Adam Schneider",
      "uid": 5403394,
      "center": {
        "lat": 42.0782253,
        "lon": -122.7371624
      },
      "nodes": [],
      "tags": {
        "amenity": "shelter",
        "building": "yes",
        "name": "Grouse Gap Shelter",
        "shelter_type": "picnic_shelter"
      }
    },
    {
      "type": "way",
      "id": 880458464,
      "timestamp": "2021-01-22T15:51:48Z",
      "version": 2,
      "changeset": 97984531,
      "user": "Timothy Smith",
      "uid": 115918,
      "center": {
        "lat": 42.3472668,
        "lon": -122.8837186
      },
      "nodes": [],
      "tags": {
        "addr:city": "Medford",
        "addr:housenumber": "1990",
        "addr:postcode": "97501",
        "addr:street": "North Pacific Highway",
        "brand": "Natural Grocers",
        "brand:wikidata": "Q17146520",
        "brand:wikipedia": "en:Vitamin Cottage Natural Grocers",
        "building": "yes",
        "name": "Natural Grocers",
        "opening_hours": "Mo-Sa 08:30-21:05; Su 08:30-20:05",
        "phone": "+1 541-245-0100",
        "shop": "supermarket",
        "source": "microsoft/BuildingFootprints",
        "website": "https://www.naturalgrocers.com/"
      }
    },
    {
      "type": "way",
      "id": 926025861,
      "timestamp": "2021-04-04T23:57:42Z",
      "version": 1,
      "changeset": 102291001,
      "user": "archpdx",
      "uid": 12493764,
      "center": {
        "lat": 42.2982568,
        "lon": -122.840766
      },
      "nodes": [],
      "tags": {
        "amenity": "shelter",
        "building": "yes",
        "layer": "1",
        "shelter_type": "picnic_shelter"
      }
    },
    {
      "type": "way",
      "id": 931946569,
      "timestamp": "2021-04-21T03:13:49Z",
      "version": 2,
      "changeset": 103302433,
      "user": "archpdx",
      "uid": 12493764,
      "center": {
        "lat": 42.2723659,
        "lon": -122.8097957
      },
      "nodes": [],
      "tags": {
        "amenity": "shelter",
        "building": "yes",
        "shelter_type": "picnic_shelter"
      }
    },
    {
      "type": "way",
      "id": 931946570,
      "timestamp": "2021-04-21T03:13:49Z",
      "version": 2,
      "changeset": 103302433,
      "user": "archpdx",
      "uid": 12493764,
      "center": {
        "lat": 42.2723208,
        "lon": -122.8103388
      },
      "nodes": [],
      "tags": {
        "amenity": "shelter",
        "building": "yes",
        "shelter_type": "picnic_shelter"
      }
    },
    {
      "type": "way",
      "id": 933364469,
      "timestamp": "2021-04-21T14:32:49Z",
      "version": 1,
      "changeset": 103347415,
      "user": "seattlefyi",
      "uid": 692614,
      "center": {
        "lat": 42.4275909,
        "lon": -123.0369911
      },
      "nodes": [],
      "tags": {
        "brand": "KOA",
        "name": "Medford/Gold Hill KOA Journey",
        "tourism": "camp_site"
      }
    },
    {
      "type": "way",
      "id": 933998643,
      "timestamp": "2021-04-22T18:43:36Z",
      "version": 1,
      "changeset": 103431838,
      "user": "archpdx",
      "uid": 12493764,
      "center": {
        "lat": 42.2759949,
        "lon": -122.8180809
      },
      "nodes": [],
      "tags": {
        "addr:city": "Phoenix",
        "addr:housenumber": "407",
        "addr:postcode": "97535",
        "addr:state": "OR",
        "addr:street": "North Main Street",
        "building": "retail",
        "name": "Minute Market",
        "opening_hours": "Mo-Fr 06:00-24:00; Sa-Su 07:00-24:00",
        "phone": "+1-541-535-2323",
        "shop": "convenience"
      }
    },
    {
      "type": "way",
      "id": 934819277,
      "timestamp": "2021-04-24T21:36:48Z",
      "version": 1,
      "changeset": 103553821,
      "user": "archpdx",
      "uid": 12493764,
      "center": {
        "lat": 42.2648497,
        "lon": -122.8182045
      },
      "nodes": [],
      "tags": {
        "amenity": "shelter",
        "building": "yes",
        "shelter_type": "picnic_shelter"
      }
    },
    {
      "type": "way",
      "id": 934819278,
      "timestamp": "2021-04-24T21:36:48Z",
      "version": 1,
      "changeset": 103553821,
      "user": "archpdx",
      "uid": 12493764,
      "center": {
        "lat": 42.264683,
        "lon": -122.8182115
      },
      "nodes": [],
      "tags": {
        "amenity": "shelter",
        "building": "yes",
        "shelter_type": "picnic_shelter"
      }
    },
    {
      "type": "way",
      "id": 953192301,
      "timestamp": "2021-06-10T22:35:57Z",
      "version": 2,
      "changeset": 106180400,
      "user": "archpdx",
      "uid": 12493764,
      "center": {
        "lat": 42.3235675,
        "lon": -122.8763865
      },
      "nodes": [],
      "tags": {
        "addr:state": "OR",
        "amenity": "shelter",
        "building": "yes",
        "shelter_type": "gazebo",
        "source": "esri/Jackson_County_OR_Buildings"
      }
    },
    {
      "type": "way",
      "id": 953192302,
      "timestamp": "2021-06-10T22:35:57Z",
      "version": 2,
      "changeset": 106180400,
      "user": "archpdx",
      "uid": 12493764,
      "center": {
        "lat": 42.3237245,
        "lon": -122.8757951
      },
      "nodes": [],
      "tags": {
        "addr:state": "OR",
        "amenity": "shelter",
        "building": "yes",
        "shelter_type": "gazebo",
        "source": "esri/Jackson_County_OR_Buildings"
      }
    },
    {
      "type": "way",
      "id": 953196150,
      "timestamp": "2021-06-10T22:59:23Z",
      "version": 1,
      "changeset": 106180788,
      "user": "archpdx",
      "uid": 12493764,
      "center": {
        "lat": 42.3145461,
        "lon": -122.8558329
      },
      "nodes": [],
      "tags": {
        "addr:housenumber": "1301",
        "addr:state": "OR",
        "addr:street": "Center Drive",
        "brand": "Fred Meyer",
        "brand:wikidata": "Q5495932",
        "brand:wikipedia": "en:Fred Meyer",
        "building": "yes",
        "name": "Fred Meyer",
        "opening_hours": "07:00-23:00",
        "phone": "+1 541-857-4650",
        "shop": "supermarket",
        "source": "esri/Jackson_County_OR_Buildings",
        "website": "https://www.fredmeyer.com/"
      }
    },
    {
      "type": "way",
      "id": 953197445,
      "timestamp": "2021-06-10T23:18:36Z",
      "version": 1,
      "changeset": 106181115,
      "user": "archpdx",
      "uid": 12493764,
      "center": {
        "lat": 42.3161337,
        "lon": -122.8347507
      },
      "nodes": [],
      "tags": {
        "addr:state": "OR",
        "building": "yes",
        "name": "Minute Market",
        "shop": "convenience",
        "source": "esri/Jackson_County_OR_Buildings"
      }
    },
    {
      "type": "way",
      "id": 953204241,
      "timestamp": "2021-06-11T00:45:52Z",
      "version": 1,
      "changeset": 106182071,
      "user": "archpdx",
      "uid": 12493764,
      "center": {
        "lat": 42.3735375,
        "lon": -122.9312627
      },
      "nodes": [],
      "tags": {
        "addr:state": "OR",
        "amenity": "shelter",
        "building": "yes",
        "shelter_type": "picnic_shelter",
        "source": "esri/Jackson_County_OR_Buildings"
      }
    },
    {
      "type": "way",
      "id": 953204242,
      "timestamp": "2021-06-11T00:45:52Z",
      "version": 1,
      "changeset": 106182071,
      "user": "archpdx",
      "uid": 12493764,
      "center": {
        "lat": 42.3736987,
        "lon": -122.9310765
      },
      "nodes": [],
      "tags": {
        "addr:state": "OR",
        "amenity": "shelter",
        "building": "yes",
        "shelter_type": "picnic_shelter",
        "source": "esri/Jackson_County_OR_Buildings"
      }
    },
    {
      "type": "way",
      "id": 953205086,
      "timestamp": "2021-06-11T00:56:35Z",
      "version": 1,
      "changeset": 106182199,
      "user": "archpdx",
      "uid": 12493764,
      "center": {
        "lat": 42.3328974,
        "lon": -122.8763108
      },
      "nodes": [],
      "tags": {
        "addr:state": "OR",
        "amenity": "shelter",
        "building": "yes",
        "shelter_type": "picnic_shelter",
        "source": "esri/Jackson_County_OR_Buildings"
      }
    },
    {
      "type": "way",
      "id": 953221468,
      "timestamp": "2021-06-11T03:35:18Z",
      "version": 1,
      "changeset": 106184611,
      "user": "archpdx",
      "uid": 12493764,
      "center": {
        "lat": 42.3179107,
        "lon": -122.863252
      },
      "nodes": [],
      "tags": {
        "addr:city": "Medford",
        "addr:housenumber": "945",
        "addr:postcode": "97501",
        "addr:state": "OR",
        "addr:street": "South Riverside Avenue",
        "building": "commercial",
        "name": "Medford Food Co-op",
        "opening_hours": "Mo-Su 07:00-21:00",
        "phone": "+1 541-779-2667",
        "shop": "supermarket",
        "source": "esri/Jackson_County_OR_Buildings",
        "website": "http://www.medfordfood.coop/"
      }
    },
    {
      "type": "way",
      "id": 953572712,
      "timestamp": "2021-06-11T20:13:54Z",
      "version": 1,
      "changeset": 106231399,
      "user": "archpdx",
      "uid": 12493764,
      "center": {
        "lat": 42.3168945,
        "lon": -122.8150816
      },
      "nodes": [],
      "tags": {
        "addr:state": "OR",
        "brand": "Albertsons",
        "brand:wikidata": "Q2831861",
        "brand:wikipedia": "en:Albertsons",
        "building": "yes",
        "name": "Albertsons",
        "shop": "supermarket",
        "source": "esri/Jackson_County_OR_Buildings",
        "website": "https://www.albertsons.com/"
      }
    },
    {
      "type": "way",
      "id": 953906675,
      "timestamp": "2021-06-13T07:30:21Z",
      "version": 1,
      "changeset": 106273671,
      "user": "archpdx",
      "uid": 12493764,
      "center": {
        "lat": 42.3333947,
        "lon": -122.863744
      },
      "nodes": [],
      "tags": {
        "addr:city": "Medford",
        "addr:housenumber": "1003",
        "addr:postcode": "97504",
        "addr:state": "OR",
        "addr:street": "Medford Ctr",
        "brand": "Safeway",
        "brand:wikidata": "Q1508234",
        "brand:wikipedia": "en:Safeway Inc.",
        "building": "yes",
        "designation": "Safeway 0525",
        "name": "Safeway",
        "opening_hours": "06:00-01:00",
        "phone": "(541) 608-3680",
        "shop": "supermarket",
        "source": "esri/Jackson_County_OR_Buildings",
        "website": "https://local.safeway.com/safeway/or/medford/1003-medford-ctr.html",
        "wheelchair": "yes"
      }
    },
    {
      "type": "way",
      "id": 953916291,
      "timestamp": "2021-06-13T08:23:12Z",
      "version": 1,
      "changeset": 106274865,
      "user": "archpdx",
      "uid": 12493764,
      "center": {
        "lat": 42.3489487,
        "lon": -122.8715197
      },
      "nodes": [],
      "tags": {
        "addr:housenumber": "2230",
        "addr:state": "OR",
        "addr:street": "Biddle Road",
        "brand": "Food 4 Less",
        "brand:wikidata": "Q5465282",
        "brand:wikipedia": "en:Food 4 Less",
        "building": "yes",
        "name": "Sherm's Food 4 Less",
        "opening_hours": "24/7",
        "phone": "+1 541-779-0171",
        "shop": "supermarket",
        "source": "esri/Jackson_County_OR_Buildings",
        "website": "https://www.shermsmarkets.com/"
      }
    },
    {
      "type": "way",
      "id": 954077718,
      "timestamp": "2021-06-13T22:09:16Z",
      "version": 1,
      "changeset": 106298983,
      "user": "archpdx",
      "uid": 12493764,
      "center": {
        "lat": 42.3468558,
        "lon": -122.8488802
      },
      "nodes": [],
      "tags": {
        "addr:state": "OR",
        "amenity": "shelter",
        "building": "yes",
        "source": "esri/Jackson_County_OR_Buildings"
      }
    },
    {
      "type": "way",
      "id": 954077719,
      "timestamp": "2021-06-13T22:09:16Z",
      "version": 1,
      "changeset": 106298983,
      "user": "archpdx",
      "uid": 12493764,
      "center": {
        "lat": 42.3465926,
        "lon": -122.848543
      },
      "nodes": [],
      "tags": {
        "addr:state": "OR",
        "amenity": "shelter",
        "building": "yes",
        "source": "esri/Jackson_County_OR_Buildings"
      }
    },
    {
      "type": "way",
      "id": 954077754,
      "timestamp": "2021-06-13T22:09:16Z",
      "version": 1,
      "changeset": 106298983,
      "user": "archpdx",
      "uid": 12493764,
      "center": {
        "lat": 42.3468572,
        "lon": -122.8466868
      },
      "nodes": [],
      "tags": {
        "addr:state": "OR",
        "amenity": "shelter",
        "building": "yes",
        "source": "esri/Jackson_County_OR_Buildings"
      }
    },
    {
      "type": "way",
      "id": 954077755,
      "timestamp": "2021-06-13T22:09:16Z",
      "version": 1,
      "changeset": 106298983,
      "user": "archpdx",
      "uid": 12493764,
      "center": {
        "lat": 42.3468794,
        "lon": -122.8465551
      },
      "nodes": [],
      "tags": {
        "addr:state": "OR",
        "amenity": "shelter",
        "building": "yes",
        "source": "esri/Jackson_County_OR_Buildings"
      }
    },
    {
      "type": "way",
      "id": 954077762,
      "timestamp": "2021-06-13T22:09:16Z",
      "version": 1,
      "changeset": 106298983,
      "user": "archpdx",
      "uid": 12493764,
      "center": {
        "lat": 42.3479536,
        "lon": -122.8470306
      },
      "nodes": [],
      "tags": {
        "addr:state": "OR",
        "amenity": "shelter",
        "building": "yes",
        "source": "esri/Jackson_County_OR_Buildings"
      }
    },
    {
      "type": "way",
      "id": 954077763,
      "timestamp": "2021-06-13T22:09:16Z",
      "version": 1,
      "changeset": 106298983,
      "user": "archpdx",
      "uid": 12493764,
      "center": {
        "lat": 42.3476766,
        "lon": -122.8466612
      },
      "nodes": [],
      "tags": {
        "addr:state": "OR",
        "amenity": "shelter",
        "building": "yes",
        "source": "esri/Jackson_County_OR_Buildings"
      }
    },
    {
      "type": "way",
      "id": 954087415,
      "timestamp": "2021-06-13T23:05:43Z",
      "version": 1,
      "changeset": 106299783,
      "user": "archpdx",
      "uid": 12493764,
      "center": {
        "lat": 42.3027479,
        "lon": -122.8922396
      },
      "nodes": [],
      "tags": {
        "addr:state": "OR",
        "amenity": "shelter",
        "building": "yes",
        "source": "esri/Jackson_County_OR_Buildings"
      }
    },
    {
      "type": "way",
      "id": 954087416,
      "timestamp": "2021-06-13T23:05:43Z",
      "version": 1,
      "changeset": 106299783,
      "user": "archpdx",
      "uid": 12493764,
      "center": {
        "lat": 42.3029388,
        "lon": -122.8925209
      },
      "nodes": [],
      "tags": {
        "addr:state": "OR",
        "amenity": "shelter",
        "building": "yes",
        "source": "esri/Jackson_County_OR_Buildings"
      }
    },
    {
      "type": "way",
      "id": 954087417,
      "timestamp": "2021-06-13T23:05:43Z",
      "version": 1,
      "changeset": 106299783,
      "user": "archpdx",
      "uid": 12493764,
      "center": {
        "lat": 42.302722,
        "lon": -122.8939172
      },
      "nodes": [],
      "tags": {
        "addr:state": "OR",
        "amenity": "shelter",
        "building": "yes",
        "source": "esri/Jackson_County_OR_Buildings"
      }
    },
    {
      "type": "way",
      "id": 954087418,
      "timestamp": "2021-06-13T23:05:43Z",
      "version": 1,
      "changeset": 106299783,
      "user": "archpdx",
      "uid": 12493764,
      "center": {
        "lat": 42.3029387,
        "lon": -122.893673
      },
      "nodes": [],
      "tags": {
        "addr:state": "OR",
        "amenity": "shelter",
        "building": "yes",
        "source": "esri/Jackson_County_OR_Buildings"
      }
    },
    {
      "type": "way",
      "id": 954087419,
      "timestamp": "2021-06-13T23:05:43Z",
      "version": 1,
      "changeset": 106299783,
      "user": "archpdx",
      "uid": 12493764,
      "center": {
        "lat": 42.3029832,
        "lon": -122.8934672
      },
      "nodes": [],
      "tags": {
        "addr:state": "OR",
        "amenity": "shelter",
        "building": "yes",
        "source": "esri/Jackson_County_OR_Buildings"
      }
    },
    {
      "type": "way",
      "id": 954087420,
      "timestamp": "2021-06-13T23:05:43Z",
      "version": 1,
      "changeset": 106299783,
      "user": "archpdx",
      "uid": 12493764,
      "center": {
        "lat": 42.3032859,
        "lon": -122.8938864
      },
      "nodes": [],
      "tags": {
        "addr:state": "OR",
        "amenity": "shelter",
        "building": "yes",
        "source": "esri/Jackson_County_OR_Buildings"
      }
    },
    {
      "type": "way",
      "id": 954090257,
      "timestamp": "2021-06-13T23:26:08Z",
      "version": 1,
      "changeset": 106300052,
      "user": "archpdx",
      "uid": 12493764,
      "center": {
        "lat": 42.3094804,
        "lon": -122.8687188
      },
      "nodes": [],
      "tags": {
        "addr:state": "OR",
        "amenity": "shelter",
        "building": "yes",
        "shelter_type": "gazebo",
        "source": "esri/Jackson_County_OR_Buildings"
      }
    },
    {
      "type": "way",
      "id": 954470414,
      "timestamp": "2021-08-20T14:45:00Z",
      "version": 2,
      "changeset": 109992452,
      "user": "VLD071",
      "uid": 8970376,
      "center": {
        "lat": 42.3232259,
        "lon": -122.899373
      },