{
  "osm3s": {
    "timestamp_osm_date": "2021-07-11T23:59:59Z",
    "timestamp_osm_base": "2021-07-12T04:38:12Z",
    "copyright": "The data included in this document is from www.openstreetmap.org. The data is made available under ODbL."
  },
  "elements": [
    {
      "type": "node",
      "id": 26864317,
      "lat": 37.8941169,
      "lon": 14.0251862,
      "timestamp": "2019-10-11T11:51:34Z",
      "version": 9,
      "changeset": 75561193,
      "user": "mirelon",
      "uid": 1270972,
      "tags": {
        "ele": "1979",
        "name": "Pizzo Carbonara",
        "natural": "peak",
        "prominence": "1196",
        "wikidata": "Q965689",
        "wikipedia": "it:Pizzo Carbonara"
      }
    },
    {
      "type": "node",
      "id": 26864521,
      "lat": 37.9442941,
      "lon": 13.7336888,
      "timestamp": "2019-06-10T05:12:04Z",
      "version": 6,
      "changeset": 71087550,
      "user": "aldoct",
      "uid": 923271,
      "tags": {
        "ele": "1328.6",
        "name": "Monte San Calogero",
        "natural": "peak",
        "wikidata": "Q3861950",
        "wikipedia": "it:Monte San Calogero"
      }
    },
    {
      "type": "node",
      "id": 67256288,
      "lat": 37.9528926,
      "lon": 13.4150241,
      "timestamp": "2020-06-18T14:38:59Z",
      "version": 8,
      "changeset": 86830972,
      "user": "fayor",
      "uid": 743479,
      "tags": {
        "name": "Marineo",
        "name:scn": "Marinè",
        "old_name:el": "Μάκελλα",
        "old_name:la": "Macella",
        "place": "village",
        "population": "6439",
        "source": "Istat novembre 2019"
      }
    },
    {
      "type": "node",
      "id": 67256301,
      "lat": 37.746946,
      "lon": 13.604854,
      "timestamp": "2020-06-18T14:38:59Z",
      "version": 6,
      "changeset": 86830972,
      "user": "fayor",
      "uid": 743479,
      "tags": {
        "name": "Lercara Friddi",
        "name:scn": "Lercara",
        "place": "village",
        "population": "6626",
        "source": "Istat novembre 2019"
      }
    },
    {
      "type": "node",
      "id": 67256310,
      "lat": 37.9673767,
      "lon": 13.9739295,
      "timestamp": "2021-03-29T17:01:27Z",
      "version": 8,
      "changeset": 101930697,
      "user": "aldoct",
      "uid": 923271,
      "tags": {
        "name": "Gratteri",
        "name:scn": "Ratteri",
        "place": "village",
        "population": "905",
        "source": "Istat novembre 2019"
      }
    },
    {
      "type": "node",
      "id": 67256324,
      "lat": 37.8128186,
      "lon": 13.9996828,
      "timestamp": "2021-01-02T17:46:54Z",
      "version": 8,
      "changeset": 96818194,
      "user": "Ciccio sez-Polizzi G",
      "uid": 12420293,
      "tags": {
        "name": "Polizzi Generosa",
        "name:scn": "Pulizzi",
        "place": "village",
        "population": "3134",
        "source": "Istat novembre 2019"
      }
    },
    {
      "type": "node",
      "id": 67256351,
      "lat": 37.8477519,
      "lon": 13.7620485,
      "timestamp": "2020-06-18T14:38:59Z",
      "version": 7,
      "changeset": 86830972,
      "user": "fayor",
      "uid": 743479,
      "tags": {
        "name": "Montemaggiore Belsito",
        "name:scn": "Muntimajuri",
        "place": "village",
        "population": "3129",
        "source": "Istat novembre 2019"
      }
    },
    {
      "type": "node",
      "id": 67256373,
      "lat": 37.821589,
      "lon": 13.8547805,
      "timestamp": "2020-06-18T14:38:59Z",
      "version": 7,
      "changeset": 86830972,
      "user": "fayor",
      "uid": 743479,
      "tags": {
        "name": "Sclafani Bagni",
        "place": "village",
        "population": "402",
        "source": "Istat novembre 2019"
      }
    },
    {
      "type": "node",
      "id": 67256415,
      "lat": 38.079351,
      "lon": 13.509349,
      "timestamp": "2020-06-18T14:38:59Z",
      "version": 7,
      "changeset": 86830972,
      "user": "fayor",
      "uid": 743479,
      "tags": {
        "name": "Bagheria",
        "name:scn": "Baarìa",
        "place": "town",
        "population": "54438",
        "source": "Istat novembre 2019"
      }
    },
    {
      "type": "node",
      "id": 67256442,
      "lat": 37.779948,
      "lon": 13.713856,
      "timestamp": "2020-06-18T14:38:59Z",
      "version": 5,
      "changeset": 86830972,
      "user": "fayor",
      "uid": 743479,
      "tags": {
        "name": "Alia",
        "place": "village",
        "population": "3445",
        "source": "Istat novembre 2019"
      }
    },
    {
      "type": "node",
      "id": 67256456,
      "lat": 37.8210665,
      "lon": 13.8902244,
      "timestamp": "2020-06-18T14:38:59Z",
      "version": 8,
      "changeset": 86830972,
      "user": "fayor",
      "uid": 743479,
      "tags": {
        "name": "Caltavuturo",
        "name:ru": "Кальтавутуро",
        "name:scn": "Caltavuturu",
        "place": "village",
        "population": "3797",
        "source": "Istat novembre 2019"
      }
    },
    {
      "type": "node",
      "id": 67256476,
      "lat": 37.9923336,
      "lon": 13.8861829,
      "timestamp": "2020-06-18T14:38:59Z",
      "version": 9,
      "changeset": 86830972,
      "user": "fayor",
      "uid": 743479,
      "tags": {
        "name": "Campofelice di Roccella",
        "name:scn": "Campufilici",
        "place": "village",
        "population": "7669",
        "source": "Istat novembre 2019"
      }
    },
    {
      "type": "node",
      "id": 67256482,
      "lat": 38.0484487,
      "lon": 13.3905539,
      "timestamp": "2020-06-18T14:38:59Z",
      "version": 9,
      "changeset": 86830972,
      "user": "fayor",
      "uid": 743479,
      "tags": {
        "name": "Belmonte Mezzagno",
        "name:scn": "Bilmunti Minzagnu",
        "place": "town",
        "population": "11164",
        "source": "Istat novembre 2019"
      }
    },
    {
      "type": "node",
      "id": 67256489,
      "lat": 37.9151751,
      "lon": 13.463549,
      "timestamp": "2020-06-18T14:38:59Z",
      "version": 8,
      "changeset": 86830972,
      "user": "fayor",
      "uid": 743479,
      "tags": {
        "name": "Cefalà Diana",
        "name:scn": "Cifalà Diana",
        "place": "village",
        "population": "997",
        "source": "Istat novembre 2019"
      }
    },
    {
      "type": "node",
      "id": 67256494,
      "lat": 38.034957,
      "lon": 14.0244562,
      "timestamp": "2020-06-18T14:38:59Z",
      "version": 10,
      "changeset": 86830972,
      "user": "fayor",
      "uid": 743479,
      "tags": {
        "name": "Cefalù",
        "name:scn": "Cifalù",
        "place": "town",
        "population": "14265",
        "source": "Istat novembre 2019"
      }
    },
    {
      "type": "node",
      "id": 67256513,
      "lat": 38.0541181,
      "lon": 13.5302261,
      "timestamp": "2020-06-18T14:38:59Z",
      "version": 11,
      "changeset": 86830972,
      "user": "fayor",
      "uid": 743479,
      "tags": {
        "name": "Casteldaccia",
        "name:scn": "Castiɖɖazzu",
        "place": "town",
        "population": "11689",
        "source": "Istat novembre 2019"
      }
    },
    {
      "type": "node",
      "id": 67256525,
      "lat": 37.9214774,
      "lon": 13.9374864,
      "timestamp": "2020-06-18T14:38:59Z",
      "version": 10,
      "changeset": 86830972,
      "user": "fayor",
      "uid": 743479,
      "tags": {
        "name": "Collesano",
        "name:scn": "Gulisanu",
        "place": "village",
        "population": "3889",
        "source": "Istat novembre 2019"
      }
    },
    {
      "type": "node",
      "id": 67256550,
      "lat": 37.8968159,
      "lon": 13.5623449,
      "timestamp": "2020-06-18T14:38:59Z",
      "version": 7,
      "changeset": 86830972,
      "user": "fayor",
      "uid": 743479,
      "tags": {
        "name": "Ciminna",
        "place": "village",
        "population": "3587",
        "source": "Istat novembre 2019"
      }
    },
    {
      "type": "node",
      "id": 67256598,
      "lat": 37.903579,
      "lon": 13.8154701,
      "timestamp": "2020-06-18T14:38:59Z",
      "version": 10,
      "changeset": 86830972,
      "user": "fayor",
      "uid": 743479,
      "tags": {
        "name": "Cerda",
        "place": "village",
        "population": "5103",
        "source": "Istat novembre 2019"
      }
    },
    {
      "type": "node",
      "id": 67256609,
      "lat": 38.0884578,
      "lon": 13.4637863,
      "timestamp": "2020-06-18T14:38:59Z",
      "version": 9,
      "changeset": 86830972,
      "user": "fayor",
      "uid": 743479,
      "tags": {
        "name": "Ficarazzi",
        "place": "town",
        "population": "13021",
        "source": "Istat novembre 2019"
      }
    },
    {
      "type": "node",
      "id": 67256612,
      "lat": 37.943953,
      "lon": 14.005761,
      "timestamp": "2020-06-18T14:38:59Z",
      "version": 6,
      "changeset": 86830972,
      "user": "fayor",
      "uid": 743479,
      "tags": {
        "name": "Isnello",
        "name:scn": "Isineɖɖu",
        "place": "village",
        "population": "1444",
        "source": "Istat novembre 2019"
      }
    },
    {
      "type": "node",
      "id": 67256627,
      "lat": 37.9033438,
      "lon": 13.4289245,
      "timestamp": "2020-06-18T14:38:59Z",
      "version": 7,
      "changeset": 86830972,
      "user": "fayor",
      "uid": 743479,
      "tags": {
        "name": "Godrano",
        "name:scn": "Cutranu",
        "place": "village",
        "population": "1119",
        "source": "Istat novembre 2019"
      }
    },
    {
      "type": "node",
      "id": 67256637,
      "lat": 38.000053,
      "lon": 13.941459,
      "timestamp": "2020-06-18T14:38:59Z",
      "version": 7,
      "changeset": 86830972,
      "user": "fayor",
      "uid": 743479,
      "tags": {
        "name": "Lascari",
        "place": "village",
        "population": "3649",
        "source": "Istat novembre 2019"
      }
    },
    {
      "type": "node",
      "id": 67256646,
      "lat": 38.0352205,
      "lon": 13.4514041,
      "timestamp": "2020-06-18T14:38:59Z",
      "version": 10,
      "changeset": 86830972,
      "user": "fayor",
      "uid": 743479,
      "tags": {
        "name": "Misilmeri",
        "name:scn": "Mussulumeri",
        "place": "town",
        "population": "29311",
        "source": "Istat novembre 2019"
      }
    },
    {
      "type": "node",
      "id": 67256651,
      "lat": 37.864532,
      "lon": 13.4641955,
      "timestamp": "2020-06-18T14:38:59Z",
      "version": 8,
      "changeset": 86830972,
      "user": "fayor",
      "uid": 743479,
      "tags": {
        "name": "Mezzojuso",
        "name:aae": "Munçisfi",
        "name:scn": "Menzijusu",
        "place": "village",
        "population": "2799",
        "source": "Istat novembre 2019"
      }
    },
    {
      "type": "node",
      "id": 67256692,
      "lat": 37.7214535,
      "lon": 13.4312651,
      "timestamp": "2020-06-18T14:38:59Z",
      "version": 6,
      "changeset": 86830972,
      "user": "fayor",
      "uid": 743479,
      "tags": {
        "name": "Prizzi",
        "place": "village",
        "population": "4558",
        "source": "Istat novembre 2019"
      }
    },
    {
      "type": "node",
      "id": 67256699,
      "lat": 38.0765278,
      "lon": 13.4436674,
      "timestamp": "2020-06-18T14:38:59Z",
      "version": 8,
      "changeset": 86830972,
      "user": "fayor",
      "uid": 743479,
      "tags": {
        "name": "Villabate",
        "name:scn": "Villabbati",
        "place": "town",
        "population": "19835",
        "source": "Istat novembre 2019"
      }
    },
    {
      "type": "node",
      "id": 67256707,
      "lat": 37.8567237,
      "lon": 13.9068535,
      "timestamp": "2020-06-18T14:38:59Z",
      "version": 7,
      "changeset": 86830972,
      "user": "fayor",
      "uid": 743479,
      "tags": {
        "name": "Scillato",
        "name:scn": "Scillatu",
        "place": "village",
        "population": "609",
        "source": "Istat novembre 2019"
      }
    },
    {
      "type": "node",
      "id": 67256723,
      "lat": 37.864509,
      "lon": 13.7811604,
      "timestamp": "2020-06-18T14:38:59Z",
      "version": 7,
      "changeset": 86830972,
      "user": "fayor",
      "uid": 743479,
      "tags": {
        "name": "Aliminusa",
        "name:scn": "Larminusa",
        "place": "village",
        "population": "1152",
        "source": "Istat novembre 2019"
      }
    },
    {
      "type": "node",
      "id": 67256730,
      "lat": 38.0427339,
      "lon": 13.5508934,
      "timestamp": "2020-11-02T13:57:15Z",
      "version": 7,
      "changeset": 93424687,
      "user": "dgitto",
      "uid": 554973,
      "tags": {
        "alt_name:scn": "'a Milicia",
        "name": "Altavilla Milicia",
        "name:scn": "Autaviɖɖa Milicia",
        "place": "village",
        "population": "8367",
        "source": "Istat novembre 2019"
      }
    },
    {
      "type": "node",
      "id": 67256736,
      "lat": 37.9254289,
      "lon": 13.5377102,
      "timestamp": "2020-06-18T14:38:59Z",
      "version": 6,
      "changeset": 86830972,
      "user": "fayor",
      "uid": 743479,
      "tags": {
        "name": "Baucina",
        "place": "village",
        "population": "1913",
        "source": "Istat novembre 2019"
      }
    },
    {
      "type": "node",
      "id": 67256746,
      "lat": 37.9647423,
      "lon": 13.4560696,
      "timestamp": "2020-06-18T14:38:59Z",
      "version": 8,
      "changeset": 86830972,
      "user": "fayor",
      "uid": 743479,
      "tags": {
        "name": "Bolognetta",
        "name:scn": "Agghiastru",
        "place": "village",
        "population": "4181",
        "source": "Istat novembre 2019"
      }
    },
    {
      "type": "node",
      "id": 67256754,
      "lat": 37.9318004,
      "lon": 13.6634902,
      "timestamp": "2020-10-25T18:27:14Z",
      "version": 8,
      "changeset": 93025407,
      "user": "aldoct",
      "uid": 923271,
      "tags": {
        "name": "Caccamo",
        "name:scn": "Càccamu",
        "place": "village",
        "population": "8014",
        "source": "Istat novembre 2019"
      }
    },
    {
      "type": "node",
      "id": 67256928,
      "lat": 37.983651,
      "lon": 13.695554,
      "timestamp": "2020-06-18T14:38:59Z",
      "version": 7,
      "changeset": 86830972,
      "user": "fayor",
      "uid": 743479,
      "tags": {
        "name": "Termini Imerese",
        "name:scn": "Tèrmini",
        "place": "town",
        "population": "25702",
        "source": "Istat novembre 2019"
      }
    },
    {
      "type": "node",
      "id": 67256942,
      "lat": 38.0813306,
      "lon": 13.5254399,
      "timestamp": "2020-06-18T14:38:59Z",
      "version": 8,
      "changeset": 86830972,
      "user": "fayor",
      "uid": 743479,
      "tags": {
        "name": "Santa Flavia",
        "place": "town",
        "population": "11220",
        "source": "Istat novembre 2019"
      }
    },
    {
      "type": "node",
      "id": 67256946,
      "lat": 37.9148918,
      "lon": 13.7623432,
      "timestamp": "2020-06-18T14:38:59Z",
      "version": 7,
      "changeset": 86830972,
      "user": "fayor",
      "uid": 743479,
      "tags": {
        "name": "Sciara",
        "place": "village",
        "population": "2714",
        "source": "Istat novembre 2019"
      }
    },
    {
      "type": "node",
      "id": 67256961,
      "lat": 37.805948,
      "lon": 13.638455,
      "timestamp": "2020-06-18T14:38:59Z",
      "version": 6,
      "changeset": 86830972,
      "user": "fayor",
      "uid": 743479,
      "tags": {
        "name": "Roccapalumba",
        "name:scn": "Roccapalumma",
        "place": "village",
        "population": "2360",
        "source": "Istat novembre 2019"
      }
    },
    {
      "type": "node",
      "id": 67256970,
      "lat": 37.9080125,
      "lon": 13.4863499,
      "timestamp": "2020-06-18T14:38:59Z",
      "version": 6,
      "changeset": 86830972,
      "user": "fayor",
      "uid": 743479,
      "tags": {
        "name": "Villafrati",
        "place": "village",
        "population": "3277",
        "source": "Istat novembre 2019"
      }
    },
    {
      "type": "node",
      "id": 67256980,
      "lat": 37.9233414,
      "lon": 13.5692549,
      "timestamp": "2020-06-18T14:38:59Z",
      "version": 10,
      "changeset": 86830972,
      "user": "fayor",
      "uid": 743479,
      "tags": {
        "name": "Ventimiglia di Sicilia",
        "name:scn": "Calamigna",
        "place": "village",
        "population": "1852",
        "source": "Istat novembre 2019"
      }
    },
    {
      "type": "node",
      "id": 67256984,
      "lat": 37.8250916,
      "lon": 13.5713017,
      "timestamp": "2020-06-18T14:38:59Z",
      "version": 6,
      "changeset": 86830972,
      "user": "fayor",
      "uid": 743479,
      "tags": {
        "name": "Vicari",
        "place": "village",
        "population": "2557",
        "source": "Istat novembre 2019"
      }
    },
    {
      "type": "node",
      "id": 67256993,
      "lat": 37.747448,
      "lon": 13.827859,
      "timestamp": "2020-06-18T14:38:59Z",
      "version": 6,
      "changeset": 86830972,
      "user": "fayor",
      "uid": 743479,
      "tags": {
        "name": "Valledolmo",
        "name:scn": "Vaɖɖilurmu",
        "place": "village",
        "population": "3418",
        "source": "Istat novembre 2019"
      }
    },
    {
      "type": "node",
      "id": 67256998,
      "lat": 37.9943863,
      "lon": 13.6565095,
      "timestamp": "2020-06-18T14:38:59Z",
      "version": 11,
      "changeset": 86830972,
      "user": "fayor",
      "uid": 743479,
      "tags": {
        "name": "Trabia",
        "name:scn": "Trabbìa",
        "place": "town",
        "population": "10475",
        "source": "Istat novembre 2019"
      }
    },
    {
      "type": "node",
      "id": 270723454,
      "lat": 38.103736,
      "lon": 13.4988976,
      "timestamp": "2019-10-03T22:45:05Z",
      "version": 6,
      "changeset": 75254831,
      "user": "fayor",
      "uid": 743479,
      "tags": {
        "name": "Aspra",
        "place": "village",
        "population": "3981",
        "wikidata": "Q4808202",
        "wikipedia": "it:Aspra (Bagheria)"
      }
    },
    {
      "type": "node",
      "id": 281154553,
      "lat": 38.1197277,
      "lon": 13.3608995,
      "timestamp": "2008-07-26T08:44:11Z",
      "version": 2,
      "changeset": 598319,
      "user": "Emilio Anzon",
      "uid": 38760,
      "tags": {
        "amenity": "drinking_water",
        "created_by": "Potlatch 0.10"
      }
    },
    {
      "type": "node",
      "id": 306727412,
      "lat": 37.8557103,
      "lon": 13.3943834,
      "timestamp": "2019-10-17T11:09:17Z",
      "version": 7,
      "changeset": 75830382,
      "user": "mirelon",
      "uid": 1270972,
      "tags": {
        "ele": "1613",
        "name": "Rocca Busambra",
        "natural": "peak",
        "prominence": "1048",
        "wikidata": "Q1772490",
        "wikipedia": "it:Rocca Busambra"
      }
    },
    {
      "type": "node",
      "id": 416975184,
      "lat": 38.0691991,
      "lon": 13.4715454,
      "timestamp": "2017-03-11T12:57:10Z",
      "version": 3,
      "changeset": 46761867,
      "user": "sbiribizio",
      "uid": 354284,
      "tags": {
        "ele": "208",
        "name": "Pizzo Cannita",
        "natural": "peak",
        "wikidata": "Q16590915",
        "wikipedia": "it:Pizzo Cannita"
      }
    },
    {
      "type": "node",
      "id": 567516097,
      "lat": 38.1059366,
      "lon": 13.5271728,
      "timestamp": "2020-09-23T08:35:34Z",
      "version": 5,
      "changeset": 91350006,
      "user": "dgitto",
      "uid": 554973,
      "tags": {
        "ele": "376",
        "name": "Monte Catalfano",
        "natural": "peak",
        "wikidata": "Q21194589",
        "wikipedia": "it:Monte Catalfano"
      }
    },
    {
      "type": "node",
      "id": 568516590,
      "lat": 38.0924649,
      "lon": 13.3642602,
      "timestamp": "2021-04-26T15:43:28Z",
      "version": 2,
      "changeset": 103647608,
      "user": "Robitabu",
      "uid": 222966,
      "tags": {
        "brand": "Coop",
        "brand:wikidata": "Q1129774",
        "brand:wikipedia": "it:Coop Italia",
        "name": "Coop",
        "shop": "supermarket"
      }
    },
    {
      "type": "node",
      "id": 596506839,
      "lat": 38.0718721,
      "lon": 13.4552035,
      "timestamp": "2020-11-17T13:52:44Z",
      "version": 5,
      "changeset": 94282595,
      "user": "Edward",
      "uid": 364,
      "tags": {
        "name": "Portella di Mare",
        "place": "village",
        "population": "4707",
        "wikidata": "Q3453318"
      }
    },
    {
      "type": "node",
      "id": 605499160,
      "lat": 37.8822768,
      "lon": 13.3774398,
      "timestamp": "2020-07-20T13:55:38Z",
      "version": 8,
      "changeset": 88250990,
      "user": "fayor",
      "uid": 743479,
      "tags": {
        "ele": "683",
        "istat_id": "2147483647",
        "name": "Ficuzza",
        "place": "hamlet",
        "population": "112",
        "source": "Istat 2001 - geodati.gfoss.it",
        "wikidata": "Q3744536",
        "wikipedia": "it:Ficuzza"
      }
    },
    {
      "type": "node",
      "id": 639702290,
      "lat": 38.09606,
      "lon": 13.38289,
      "timestamp": "2010-02-15T14:22:06Z",
      "version": 1,
      "changeset": 3883577,
      "user": "glaucos",
      "uid": 113023,
      "tags": {
        "amenity": "drinking_water"
      }
    },
    {
      "type": "node",
      "id": 639702297,
      "lat": 38.0992133,
      "lon": 13.3883352,
      "timestamp": "2011-11-03T13:11:43Z",
      "version": 3,
      "changeset": 9727851,
      "user": "wheelmap_visitor",
      "uid": 290680,
      "tags": {
        "amenity": "drinking_water",
        "wheelchair": "yes"
      }
    },
    {
      "type": "node",
      "id": 639702301,
      "lat": 38.09814,
      "lon": 13.39367,
      "timestamp": "2011-11-03T13:11:42Z",
      "version": 2,
      "changeset": 9727851,
      "user": "wheelmap_visitor",
      "uid": 290680,
      "tags": {
        "amenity": "drinking_water",
        "wheelchair": "yes"
      }
    },
    {
      "type": "node",
      "id": 639702303,
      "lat": 38.0994199,
      "lon": 13.39587,
      "timestamp": "2010-02-15T14:22:06Z",
      "version": 1,
      "changeset": 3883577,
      "user": "glaucos",
      "uid": 113023,
      "tags": {
        "amenity": "drinking_water"
      }
    },
    {
      "type": "node",
      "id": 639702305,
      "lat": 38.1052818,
      "lon": 13.388775,
      "timestamp": "2010-02-15T14:22:07Z",
      "version": 1,
      "changeset": 3883577,
      "user": "glaucos",
      "uid": 113023,
      "tags": {
        "amenity": "drinking_water"
      }
    },
    {
      "type": "node",
      "id": 675822927,
      "lat": 38.0152408,
      "lon": 13.6144186,
      "timestamp": "2019-09-30T22:04:55Z",
      "version": 5,
      "changeset": 75121595,
      "user": "fayor",
      "uid": 743479,
      "tags": {
        "name": "San Nicola l'Arena",
        "place": "village",
        "population": "645",
        "wikidata": "Q3947725",
        "wikipedia": "it:San Nicola l'Arena"
      }
    },
    {
      "type": "node",
      "id": 675898185,
      "lat": 37.927691,
      "lon": 14.0100623,
      "timestamp": "2013-12-11T09:48:02Z",
      "version": 3,
      "changeset": 19391764,
      "user": "rovizz",
      "uid": 1746996,
      "tags": {
        "name": "Grotta Abisso del Vento",
        "natural": "cave_entrance"
      }
    },
    {
      "type": "node",
      "id": 677043567,
      "lat": 38.0890349,
      "lon": 13.5376937,
      "timestamp": "2020-11-17T13:52:44Z",
      "version": 4,
      "changeset": 94282595,
      "user": "Edward",
      "uid": 364,
      "tags": {
        "name": "Porticello",
        "place": "village",
        "population": "5551",
        "wikidata": "Q3399292"
      }
    },
    {
      "type": "node",
      "id": 677043570,
      "lat": 38.0953687,
      "lon": 13.5385747,
      "timestamp": "2020-03-11T00:05:36Z",
      "version": 3,
      "changeset": 82027369,
      "user": "dgitto",
      "uid": 554973,
      "tags": {
        "name": "Sant'Elia",
        "place": "village",
        "population": "733"
      }
    },
    {
      "type": "node",
      "id": 677770895,
      "lat": 38.1167818,
      "lon": 13.5100591,
      "timestamp": "2020-09-23T08:29:09Z",
      "version": 4,
      "changeset": 91349487,
      "user": "dgitto",
      "uid": 554973,
      "tags": {
        "name": "Mongerbino",
        "place": "hamlet"
      }
    },
    {
      "type": "node",
      "id": 677770979,
      "lat": 38.0305116,
      "lon": 13.9735365,
      "timestamp": "2019-09-22T00:19:53Z",
      "version": 2,
      "changeset": 74761364,
      "user": "fayor",
      "uid": 743479,
      "tags": {
        "name": "Mazzaforno",
        "place": "hamlet",
        "population": "165"
      }
    },
    {
      "type": "node",
      "id": 808745578,
      "lat": 38.0574579,
      "lon": 13.4298986,
      "timestamp": "2019-10-03T22:45:05Z",
      "version": 5,
      "changeset": 75254831,
      "user": "fayor",
      "uid": 743479,
      "tags": {
        "name": "Gibilrossa",
        "place": "hamlet",
        "population": "76",
        "wikidata": "Q2347698",
        "wikipedia": "it:Gibilrossa"
      }
    },
    {
      "type": "node",
      "id": 811615459,
      "lat": 38.0662559,
      "lon": 13.3922397,
      "timestamp": "2019-01-28T15:40:22Z",
      "version": 2,
      "changeset": 66709939,
      "user": "fayor",
      "uid": 743479,
      "tags": {
        "ele": "832",
        "name": "Monte Grifone",
        "natural": "peak",
        "wikidata": "Q3861613",
        "wikipedia": "it:Monte Grifone"
      }
    },
    {
      "type": "node",
      "id": 836202941,
      "lat": 38.0783021,
      "lon": 13.4011969,
      "timestamp": "2019-01-28T15:40:23Z",
      "version": 4,
      "changeset": 66709939,
      "user": "fayor",
      "uid": 743479,
      "tags": {
        "name": "Ciaculli",
        "place": "village",
        "population": "6307",
        "wikidata": "Q2972191",
        "wikipedia": "it:Ciaculli"
      }
    },
    {
      "type": "node",
      "id": 836243062,
      "lat": 37.9950773,
      "lon": 13.6072525,
      "timestamp": "2019-09-30T22:04:55Z",
      "version": 3,
      "changeset": 75121595,
      "user": "fayor",
      "uid": 743479,
      "tags": {
        "name": "Sant'Onofrio",
        "place": "hamlet"
      }
    },
    {
      "type": "node",
      "id": 836243063,
      "lat": 38.0766691,
      "lon": 13.5428481,
      "timestamp": "2019-10-02T22:54:52Z",
      "version": 5,
      "changeset": 75204796,
      "user": "fayor",
      "uid": 743479,
      "tags": {
        "name": "Solanto",
        "place": "village",
        "population": "303",
        "wikidata": "Q18289145",
        "wikipedia": "it:Solanto"
      }
    },
    {
      "type": "node",
      "id": 836377647,
      "lat": 37.9731879,
      "lon": 13.8236638,
      "timestamp": "2019-09-22T00:19:53Z",
      "version": 4,
      "changeset": 74761364,
      "user": "fayor",
      "uid": 743479,
      "tags": {
        "name": "Buonfornello",
        "place": "hamlet",
        "wikidata": "Q3647144",
        "wikipedia": "it:Buonfornello"
      }
    },
    {
      "type": "node",
      "id": 837265420,
      "lat": 38.0451692,
      "lon": 13.4254466,
      "timestamp": "2019-10-03T22:45:05Z",
      "version": 2,
      "changeset": 75254831,
      "user": "fayor",
      "uid": 743479,
      "tags": {
        "name": "Piano Stoppa",
        "place": "hamlet"
      }
    },
    {
      "type": "node",
      "id": 843624346,
      "lat": 37.9865307,
      "lon": 14.0178778,
      "timestamp": "2019-09-22T00:19:53Z",
      "version": 6,
      "changeset": 74761364,
      "user": "fayor",
      "uid": 743479,
      "tags": {
        "name": "Gibilmanna",
        "place": "hamlet",
        "wikidata": "Q1522922",
        "wikipedia": "it:Gibilmanna"
      }
    },
    {
      "type": "node",
      "id": 843624781,
      "lat": 37.9827977,
      "lon": 14.0234823,
      "timestamp": "2017-03-11T12:57:17Z",
      "version": 4,
      "changeset": 46761867,
      "user": "sbiribizio",
      "uid": 354284,
      "tags": {
        "ele": "1080",
        "name": "Pizzo Sant'Angelo",
        "natural": "peak",
        "wikidata": "Q3906011",
        "wikipedia": "it:Pizzo Sant'Angelo"
      }
    },
    {
      "type": "node",
      "id": 846241979,
      "lat": 37.868321,
      "lon": 14.0206159,
      "timestamp": "2020-11-17T13:28:37Z",
      "version": 3,
      "changeset": 94281011,
      "user": "Edward",
      "uid": 364,
      "tags": {
        "ele": "1865",
        "name": "Monte Mufara",
        "natural": "peak",
        "wikidata": "Q12954336"
      }
    },
    {
      "type": "node",
      "id": 846600144,
      "lat": 38.043632,
      "lon": 13.4817561,
      "timestamp": "2017-03-11T12:57:17Z",
      "version": 3,
      "changeset": 46761867,
      "user": "sbiribizio",
      "uid": 354284,
      "tags": {
        "ele": "363",
        "name": "Monte Porcara",
        "natural": "peak",
        "wikidata": "Q16579665",
        "wikipedia": "it:Monte Porcara"
      }
    },
    {
      "type": "node",
      "id": 1431755301,
      "lat": 37.7831794,
      "lon": 14.0410513,
      "timestamp": "2020-06-18T14:38:59Z",
      "version": 7,
      "changeset": 86830972,
      "user": "fayor",
      "uid": 743479,
      "tags": {
        "istat_id": "2147483647",
        "name": "Castellana Sicula",
        "name:scn": "Castiɖɖana Sicula",
        "place": "village",
        "population": "3193",
        "source": "Istat novembre 2019"
      }
    },
    {
      "type": "node",
      "id": 1431755302,
      "lat": 37.8010848,
      "lon": 14.0382993,
      "timestamp": "2019-09-20T18:19:22Z",
      "version": 2,
      "changeset": 74731466,
      "user": "fayor",
      "uid": 743479,
      "tags": {
        "ele": "919",
        "istat_id": "2147483647",
        "name": "Catalani",
        "place": "hamlet",
        "population": "162"
      }
    },
    {
      "type": "node",
      "id": 1431755313,
      "lat": 37.8049905,
      "lon": 14.0376804,
      "timestamp": "2019-09-20T18:19:22Z",
      "version": 4,
      "changeset": 74731466,
      "user": "fayor",
      "uid": 743479,
      "tags": {
        "ele": "1000",
        "istat_id": "2147483647",
        "name": "Nociazzi",
        "place": "hamlet",
        "population": "20",
        "wikidata": "Q2254253",
        "wikipedia": "it:Nociazzi"
      }
    },
    {
      "type": "node",
      "id": 1452362861,
      "lat": 38.1169708,
      "lon": 13.3681121,
      "timestamp": "2020-09-03T12:48:24Z",
      "version": 4,
      "changeset": 90363613,
      "user": "bubix",
      "uid": 1967477,
      "tags": {
        "addr:housenumber": "1",
        "addr:street": "Salita Partanna",
        "name": "Carrefour",
        "opening_hours": "Mo-Sa 08:00-21:00; Su 08:00-20:30",
        "phone": "+39 091 6110322",
        "ref:vatin": "IT09173340960",
        "shop": "supermarket",
        "wheelchair": "yes"
      }
    },
    {
      "type": "node",
      "id": 1509696776,
      "lat": 37.782024,
      "lon": 14.0419993,
      "timestamp": "2014-11-13T09:39:06Z",
      "version": 5,
      "changeset": 26752192,
      "user": "FrViPofm",
      "uid": 107257,
      "tags": {
        "amenity": "drinking_water"
      }
    },
    {
      "type": "node",
      "id": 1509698658,
      "lat": 37.7821089,
      "lon": 14.0422261,
      "timestamp": "2011-11-20T12:43:02Z",
      "version": 1,
      "changeset": 9883431,
      "user": "dipingi",
      "uid": 199045,
      "tags": {
        "amenity": "drinking_water"
      }
    },
    {
      "type": "node",
      "id": 1509699272,
      "lat": 37.7834254,
      "lon": 14.0441196,
      "timestamp": "2011-11-20T12:44:02Z",
      "version": 1,
      "changeset": 9883431,
      "user": "dipingi",
      "uid": 199045,
      "tags": {
        "amenity": "drinking_water"
      }
    },
    {
      "type": "node",
      "id": 1511529627,
      "lat": 37.8102143,
      "lon": 14.0378794,
      "timestamp": "2021-03-09T10:03:47Z",
      "version": 2,
      "changeset": 100699599,
      "user": "Darix27",
      "uid": 12139320,
      "tags": {
        "amenity": "drinking_water"
      }
    },
    {
      "type": "node",
      "id": 1511530424,
      "lat": 37.8071835,
      "lon": 14.0360038,
      "timestamp": "2011-11-21T13:53:10Z",
      "version": 1,
      "changeset": 9897368,
      "user": "dipingi",
      "uid": 199045,
      "tags": {
        "amenity": "drinking_water"
      }
    },
    {
      "type": "node",
      "id": 1511530721,
      "lat": 37.8063274,
      "lon": 14.0367548,
      "timestamp": "2011-11-21T13:53:48Z",
      "version": 1,
      "changeset": 9897368,
      "user": "dipingi",
      "uid": 199045,
      "tags": {
        "amenity": "drinking_water"
      }
    },
    {
      "type": "node",
      "id": 1511530878,
      "lat": 37.8011399,
      "lon": 14.0389655,
      "timestamp": "2011-11-21T13:54:32Z",
      "version": 1,
      "changeset": 9897368,
      "user": "dipingi",
      "uid": 199045,
      "tags": {
        "amenity": "drinking_water"
      }
    },
    {
      "type": "node",
      "id": 1796961649,
      "lat": 37.7817158,
      "lon": 13.7152773,
      "timestamp": "2012-06-21T12:32:31Z",
      "version": 1,
      "changeset": 11968356,
      "user": "gibiino",
      "uid": 709176,
      "tags": {
        "name": "Supermarcket Ditta Vittorio",
        "shop": "supermarket"
      }
    },
    {
      "type": "node",
      "id": 1870151107,
      "lat": 38.0790395,
      "lon": 13.5186391,
      "timestamp": "2012-08-17T14:08:05Z",
      "version": 1,
      "changeset": 12763035,
      "user": "Matthias Frank",
      "uid": 287306,
      "tags": {
        "name": "Carrefour",
        "shop": "supermarket"
      }
    },
    {
      "type": "node",
      "id": 1870186701,
      "lat": 38.088334,
      "lon": 13.5043074,
      "timestamp": "2012-08-17T14:34:56Z",
      "version": 1,
      "changeset": 12763140,
      "user": "Matthias Frank",
      "uid": 287306,
      "tags": {
        "name": "Sisa",
        "shop": "supermarket"
      }
    },
    {
      "type": "node",
      "id": 1870186702,
      "lat": 38.080679,
      "lon": 13.504438,
      "timestamp": "2021-02-28T20:21:00Z",
      "version": 3,
      "changeset": 100155230,
      "user": "Matthias Frank",
      "uid": 287306,
      "tags": {
        "name": "Maxistore Decò",
        "old_name": "Simply",
        "shop": "supermarket"
      }
    },
    {
      "type": "node",
      "id": 1871508167,
      "lat": 38.081855,
      "lon": 13.5113373,
      "timestamp": "2012-08-18T14:50:33Z",
      "version": 1,
      "changeset": 12773690,
      "user": "Matthias Frank",
      "uid": 287306,
      "tags": {
        "name": "Sigma",
        "shop": "supermarket"
      }
    },
    {
      "type": "node",
      "id": 1872529976,
      "lat": 38.0821785,
      "lon": 13.5010173,
      "timestamp": "2012-08-19T11:28:23Z",
      "version": 1,
      "changeset": 12781579,
      "user": "Matthias Frank",
      "uid": 287306,
      "tags": {
        "name": "Ard Discount",
        "shop": "supermarket"
      }
    },
    {
      "type": "node",
      "id": 1874211852,
      "lat": 38.0870568,
      "lon": 13.5005792,
      "timestamp": "2012-08-20T10:56:09Z",
      "version": 1,
      "changeset": 12794117,
      "user": "Matthias Frank",
      "uid": 287306,
      "tags": {
        "name": "Il Centesimo",
        "shop": "supermarket"
      }
    },
    {
      "type": "node",
      "id": 1876126105,
      "lat": 38.0812364,
      "lon": 13.5067636,
      "timestamp": "2013-03-26T17:38:27Z",
      "version": 2,
      "changeset": 15505946,
      "user": "mcheckimport",
      "uid": 893327,
      "tags": {
        "name": "erboristeria",
        "organic": "only",
        "shop": "supermarket"
      }
    },
    {
      "type": "node",
      "id": 1879138962,
      "lat": 38.0844088,
      "lon": 13.5079472,
      "timestamp": "2020-07-20T22:26:40Z",
      "version": 3,
      "changeset": 88267495,
      "user": "5R-MFT",
      "uid": 3417876,
      "tags": {
        "name": "Paghi Poco",
        "shop": "supermarket"
      }
    },
    {
      "type": "node",
      "id": 1984078246,
      "lat": 37.8754462,
      "lon": 14.008187,
      "timestamp": "2012-10-26T14:22:55Z",
      "version": 2,
      "changeset": 13638940,
      "user": "capraa",
      "uid": 743432,
      "tags": {
        "amenity": "drinking_water",
        "name": "Bevaio del Faggio"
      }
    },
    {
      "type": "node",
      "id": 2012999758,
      "lat": 38.0974484,
      "lon": 13.412439,
      "timestamp": "2021-04-19T17:28:56Z",
      "version": 3,
      "changeset": 103214741,
      "user": "Robitabu",
      "uid": 222966,
      "tags": {
        "brand": "Conad",
        "brand:wikidata": "Q639075",
        "brand:wikipedia": "it:Conad",
        "name": "Conad",
        "shop": "supermarket"
      }
    },
    {
      "type": "node",
      "id": 2018537971,
      "lat": 38.0851857,
      "lon": 13.5110451,
      "timestamp": "2012-11-17T19:02:02Z",
      "version": 1,
      "changeset": 13908580,
      "user": "Matthias Frank",
      "uid": 287306,
      "tags": {
        "name": "Spaccio alimentari",
        "shop": "convenience"
      }
    },
    {
      "type": "node",
      "id": 2025055975,
      "lat": 37.8359136,
      "lon": 13.7983111,
      "timestamp": "2019-10-24T15:51:51Z",
      "version": 7,
      "changeset": 76163971,
      "user": "aldoct",
      "uid": 923271,
      "tags": {
        "alt_name": "Monte Soprana",
        "alt_name:2": "Monte Granza",
        "ele": "1145.8",
        "name": "Monte Roccelito",
        "natural": "peak",
        "wikidata": "Q3862024",
        "wikipedia": "it:Monte Roccelito"
      }
    },
    {
      "type": "node",
      "id": 2193357777,
      "lat": 38.0833204,
      "lon": 13.5031351,
      "timestamp": "2013-03-09T22:36:51Z",
      "version": 1,
      "changeset": 15308646,
      "user": "Matthias Frank",
      "uid": 287306,
      "tags": {
        "name": "Forté",
        "shop": "supermarket"
      }
    },
    {
      "type": "node",
      "id": 2285351558,
      "lat": 37.8354102,
      "lon": 14.0520634,
      "timestamp": "2021-03-08T11:54:23Z",
      "version": 2,
      "changeset": 100635222,
      "user": "Darix27",
      "uid": 12139320,
      "tags": {
        "amenity": "drinking_water"
      }
    },
    {
      "type": "node",
      "id": 2285493719,
      "lat": 37.8744933,
      "lon": 13.9653408,
      "timestamp": "2020-11-17T13:28:52Z",
      "version": 3,
      "changeset": 94281011,
      "user": "Edward",
      "uid": 364,
      "tags": {
        "ele": "1792",
        "name": "Monte dei Cervi",
        "natural": "peak",
        "wikidata": "Q55831452"
      }
    },
    {
      "type": "node",
      "id": 2323138381,
      "lat": 38.0837984,
      "lon": 13.5041632,
      "timestamp": "2020-09-26T22:59:33Z",
      "version": 5,
      "changeset": 91565564,
      "user": "Matthias Frank",
      "uid": 287306,
      "tags": {
        "name": "Decò",
        "old_name": "Carrefour",
        "shop": "supermarket"
      }
    },
    {
      "type": "node",
      "id": 2364686969,
      "lat": 37.944412,
      "lon": 13.9734142,
      "timestamp": "2013-06-28T17:49:00Z",
      "version": 1,
      "changeset": 16742835,
      "user": "aldoct",
      "uid": 923271,
      "tags": {
        "name": "Grotta dei Panni",
        "natural": "cave_entrance"
      }
    },
    {
      "type": "node",
      "id": 2365744965,
      "lat": 37.9593596,
      "lon": 13.9927934,
      "timestamp": "2013-06-29T14:21:46Z",
      "version": 1,
      "changeset": 16752605,
      "user": "aldoct",
      "uid": 923271,
      "tags": {
        "name": "Pozzo di Puraccia",
        "natural": "cave_entrance"
      }
    },
    {
      "type": "node",
      "id": 2372457410,
      "lat": 37.9394908,
      "lon": 13.9889287,
      "timestamp": "2013-07-03T19:31:24Z",
      "version": 1,
      "changeset": 16811293,
      "user": "aldoct",
      "uid": 923271,
      "tags": {
        "name": "Grotta dell'Appesa",
        "natural": "cave_entrance"
      }
    },
    {
      "type": "node",
      "id": 2408891812,
      "lat": 37.9648371,
      "lon": 13.4561239,
      "timestamp": "2013-08-06T13:35:24Z",
      "version": 1,
      "changeset": 17241242,
      "user": "it9bxo",
      "uid": 1263250,
      "tags": {
        "amenity": "drinking_water"
      }
    },
    {
      "type": "node",
      "id": 2408900219,
      "lat": 37.9699902,
      "lon": 13.4572434,
      "timestamp": "2015-02-22T11:58:02Z",
      "version": 3,
      "changeset": 29018958,
      "user": "stefano22",
      "uid": 2410773,
      "tags": {
        "name": "Hard Discount",
        "shop": "supermarket"
      }
    },
    {
      "type": "node",
      "id": 2419169578,
      "lat": 37.997271,
      "lon": 13.513655,
      "timestamp": "2013-08-14T18:33:15Z",
      "version": 1,
      "changeset": 17349834,
      "user": "Matthias Frank",
      "uid": 287306,
      "tags": {
        "name": "Villaggio La Madonnina",
        "place": "hamlet"
      }
    },
    {
      "type": "node",
      "id": 2427919155,
      "lat": 37.8905189,
      "lon": 13.9125729,
      "timestamp": "2019-09-21T16:00:50Z",
      "version": 2,
      "changeset": 74753047,
      "user": "fayor",
      "uid": 743479,
      "tags": {
        "name": "Borgo Eras A",
        "place": "hamlet",
        "population": "31"
      }
    },
    {
      "type": "node",
      "id": 2427938669,
      "lat": 37.8830153,
      "lon": 13.9196471,
      "timestamp": "2013-08-22T11:19:26Z",
      "version": 1,
      "changeset": 17453940,
      "user": "aldoct",
      "uid": 923271,
      "tags": {
        "name": "Borgo Eras B",
        "place": "hamlet"
      }
    },
    {
      "type": "node",
      "id": 2430872708,
      "lat": 37.9249599,
      "lon": 13.9415743,
      "timestamp": "2018-11-15T14:57:45Z",
      "version": 2,
      "changeset": 64532761,
      "user": "aldoct",
      "uid": 923271,
      "tags": {
        "amenity": "drinking_water"
      }
    },
    {
      "type": "node",
      "id": 2430872741,
      "lat": 37.9483405,
      "lon": 13.9469691,
      "timestamp": "2018-11-14T06:34:25Z",
      "version": 2,
      "changeset": 64470312,
      "user": "aldoct",
      "uid": 923271,
      "tags": {
        "building": "yes",
        "tourism": "wilderness_hut"
      }
    },
    {
      "type": "node",
      "id": 2430898972,
      "lat": 37.9607651,
      "lon": 13.9732066,
      "timestamp": "2020-11-19T00:03:45Z",
      "version": 5,
      "changeset": 94400819,
      "user": "Edward",
      "uid": 364,
      "tags": {
        "access": "yes",
        "name": "Grotta Grattara",
        "natural": "cave_entrance",
        "tourism": "attraction",
        "wikidata": "Q73014885"
      }
    },
    {
      "type": "node",
      "id": 2432078994,
      "lat": 37.9650239,
      "lon": 13.9701508,
      "timestamp": "2017-10-07T17:32:41Z",
      "version": 2,
      "changeset": 52713480,
      "user": "aldoct",
      "uid": 923271,
      "tags": {
        "amenity": "drinking_water"
      }
    },
    {
      "type": "node",
      "id": 2461688055,
      "lat": 38.0334066,
      "lon": 14.015392,
      "timestamp": "2018-02-13T08:00:54Z",
      "version": 6,
      "changeset": 56316243,
      "user": "bagugum",
      "uid": 7606676,
      "tags": {
        "name": "Decò Superstore",
        "shop": "supermarket"
      }
    },
    {
      "type": "node",
      "id": 2466791476,
      "lat": 37.744582,
      "lon": 14.062024,
      "timestamp": "2018-04-25T07:07:05Z",
      "version": 2,
      "changeset": 58398528,
      "user": "aldoct",
      "uid": 923271,
      "tags": {
        "historic": "yes",
        "name": "Fonte dell'Olio",
        "natural": "spring"
      }
    },
    {
      "type": "node",
      "id": 2545925093,
      "lat": 37.8247301,
      "lon": 13.4424275,
      "timestamp": "2020-04-02T16:03:01Z",
      "version": 4,
      "changeset": 82989446,
      "user": "procuste",
      "uid": 1211315,
      "tags": {
        "name": "Borgo Littorio",
        "place": "hamlet"
      }
    },
    {
      "type": "node",
      "id": 2545948601,
      "lat": 37.7424703,
      "lon": 13.7048469,
      "timestamp": "2019-09-22T16:20:59Z",
      "version": 4,
      "changeset": 74775947,
      "user": "fayor",
      "uid": 743479,
      "tags": {
        "name": "Marcatobianco",
        "place": "hamlet",
        "population": "100",
        "wikidata": "Q3845431",
        "wikipedia": "it:Marcatobianco"
      }
    },
    {
      "type": "node",
      "id": 2546172883,
      "lat": 37.8791567,
      "lon": 13.9125048,
      "timestamp": "2014-02-04T16:10:30Z",
      "version": 3,
      "changeset": 20374753,
      "user": "aldoct",
      "uid": 923271,
      "tags": {
        "name": "Case Cantoniere Cammisini",
        "place": "hamlet"
      }
    },
    {
      "type": "node",
      "id": 2551488563,
      "lat": 37.7918766,
      "lon": 13.6112354,
      "timestamp": "2019-09-26T18:41:25Z",
      "version": 3,
      "changeset": 74977207,
      "user": "fayor",
      "uid": 743479,
      "tags": {
        "name": "Borgo Manganaro",
        "place": "hamlet",
        "population": "21"
      }
    },
    {
      "type": "node",
      "id": 2553447234,
      "lat": 37.869781,
      "lon": 13.6367198,
      "timestamp": "2018-03-14T21:52:08Z",
      "version": 3,
      "changeset": 57191903,
      "user": "aldoct",
      "uid": 923271,
      "tags": {
        "name": "Sambuchi",
        "place": "hamlet"
      }
    },
    {
      "type": "node",
      "id": 2553462201,
      "lat": 37.8194055,
      "lon": 13.6382019,
      "timestamp": "2020-11-17T13:52:43Z",
      "version": 4,
      "changeset": 94282595,
      "user": "Edward",
      "uid": 364,
      "tags": {
        "name": "Regalgioffoli",
        "place": "village",
        "population": "247",
        "wikidata": "Q2513299"
      }
    },
    {
      "type": "node",
      "id": 2611038667,
      "lat": 38.0469761,
      "lon": 13.5088803,
      "timestamp": "2019-10-02T22:54:53Z",
      "version": 2,
      "changeset": 75204796,
      "user": "fayor",
      "uid": 743479,
      "tags": {
        "name": "Bellacera",
        "place": "hamlet",
        "population": "220"
      }
    },
    {
      "type": "node",
      "id": 2617627874,
      "lat": 37.9627964,
      "lon": 13.5961765,
      "timestamp": "2014-12-29T17:21:34Z",
      "version": 2,
      "changeset": 27779428,
      "user": "Alecs01",
      "uid": 1476146,
      "tags": {
        "amenity": "drinking_water",
        "source": "GPS"
      }
    },
    {
      "type": "node",
      "id": 2874640110,
      "lat": 37.8800852,
      "lon": 14.0329011,
      "timestamp": "2014-05-22T16:57:25Z",
      "version": 1,
      "changeset": 22489660,
      "user": "santon",
      "uid": 817113,
      "tags": {
        "natural": "cave_entrance"
      }
    },
    {
      "type": "node",
      "id": 2925778424,
      "lat": 37.9621942,
      "lon": 13.966641,
      "timestamp": "2014-06-21T11:12:10Z",
      "version": 1,
      "changeset": 23059708,
      "user": "aldoct",
      "uid": 923271,
      "tags": {
        "amenity": "drinking_water"
      }
    },
    {
      "type": "node",
      "id": 2927649655,
      "lat": 37.9468023,
      "lon": 13.9792852,
      "timestamp": "2020-11-17T13:28:37Z",
      "version": 3,
      "changeset": 94281011,
      "user": "Edward",
      "uid": 364,
      "tags": {
        "ele": "1383.7",
        "name": "Pizzo Dipilo",
        "natural": "peak",
        "wikidata": "Q25559867"
      }
    },
    {
      "type": "node",
      "id": 2942539288,
      "lat": 37.9876936,
      "lon": 13.8836015,
      "timestamp": "2014-07-01T20:32:53Z",
      "version": 1,
      "changeset": 23417939,
      "user": "Koukypa",
      "uid": 2159692,
      "tags": {
        "addr:city": "Campofelice di Roccella",
        "addr:postcode": "90010",
        "addr:street": "Viale Italia",
        "name": "Conad",
        "shop": "supermarket"
      }
    },
    {
      "type": "node",
      "id": 2945359752,
      "lat": 37.9851974,
      "lon": 13.8838678,
      "timestamp": "2014-07-03T06:43:26Z",
      "version": 1,
      "changeset": 23754240,
      "user": "Koukypa",
      "uid": 2159692,
      "tags": {
        "addr:city": "Campofelice di Roccella",
        "addr:housenumber": "4",
        "addr:postcode": "90010",
        "addr:street": "Viale Europa",
        "name": "Crai",
        "shop": "supermarket"
      }
    },
    {
      "type": "node",
      "id": 2969855398,
      "lat": 37.9891665,
      "lon": 13.3604494,
      "timestamp": "2014-07-19T08:35:39Z",
      "version": 1,
      "changeset": 24234737,
      "user": "aldoct",
      "uid": 923271,
      "tags": {
        "ele": "680",
        "name": "Portella Staccia",
        "natural": "saddle"
      }
    },
    {
      "type": "node",
      "id": 2971185222,
      "lat": 37.8924404,
      "lon": 13.404588,
      "timestamp": "2018-08-04T20:57:18Z",
      "version": 2,
      "changeset": 61361990,
      "user": "Supaplex030",
      "uid": 418040,
      "tags": {
        "amenity": "drinking_water",
        "seasonal": "wet_season"
      }
    },
    {
      "type": "node",
      "id": 2971316100,
      "lat": 37.8873292,
      "lon": 13.3910212,
      "timestamp": "2014-07-20T10:55:37Z",
      "version": 1,
      "changeset": 24251742,
      "user": "aldoct",
      "uid": 923271,
      "tags": {
        "amenity": "drinking_water"
      }
    },
    {
      "type": "node",
      "id": 2971707878,
      "lat": 37.9153163,
      "lon": 13.4025486,
      "timestamp": "2017-08-14T08:51:06Z",
      "version": 2,
      "changeset": 51103341,
      "user": "aldoct",
      "uid": 923271,
      "tags": {
        "amenity": "drinking_water"
      }
    },
    {
      "type": "node",
      "id": 3149042465,
      "lat": 37.975018,
      "lon": 13.4561057,
      "timestamp": "2015-02-22T11:57:04Z",
      "version": 2,
      "changeset": 29018958,
      "user": "stefano22",
      "uid": 2410773,
      "tags": {
        "addr:housename": "CONAD",
        "name": "CONAD",
        "shop": "supermarket"
      }
    },
    {
      "type": "node",
      "id": 3298124896,
      "lat": 38.0269269,
      "lon": 13.9824225,
      "timestamp": "2015-09-18T21:26:49Z",
      "version": 3,
      "changeset": 34111818,
      "user": "mcheckimport",
      "uid": 893327,
      "tags": {
        "caravans": "yes",
        "email": "info@campingsanfilippo.com",
        "internet_access": "wlan",
        "internet_access:fee": "no",
        "name": "Camping Sanfilippo",
        "phone": "+39 0921 420184",
        "tents": "yes",
        "tourism": "camp_site",
        "website": "www.campingsanfilippo.com"
      }
    },
    {
      "type": "node",
      "id": 3387882697,
      "lat": 38.1126058,
      "lon": 13.3777238,
      "timestamp": "2015-03-07T16:41:47Z",
      "version": 1,
      "changeset": 29312016,
      "user": "calicojroger",
      "uid": 2733520,
      "tags": {
        "name": "Tonno Coalma",
        "shop": "convenience"
      }
    },
    {
      "type": "node",
      "id": 3388395047,
      "lat": 38.1440807,
      "lon": 13.3604231,
      "timestamp": "2015-04-01T13:44:04Z",
      "version": 2,
      "changeset": 29903101,
      "user": "wheelmap_visitor",
      "uid": 290680,
      "tags": {
        "name": "Spaccio Alimentare",
        "shop": "supermarket",
        "wheelchair": "yes"
      }
    },
    {
      "type": "node",
      "id": 3388398851,
      "lat": 38.1418632,
      "lon": 13.3619264,
      "timestamp": "2015-07-30T21:05:49Z",
      "version": 3,
      "changeset": 32993473,
      "user": "Leeboris",
      "uid": 2270334,
      "tags": {
        "addr:street": "Via Don Orione",
        "name": "Sisa Venery",
        "shop": "supermarket",
        "wheelchair": "yes"
      }
    },
    {
      "type": "node",
      "id": 3396047256,
      "lat": 38.1363186,
      "lon": 13.359554,
      "timestamp": "2015-04-01T13:56:15Z",
      "version": 3,
      "changeset": 29905219,
      "user": "cirospat",
      "uid": 1757182,
      "tags": {
        "name": "Spazio Alimentare Pago Poco",
        "shop": "supermarket",
        "wheelchair": "yes"
      }
    },
    {
      "type": "node",
      "id": 3396047677,
      "lat": 38.1364958,
      "lon": 13.3599778,
      "timestamp": "2015-04-01T13:38:25Z",
      "version": 2,
      "changeset": 29903101,
      "user": "wheelmap_visitor",
      "uid": 290680,
      "tags": {
        "name": "Fortè discount",
        "shop": "supermarket",
        "wheelchair": "limited"
      }
    },
    {
      "type": "node",
      "id": 3401381133,
      "lat": 37.8119497,
      "lon": 14.0044782,
      "timestamp": "2015-03-16T08:05:05Z",
      "version": 1,
      "changeset": 29511019,
      "user": "calicojroger",
      "uid": 2733520,
      "tags": {
        "name": "Alimentari Sausa",
        "shop": "supermarket"
      }
    },
    {
      "type": "node",
      "id": 3429390579,
      "lat": 37.813219,
      "lon": 13.999889,
      "timestamp": "2015-03-31T21:07:42Z",
      "version": 1,
      "changeset": 29890543,
      "user": "calicojroger",
      "uid": 2733520,
      "tags": {
        "amenity": "drinking_water"
      }
    },
    {
      "type": "node",
      "id": 3429390582,
      "lat": 37.8123079,
      "lon": 14.0040491,
      "timestamp": "2015-03-31T21:07:42Z",
      "version": 1,
      "changeset": 29890543,
      "user": "calicojroger",
      "uid": 2733520,
      "tags": {
        "amenity": "drinking_water"
      }
    },
    {
      "type": "node",
      "id": 3429391219,
      "lat": 37.8134571,
      "lon": 13.9934487,
      "timestamp": "2015-04-02T02:02:54Z",
      "version": 2,
      "changeset": 29918794,
      "user": "mcheckimport",
      "uid": 893327,
      "tags": {
        "amenity": "drinking_water"
      }
    },
    {
      "type": "node",
      "id": 3451713101,
      "lat": 37.8569798,
      "lon": 13.8233051,
      "timestamp": "2020-12-18T14:39:52Z",
      "version": 3,
      "changeset": 96076921,
      "user": "aldoct",
      "uid": 923271,
      "tags": {
        "amenity": "drinking_water",
        "name": "Bevaio Santa Maria"
      }
    },
    {
      "type": "node",
      "id": 3451747236,
      "lat": 37.848198,
      "lon": 13.7978725,
      "timestamp": "2018-02-17T07:37:30Z",
      "version": 2,
      "changeset": 56433917,
      "user": "aldoct",
      "uid": 923271,
      "tags": {
        "amenity": "drinking_water",
        "name": "Bevaio Soprano"
      }
    },
    {
      "type": "node",
      "id": 3562111691,
      "lat": 38.0848556,
      "lon": 13.5143586,
      "timestamp": "2015-05-31T22:20:53Z",
      "version": 1,
      "changeset": 31620338,
      "user": "Matthias Frank",
      "uid": 287306,
      "tags": {
        "name": "Sigma",
        "shop": "supermarket"
      }
    },
    {
      "type": "node",
      "id": 3609757706,
      "lat": 38.0823152,
      "lon": 13.5062587,
      "timestamp": "2015-06-21T21:38:41Z",
      "version": 1,
      "changeset": 32126447,
      "user": "Matthias Frank",
      "uid": 287306,
      "tags": {
        "name": "Salumeria Lilly Market",
        "shop": "convenience"
      }
    },
    {
      "type": "node",
      "id": 3682002560,
      "lat": 38.0885248,
      "lon": 13.5055127,
      "timestamp": "2016-02-06T13:51:20Z",
      "version": 2,
      "changeset": 37041078,
      "user": "Matthias Frank",
      "uid": 287306,
      "tags": {
        "name": "frutta secca, dolciumi",
        "shop": "convenience"
      }
    },
    {
      "type": "node",
      "id": 3682002565,
      "lat": 38.0882208,
      "lon": 13.5055476,
      "timestamp": "2015-08-05T09:35:07Z",
      "version": 1,
      "changeset": 33122645,
      "user": "Matthias Frank",
      "uid": 287306,
      "tags": {
        "name": "De Caro, market alimentari",
        "shop": "convenience"
      }
    },
    {
      "type": "node",
      "id": 3683815125,
      "lat": 38.0887872,
      "lon": 13.5051559,
      "timestamp": "2015-08-06T11:15:34Z",
      "version": 1,
      "changeset": 33151945,
      "user": "Matthias Frank",
      "uid": 287306,
      "tags": {
        "name": "frutta e verdura",
        "shop": "convenience"
      }
    },
    {
      "type": "node",
      "id": 3685244505,
      "lat": 38.0755764,
      "lon": 13.5020341,
      "timestamp": "2015-08-07T09:16:50Z",
      "version": 1,
      "changeset": 33174658,
      "user": "Matthias Frank",
      "uid": 287306,
      "tags": {
        "name": "Sisa",
        "shop": "supermarket"
      }
    },
    {
      "type": "node",
      "id": 3728901528,
      "lat": 37.9421361,
      "lon": 14.0278432,
      "timestamp": "2015-09-04T09:07:05Z",
      "version": 1,
      "changeset": 33788869,
      "user": "Giuseppe Sacco",
      "uid": 193457,
      "tags": {
        "amenity": "drinking_water"
      }
    },
    {
      "type": "node",
      "id": 3731919325,
      "lat": 37.794066,
      "lon": 13.673932,
      "timestamp": "2015-09-06T17:20:42Z",
      "version": 1,
      "changeset": 33837749,
      "user": "Léon",
      "uid": 371798,
      "tags": {
        "amenity": "drinking_water"
      }
    },
    {
      "type": "node",
      "id": 3737551725,
      "lat": 38.113452,
      "lon": 13.365342,
      "timestamp": "2015-09-10T14:36:17Z",
      "version": 1,
      "changeset": 33935018,
      "user": "Léon",
      "uid": 371798,
      "tags": {
        "name": "Mini Market",
        "shop": "supermarket"
      }
    },
    {
      "type": "node",
      "id": 3760938073,
      "lat": 37.9866059,
      "lon": 14.0178935,
      "timestamp": "2015-09-26T23:13:57Z",
      "version": 1,
      "changeset": 34273465,
      "user": "Riccardo Stagni",
      "uid": 67621,
      "tags": {
        "amenity": "drinking_water"
      }
    },
    {
      "type": "node",
      "id": 3761410078,
      "lat": 37.9426287,
      "lon": 14.007085,
      "timestamp": "2015-09-27T12:55:56Z",
      "version": 1,
      "changeset": 34282564,
      "user": "Riccardo Stagni",
      "uid": 67621,
      "tags": {
        "amenity": "drinking_water"
      }
    },
    {
      "type": "node",
      "id": 3761410121,
      "lat": 37.9434614,
      "lon": 14.0057427,
      "timestamp": "2015-09-27T12:55:57Z",
      "version": 1,
      "changeset": 34282564,
      "user": "Riccardo Stagni",
      "uid": 67621,
      "tags": {
        "amenity": "drinking_water"
      }
    },
    {
      "type": "node",
      "id": 3761410577,
      "lat": 37.9442438,
      "lon": 14.0063948,
      "timestamp": "2017-06-09T21:12:59Z",
      "version": 3,
      "changeset": 49407954,
      "user": "orko10",
      "uid": 540164,
      "tags": {
        "amenity": "drinking_water"
      }
    },
    {
      "type": "node",
      "id": 3761410592,
      "lat": 37.9448012,
      "lon": 14.0071449,
      "timestamp": "2015-09-27T12:55:58Z",
      "version": 1,
      "changeset": 34282564,
      "user": "Riccardo Stagni",
      "uid": 67621,
      "tags": {
        "amenity": "drinking_water"
      }
    },
    {
      "type": "node",
      "id": 3761410631,
      "lat": 37.9453456,
      "lon": 14.0057911,
      "timestamp": "2015-09-27T12:55:59Z",
      "version": 1,
      "changeset": 34282564,
      "user": "Riccardo Stagni",
      "uid": 67621,
      "tags": {
        "amenity": "drinking_water"
      }
    },
    {
      "type": "node",
      "id": 3868595169,
      "lat": 38.1376958,
      "lon": 13.3609682,
      "timestamp": "2019-11-21T03:55:31Z",
      "version": 5,
      "changeset": 77352757,
      "user": "dgitto",
      "uid": 554973,
      "tags": {
        "addr:city": "Palermo",
        "addr:housenumber": "119",
        "addr:postcode": "90142",
        "addr:street": "Via Montalbo",
        "name": "Mercato alimentare all'apero in via Montalbo",
        "shop": "supermarket",
        "wheelchair": "yes",
        "wheelchair:description": "orario: 8-19 generi: frutta, ortaggi, pesce"
      }
    },
    {
      "type": "node",
      "id": 3946456422,
      "lat": 38.0923561,
      "lon": 13.3651289,
      "timestamp": "2019-03-26T10:49:09Z",
      "version": 3,
      "changeset": 68541322,
      "user": "Robitabu",
      "uid": 222966,
      "tags": {
        "addr:housename": "Todis supermarket",
        "name": "SISA supermercato",
        "shop": "supermarket",
        "wheelchair": "yes"
      }
    },
    {
      "type": "node",
      "id": 3955609059,
      "lat": 38.0551742,
      "lon": 13.5345014,
      "timestamp": "2019-01-18T13:43:19Z",
      "version": 2,
      "changeset": 66427560,
      "user": "Pippinoto",
      "uid": 3996886,
      "tags": {
        "name": "Decò",
        "shop": "supermarket"
      }
    },
    {
      "type": "node",
      "id": 3978740915,
      "lat": 38.0948833,
      "lon": 13.3972908,
      "timestamp": "2016-01-30T22:15:04Z",
      "version": 1,
      "changeset": 36906990,
      "user": "stefano22",
      "uid": 2410773,
      "tags": {
        "name": "Eurospin brancaccio",
        "shop": "supermarket"
      }
    },
    {
      "type": "node",
      "id": 3978740916,
      "lat": 38.094604,
      "lon": 13.3964242,
      "timestamp": "2021-04-24T13:38:41Z",
      "version": 2,
      "changeset": 103537714,
      "user": "Robitabu",
      "uid": 222966,
      "tags": {
        "brand": "Simply Market",
        "brand:wikidata": "Q3484790",
        "brand:wikipedia": "en:Simply Market",
        "name": "Simply Market",
        "shop": "supermarket"
      }
    },
    {
      "type": "node",
      "id": 3992303406,
      "lat": 38.0885895,
      "lon": 13.5112152,
      "timestamp": "2016-02-06T16:56:06Z",
      "version": 1,
      "changeset": 37044395,
      "user": "Matthias Frank",
      "uid": 287306,
      "tags": {
        "name": "Newgel",
        "shop": "convenience"
      }
    },
    {
      "type": "node",
      "id": 4070030102,
      "lat": 37.8461942,
      "lon": 13.7896325,
      "timestamp": "2020-04-18T16:38:11Z",
      "version": 6,
      "changeset": 83749183,
      "user": "aldoct",
      "uid": 923271,
      "tags": {
        "ele": "825.1",
        "mountain_pass": "yes",
        "name": "Selletta Fondo Soprano",
        "natural": "saddle"
      }
    },
    {
      "type": "node",
      "id": 4083437377,
      "lat": 37.7229071,
      "lon": 13.5326858,
      "timestamp": "2016-03-28T17:48:51Z",
      "version": 1,
      "changeset": 38125980,
      "user": "aldoct",
      "uid": 923271,
      "tags": {
        "name": "Riena",
        "place": "hamlet"
      }
    },
    {
      "type": "node",
      "id": 4091109411,
      "lat": 38.089245,
      "lon": 13.503586,
      "timestamp": "2016-04-01T22:51:46Z",
      "version": 1,
      "changeset": 38240028,
      "user": "Matthias Frank",
      "uid": 287306,
      "tags": {
        "name": "sapori del contadino, vini e salumi",
        "shop": "convenience"
      }
    },
    {
      "type": "node",
      "id": 4091109413,
      "lat": 38.0892171,
      "lon": 13.5043914,
      "timestamp": "2019-10-03T22:45:05Z",
      "version": 2,
      "changeset": 75254831,
      "user": "fayor",
      "uid": 743479,
      "tags": {
        "name": "Enoteca",
        "shop": "convenience"
      }
    },
    {
      "type": "node",
      "id": 4111344182,
      "lat": 38.0234372,
      "lon": 13.5626356,
      "timestamp": "2016-04-10T09:59:48Z",
      "version": 1,
      "changeset": 38446696,
      "user": "aldoct",
      "uid": 923271,
      "tags": {
        "name": "Grotta Mazzamuto",
        "natural": "cave_entrance"
      }
    },
    {
      "type": "node",
      "id": 4144849246,
      "lat": 37.8916144,
      "lon": 13.6414175,
      "timestamp": "2019-06-14T08:03:43Z",
      "version": 4,
      "changeset": 71243407,
      "user": "aldoct",
      "uid": 923271,
      "tags": {
        "ele": "642.1",
        "mountain_pass": "yes",
        "name": "Portella dei Miseri",
        "natural": "saddle"
      }
    },
    {
      "type": "node",
      "id": 4245892052,
      "lat": 38.1365049,
      "lon": 13.3613895,
      "timestamp": "2017-12-13T11:05:22Z",
      "version": 3,
      "changeset": 54592674,
      "user": "parukhin",
      "uid": 519501,
      "tags": {
        "addr:street": "Via dei Cantieri",
        "name": "Crai",
        "opening_hours": "09:00-13:00,16:00-20:00",
        "shop": "supermarket",
        "wheelchair": "yes"
      }
    },
    {
      "type": "node",
      "id": 4276557979,
      "lat": 37.9502954,
      "lon": 13.4171555,
      "timestamp": "2017-07-27T20:08:01Z",
      "version": 2,
      "changeset": 50630538,
      "user": "aldoct",
      "uid": 923271,
      "tags": {
        "amenity": "drinking_water"
      }
    },
    {
      "type": "node",
      "id": 4328874651,
      "lat": 37.8132494,
      "lon": 13.9973049,
      "timestamp": "2021-01-02T15:26:53Z",
      "version": 2,
      "changeset": 96812504,
      "user": "Ciccio sez-Polizzi G",
      "uid": 12420293,
      "tags": {
        "amenity": "drinking_water",
        "drinking_water": "yes"
      }
    },
    {
      "type": "node",
      "id": 4338895118,
      "lat": 38.0644531,
      "lon": 13.5077402,
      "timestamp": "2016-08-06T20:20:49Z",
      "version": 1,
      "changeset": 41293498,
      "user": "Matthias Frank",
      "uid": 287306,
      "tags": {
        "name": "Conad",
        "shop": "supermarket"
      }
    },
    {
      "type": "node",
      "id": 4365458383,
      "lat": 37.7936293,
      "lon": 14.0377393,
      "timestamp": "2019-09-20T18:19:22Z",
      "version": 3,
      "changeset": 74731466,
      "user": "fayor",
      "uid": 743479,
      "tags": {
        "name": "Calcarelli",
        "place": "village",
        "population": "931",
        "wikidata": "Q2059726",
        "wikipedia": "it:Calcarelli"
      }
    },
    {
      "type": "node",
      "id": 4385133489,
      "lat": 38.0904517,
      "lon": 13.5127997,
      "timestamp": "2017-06-10T11:12:37Z",
      "version": 3,
      "changeset": 49417957,
      "user": "wheelmap_android",
      "uid": 524500,
      "tags": {
        "level": "0",
        "name": "Eurospar",
        "shop": "supermarket",
        "toilets:wheelchair": "yes",
        "wheelchair": "yes"
      }
    },
    {
      "type": "node",
      "id": 4442415722,
      "lat": 37.9377642,
      "lon": 13.6871573,
      "timestamp": "2018-04-22T14:17:36Z",
      "version": 2,
      "changeset": 58311273,
      "user": "aldoct",
      "uid": 923271,
      "tags": {
        "amenity": "drinking_water",
        "designation": "fontanella",
        "source": "gps"
      }
    },
    {
      "type": "node",
      "id": 4654014892,
      "lat": 38.0975179,
      "lon": 13.4164922,
      "timestamp": "2020-11-25T12:52:23Z",
      "version": 3,
      "changeset": 94775944,
      "user": "fayor",
      "uid": 743479,
      "tags": {
        "amenity": "drinking_water",
        "name:it": "Acqua potabile"
      }
    },
    {
      "type": "node",
      "id": 4654080991,
      "lat": 38.0853363,
      "lon": 13.4260845,
      "timestamp": "2021-04-08T12:37:08Z",
      "version": 3,
      "changeset": 102565179,
      "user": "Robitabu",
      "uid": 222966,
      "tags": {
        "addr:street": "Via Messina Montagne",
        "brand": "Conad",
        "brand:wikidata": "Q639075",
        "brand:wikipedia": "it:Conad",
        "name": "Conad",
        "name:it": "Conad",
        "shop": "supermarket"
      }
    },
    {
      "type": "node",
      "id": 4661094093,
      "lat": 38.0749431,
      "lon": 13.4507041,
      "timestamp": "2021-03-28T10:03:31Z",
      "version": 3,
      "changeset": 101866736,
      "user": "Robitabu",
      "uid": 222966,
      "tags": {
        "addr:city": "Villabate",
        "addr:housenumber": "627",
        "addr:postcode": "90039",
        "addr:street": "Corso Vittorio Emanuele",
        "brand": "Conad",
        "brand:wikidata": "Q639075",
        "brand:wikipedia": "it:Conad",
        "name": "Conad",
        "name:it": "Conad",
        "shop": "supermarket"
      }
    },
    {
      "type": "node",
      "id": 4675430893,
      "lat": 38.0813708,
      "lon": 13.4366584,
      "timestamp": "2017-09-23T14:43:58Z",
      "version": 2,
      "changeset": 52305814,
      "user": "fayor",
      "uid": 743479,
      "tags": {
        "name": "Ard",
        "opening_hours": "Mo-Sa; Su 08:00-13:00",
        "shop": "supermarket"
      }
    },
    {
      "type": "node",
      "id": 4682085896,
      "lat": 38.0745637,
      "lon": 13.4532451,
      "timestamp": "2018-05-17T11:08:35Z",
      "version": 3,
      "changeset": 59045433,
      "user": "wheelmap_android",
      "uid": 524500,
      "tags": {
        "addr:street": "Via Faraona",
        "name": "Fortè",
        "opening_hours": "Mo-Sa 09:00-20:00; Su 09:00-09:00, 13:00-13:00",
        "shop": "supermarket",
        "wheelchair": "yes"
      }
    },
    {
      "type": "node",
      "id": 4699343490,
      "lat": 38.1236984,
      "lon": 13.3652408,
      "timestamp": "2017-02-22T15:10:04Z",
      "version": 1,
      "changeset": 46310047,
      "user": "Giuseppe Bonura",
      "uid": 5242891,
      "tags": {
        "addr:street": "Via Alessandro Volta",
        "name": "Aviko surgelati",
        "name:it": "Aviko surgelati",
        "opening_hours": "Mo-Sa",
        "shop": "supermarket"
      }
    },
    {
      "type": "node",
      "id": 4716318289,
      "lat": 38.1131183,
      "lon": 13.3655545,
      "timestamp": "2017-06-18T19:16:14Z",
      "version": 2,
      "changeset": 49642004,
      "user": "kalkhas",
      "uid": 5688580,
      "tags": {
        "addr:street": "largo A Butera",
        "name": "Lidl",
        "name:it": "Lidl",
        "opening_hours": "Mo-Sa 08:00-22:00; Su 09:00-21:00",
        "shop": "supermarket"
      }
    },
    {
      "type": "node",
      "id": 4807346621,
      "lat": 37.9765545,
      "lon": 13.9619217,
      "timestamp": "2017-10-07T17:32:41Z",
      "version": 2,
      "changeset": 52713480,
      "user": "aldoct",
      "uid": 923271,
      "tags": {
        "amenity": "drinking_water"
      }
    },
    {
      "type": "node",
      "id": 4888396201,
      "lat": 37.8472836,
      "lon": 14.0336454,
      "timestamp": "2017-06-09T21:44:56Z",
      "version": 3,
      "changeset": 49408539,
      "user": "orko10",
      "uid": 540164,
      "tags": {
        "amenity": "drinking_water",
        "name": "Abbeveratotio"
      }
    },
    {
      "type": "node",
      "id": 4896525597,
      "lat": 38.0250501,
      "lon": 13.5589491,
      "timestamp": "2017-06-05T06:09:12Z",
      "version": 1,
      "changeset": 49258346,
      "user": "lagnuso74",
      "uid": 668895,
      "tags": {
        "name": "Piano Madonna",
        "place": "village"
      }
    },
    {
      "type": "node",
      "id": 4906689967,
      "lat": 37.9447017,
      "lon": 14.0068587,
      "timestamp": "2017-06-09T21:14:11Z",
      "version": 1,
      "changeset": 49407974,
      "user": "orko10",
      "uid": 540164,
      "tags": {
        "amenity": "drinking_water"
      }
    },
    {
      "type": "node",
      "id": 4906697567,
      "lat": 37.9232948,
      "lon": 14.0410854,
      "timestamp": "2017-06-09T21:20:18Z",
      "version": 1,
      "changeset": 49408078,
      "user": "orko10",
      "uid": 540164,
      "tags": {
        "amenity": "drinking_water"
      }
    },
    {
      "type": "node",
      "id": 4906714471,
      "lat": 37.8773152,
      "lon": 13.9730131,
      "timestamp": "2021-06-29T08:44:27Z",
      "version": 2,
      "changeset": 107133575,
      "user": "aldoct",
      "uid": 923271,
      "tags": {
        "amenity": "drinking_water"
      }
    },
    {
      "type": "node",
      "id": 4906717089,
      "lat": 37.8576282,
      "lon": 14.0059111,
      "timestamp": "2017-06-09T21:38:09Z",
      "version": 1,
      "changeset": 49408436,
      "user": "orko10",
      "uid": 540164,
      "tags": {
        "amenity": "drinking_water"
      }
    },
    {
      "type": "node",
      "id": 4906724921,
      "lat": 37.8477026,
      "lon": 14.0328271,
      "timestamp": "2017-06-09T21:43:55Z",
      "version": 1,
      "changeset": 49408521,
      "user": "orko10",
      "uid": 540164,
      "tags": {
        "amenity": "drinking_water"
      }
    },
    {
      "type": "node",
      "id": 4906729422,
      "lat": 37.8264837,
      "lon": 14.0600614,
      "timestamp": "2017-06-09T21:50:03Z",
      "version": 1,
      "changeset": 49408647,
      "user": "orko10",
      "uid": 540164,
      "tags": {
        "amenity": "drinking_water"
      }
    },
    {
      "type": "node",
      "id": 4938692206,
      "lat": 38.0973961,
      "lon": 13.5326883,
      "timestamp": "2017-06-27T15:36:20Z",
      "version": 1,
      "changeset": 49865434,
      "user": "maiwolf",
      "uid": 346869,
      "tags": {
        "name": "Campeggio Olimpo",
        "tourism": "camp_site"
      }
    },
    {
      "type": "node",
      "id": 4938699913,
      "lat": 38.0902135,
      "lon": 13.4532637,
      "timestamp": "2021-03-24T19:09:08Z",
      "version": 2,
      "changeset": 101669596,
      "user": "Robitabu",
      "uid": 222966,
      "tags": {
        "brand": "Conad",
        "brand:wikidata": "Q639075",
        "brand:wikipedia": "it:Conad",
        "name": "Conad",
        "shop": "supermarket"
      }
    },
    {
      "type": "node",
      "id": 4938701586,
      "lat": 38.1069814,
      "lon": 13.3832473,
      "timestamp": "2017-06-27T15:45:49Z",
      "version": 1,
      "changeset": 49865592,
      "user": "maiwolf",
      "uid": 346869,
      "tags": {
        "amenity": "drinking_water"
      }
    },
    {
      "type": "node",
      "id": 5007809775,
      "lat": 37.8638579,
      "lon": 13.4073007,
      "timestamp": "2017-08-01T17:13:48Z",
      "version": 1,
      "changeset": 50758586,
      "user": "aldoct",
      "uid": 923271,
      "tags": {
        "natural": "spring"
      }
    },
    {
      "type": "node",
      "id": 5027773122,
      "lat": 38.1178189,
      "lon": 13.3632975,
      "timestamp": "2017-08-11T06:46:09Z",
      "version": 1,
      "changeset": 51022271,
      "user": "John Bek",
      "uid": 3800987,
      "tags": {
        "addr:housenumber": "29",
        "addr:street": "Discesa Maccheronai",
        "name": "Forneria B. Bonaccorso",
        "shop": "convenience"
      }
    },
    {
      "type": "node",
      "id": 5032858851,
      "lat": 37.8702144,
      "lon": 13.3672419,
      "timestamp": "2017-08-13T18:07:28Z",
      "version": 1,
      "changeset": 51089071,
      "user": "aldoct",
      "uid": 923271,
      "tags": {
        "name": "Fonte Ramusa",
        "natural": "spring"
      }
    },
    {
      "type": "node",
      "id": 5042699524,
      "lat": 38.1171715,
      "lon": 13.3740138,
      "timestamp": "2017-12-10T20:44:23Z",
      "version": 2,
      "changeset": 54522157,
      "user": "cirospat",
      "uid": 1757182,
      "tags": {
        "amenity": "drinking_water",
        "wheelchair": "yes"
      }
    },
    {
      "type": "node",
      "id": 5047493021,
      "lat": 38.1134095,
      "lon": 13.3645825,
      "timestamp": "2017-08-21T07:36:39Z",
      "version": 1,
      "changeset": 51293446,
      "user": "Michele Redolfi",
      "uid": 6192920,
      "tags": {
        "amenity": "drinking_water"
      }
    },
    {
      "type": "node",
      "id": 5048954890,
      "lat": 38.1173331,
      "lon": 13.3637259,
      "timestamp": "2017-08-21T17:50:41Z",
      "version": 1,
      "changeset": 51313827,
      "user": "Michele Redolfi",
      "uid": 6192920,
      "tags": {
        "amenity": "drinking_water"
      }
    },
    {
      "type": "node",
      "id": 5060702499,
      "lat": 37.8755924,
      "lon": 14.0276255,
      "timestamp": "2017-08-28T09:31:20Z",
      "version": 2,
      "changeset": 51502645,
      "user": "Ale_Zena_IT",
      "uid": 22290,
      "tags": {
        "addr:city": "Petralia Sottana",
        "description": "Il Grifone è un Centro di educazione Ambientale e del turismo Sostenibile gestito da Legambiente Sicilia. Qui si svolgono attività per gruppi e scuole, si possono prenotare visite guiidate e si possono noleggiare MTB, bastoni di Nordic Walking, Ciaspole.",
        "internet_access": "no",
        "name": "Rifugio Il Grifone, Centro di Educazione Ambientale e del Turismo Sostenibile",
        "operator": "Legambiente Sicilia",
        "tourism": "alpine_hut"
      }
    },
    {
      "type": "node",
      "id": 5060702500,
      "lat": 37.8803504,
      "lon": 14.0333224,
      "timestamp": "2020-11-08T06:59:40Z",
      "version": 2,
      "changeset": 93729244,
      "user": "He2",
      "uid": 1029658,
      "tags": {
        "name": "Inghiottitoio della Battaglietta",
        "natural": "cave_entrance"
      }
    },
    {
      "type": "node",
      "id": 5060706136,
      "lat": 37.8755924,
      "lon": 14.0276255,
      "timestamp": "2017-08-27T05:52:35Z",
      "version": 2,
      "changeset": 51473316,
      "user": "dgitto",
      "uid": 554973,
      "tags": {
        "addr:city": "Petralia Sottana",
        "description": "Il Grifone è un centro di educazione ambientale e del turismo sostenibile gestito da Legambiente Sicilia. Si svolgono attività per gruppi e scuole, si possono prenotare visite guiidate e si possono noleggiare MTB, bastoni di Nordic Walking, ciaspole.",
        "internet_access": "no",
        "name": "Rigugio Il Grifone",
        "operator": "Legambiente Sicilia",
        "tourism": "alpine_hut"
      }
    },
    {
      "type": "node",
      "id": 5076281163,
      "lat": 37.8216139,
      "lon": 13.8546279,
      "timestamp": "2017-09-02T23:44:54Z",
      "version": 1,
      "changeset": 51682337,
      "user": "Arlas",
      "uid": 354343,
      "tags": {
        "addr:housenumber": "1",
        "addr:street": "Via Roma",
        "name": "Minimarket",
        "operator": "Giuseppina Calato",
        "shop": "convenience"
      }
    },
    {
      "type": "node",
      "id": 5076512723,
      "lat": 38.040333,
      "lon": 14.0195694,
      "timestamp": "2017-09-03T05:43:06Z",
      "version": 1,
      "changeset": 51684677,
      "user": "Francesco Milani",
      "uid": 4721800,
      "tags": {
        "amenity": "drinking_water"
      }
    },
    {
      "type": "node",
      "id": 5076523921,
      "lat": 38.0354516,
      "lon": 14.0215877,
      "timestamp": "2017-09-26T18:34:55Z",
      "version": 2,
      "changeset": 52393662,
      "user": "Francesco Milani",
      "uid": 4721800,
      "tags": {
        "amenity": "drinking_water",
        "name": "Fontana del parco"
      }
    },
    {
      "type": "node",
      "id": 5108138028,
      "lat": 38.0760705,
      "lon": 13.4478685,
      "timestamp": "2020-07-09T08:52:47Z",
      "version": 3,
      "changeset": 87753487,
      "user": "Robitabu",
      "uid": 222966,
      "tags": {
        "addr:street": "Corso Vittorio Emanuele",
        "name": "Igloo",
        "opening_hours": "Mo-Sa 00:00-24:00",
        "shop": "convenience"
      }
    },
    {
      "type": "node",
      "id": 5145850590,
      "lat": 37.9513841,
      "lon": 13.9517219,
      "timestamp": "2017-10-07T17:42:47Z",
      "version": 2,
      "changeset": 52713720,
      "user": "aldoct",
      "uid": 923271,
      "tags": {
        "amenity": "drinking_water"
      }
    },
    {
      "type": "node",
      "id": 5225350552,
      "lat": 38.0823514,
      "lon": 13.50427,
      "timestamp": "2017-11-12T20:36:22Z",
      "version": 1,
      "changeset": 53723180,
      "user": "Matthias Frank",
      "uid": 287306,
      "tags": {
        "name": "Conad",
        "shop": "supermarket"
      }
    },
    {
      "type": "node",
      "id": 5279756418,
      "lat": 37.7467219,
      "lon": 13.6025249,
      "timestamp": "2017-12-12T14:20:10Z",
      "version": 1,
      "changeset": 54567626,
      "user": "gionax",
      "uid": 6757296,
      "tags": {
        "amenity": "drinking_water"
      }
    },
    {
      "type": "node",
      "id": 5327842239,
      "lat": 37.913596,
      "lon": 13.9982493,
      "timestamp": "2019-02-11T21:54:30Z",
      "version": 2,
      "changeset": 67114011,
      "user": "aldoct",
      "uid": 923271,
      "tags": {
        "name": "Sorgente Favara",
        "natural": "spring"
      }
    },
    {
      "type": "node",
      "id": 5335772719,
      "lat": 38.0353216,
      "lon": 13.3892977,
      "timestamp": "2018-01-13T00:51:32Z",
      "version": 2,
      "changeset": 55396411,
      "user": "aldoct",
      "uid": 923271,
      "tags": {
        "ele": "658",
        "mountain_pass": "yes",
        "name": "Portella del Vecchio",
        "natural": "saddle"
      }
    },
    {
      "type": "node",
      "id": 5336163683,
      "lat": 38.0049595,
      "lon": 13.3598283,
      "timestamp": "2018-11-01T11:58:29Z",
      "version": 2,
      "changeset": 64075874,
      "user": "aldoct",
      "uid": 923271,
      "tags": {
        "amenity": "drinking_water",
        "name": "Abbeveratoio Bucconello"
      }
    },
    {
      "type": "node",
      "id": 5409325437,
      "lat": 38.0376758,
      "lon": 14.0200671,
      "timestamp": "2018-02-13T08:00:47Z",
      "version": 1,
      "changeset": 56316243,
      "user": "bagugum",
      "uid": 7606676,
      "tags": {
        "amenity": "drinking_water"
      }
    },
    {
      "type": "node",
      "id": 5409325438,
      "lat": 38.039352,
      "lon": 14.022835,
      "timestamp": "2018-02-13T08:00:47Z",
      "version": 1,
      "changeset": 56316243,
      "user": "bagugum",
      "uid": 7606676,
      "tags": {
        "amenity": "drinking_water"
      }
    },
    {
      "type": "node",
      "id": 5435418849,
      "lat": 37.8783594,
      "lon": 14.0002835,
      "timestamp": "2018-02-25T14:45:49Z",
      "version": 1,
      "changeset": 56662708,
      "user": "fayor",
      "uid": 743479,
      "tags": {
        "name": "Mandria del Conte",
        "place": "hamlet"
      }
    },
    {
      "type": "node",
      "id": 5443852992,
      "lat": 38.0403645,
      "lon": 13.5474159,
      "timestamp": "2018-02-28T21:33:50Z",
      "version": 1,
      "changeset": 56768920,
      "user": "Matthias Frank",
      "uid": 287306,
      "tags": {
        "name": "Briò",
        "shop": "supermarket"
      }
    },
    {
      "type": "node",
      "id": 5443852994,
      "lat": 38.0427389,
      "lon": 13.5512113,
      "timestamp": "2018-02-28T21:33:50Z",
      "version": 1,
      "changeset": 56768920,
      "user": "Matthias Frank",
      "uid": 287306,
      "tags": {
        "name": "La Bottega del Caffè",
        "shop": "convenience"
      }
    },
    {
      "type": "node",
      "id": 5469378756,
      "lat": 38.0101893,
      "lon": 13.9281477,
      "timestamp": "2018-03-10T15:42:56Z",
      "version": 2,
      "changeset": 57060897,
      "user": "rovizz",
      "uid": 1746996,
      "tags": {
        "name": "Super Spaccio Alimentare",
        "shop": "supermarket"
      }
    },
    {
      "type": "node",
      "id": 5469384600,
      "lat": 38.0100978,
      "lon": 13.9274601,
      "timestamp": "2018-03-10T15:42:39Z",
      "version": 1,
      "changeset": 57060887,
      "user": "rovizz",
      "uid": 1746996,
      "tags": {
        "name": "Ard discount",
        "shop": "supermarket"
      }
    },
    {
      "type": "node",
      "id": 5552173021,
      "lat": 37.8552431,
      "lon": 13.9059204,
      "timestamp": "2020-11-25T12:52:23Z",
      "version": 2,
      "changeset": 94775944,
      "user": "fayor",
      "uid": 743479,
      "tags": {
        "amenity": "drinking_water"
      }
    },
    {
      "type": "node",
      "id": 5553982822,
      "lat": 37.8619477,
      "lon": 13.9138866,
      "timestamp": "2018-04-23T20:23:12Z",
      "version": 2,
      "changeset": 58351377,
      "user": "aldoct",
      "uid": 923271,
      "tags": {
        "name": "Sorgente Gonfalone",
        "natural": "spring"
      }
    },
    {
      "type": "node",
      "id": 5554216724,
      "lat": 37.8557715,
      "lon": 13.9072036,
      "timestamp": "2020-09-22T05:20:41Z",
      "version": 2,
      "changeset": 91262429,
      "user": "dgitto",
      "uid": 554973,
      "tags": {
        "amenity": "drinking_water"
      }
    },
    {
      "type": "node",
      "id": 5554216725,
      "lat": 37.8575502,
      "lon": 13.9054443,
      "timestamp": "2018-04-23T20:23:12Z",
      "version": 2,
      "changeset": 58351377,
      "user": "aldoct",
      "uid": 923271,
      "tags": {
        "amenity": "drinking_water"
      }
    },
    {
      "type": "node",
      "id": 5571196273,
      "lat": 37.9301046,
      "lon": 13.648316,
      "timestamp": "2018-04-22T14:58:41Z",
      "version": 1,
      "changeset": 58312101,
      "user": "aldoct",
      "uid": 923271,
      "tags": {
        "amenity": "drinking_water"
      }
    },
    {
      "type": "node",
      "id": 5574574975,
      "lat": 37.8627589,
      "lon": 13.9139458,
      "timestamp": "2018-04-23T20:23:06Z",
      "version": 1,
      "changeset": 58351377,
      "user": "aldoct",
      "uid": 923271,
      "tags": {
        "name": "Sorgente Agnello",
        "natural": "spring"
      }
    },
    {
      "type": "node",
      "id": 5706260921,
      "lat": 38.0304097,
      "lon": 14.0005819,
      "timestamp": "2020-09-26T14:05:58Z",
      "version": 3,
      "changeset": 91552889,
      "user": "Taichi853",
      "uid": 11885021,
      "tags": {
        "brand": "MD",
        "brand:wikidata": "Q3841263",
        "brand:wikipedia": "en:MD Discount",
        "name": "MD",
        "opening_hours": "Mo-Su 09:00-22:00",
        "shop": "supermarket"
      }
    },
    {
      "type": "node",
      "id": 5711309399,
      "lat": 37.7318072,
      "lon": 13.4333663,
      "timestamp": "2018-06-22T12:27:56Z",
      "version": 1,
      "changeset": 60074749,
      "user": "Bernard59118",
      "uid": 136303,
      "tags": {
        "amenity": "drinking_water"
      }
    },
    {
      "type": "node",
      "id": 5726273446,
      "lat": 38.0869586,
      "lon": 13.4550638,
      "timestamp": "2018-06-28T16:57:40Z",
      "version": 1,
      "changeset": 60255150,
      "user": "Bernard59118",
      "uid": 136303,
      "tags": {
        "amenity": "drinking_water"
      }
    },
    {
      "type": "node",
      "id": 5737460830,
      "lat": 38.1152931,
      "lon": 13.3674424,
      "timestamp": "2019-01-22T01:51:14Z",
      "version": 2,
      "changeset": 66523504,
      "user": "RobertoJK",
      "uid": 7231228,
      "tags": {
        "amenity": "drinking_water"
      }
    },
    {
      "type": "node",
      "id": 5920419940,
      "lat": 38.0869338,
      "lon": 13.3663653,
      "timestamp": "2018-09-21T12:03:29Z",
      "version": 1,
      "changeset": 62794628,
      "user": "Roberto Inzerillo",
      "uid": 6383490,
      "tags": {
        "name": "Carrefour",
        "shop": "supermarket"
      }
    },
    {
      "type": "node",
      "id": 6033564888,
      "lat": 38.0407561,
      "lon": 14.0225723,
      "timestamp": "2019-08-28T20:42:46Z",
      "version": 2,
      "changeset": 73857200,
      "user": "JackNUMBER",
      "uid": 4846986,
      "tags": {
        "name": "LaCefalu Nostrana",
        "shop": "supermarket"
      }
    },
    {
      "type": "node",
      "id": 6063818079,
      "lat": 37.9249793,
      "lon": 13.9416316,
      "timestamp": "2018-11-15T14:57:44Z",
      "version": 1,
      "changeset": 64532761,
      "user": "aldoct",
      "uid": 923271,
      "tags": {
        "amenity": "drinking_water"
      }
    },
    {
      "type": "node",
      "id": 6168902986,
      "lat": 38.1104901,
      "lon": 13.3636633,
      "timestamp": "2021-03-21T11:45:40Z",
      "version": 2,
      "changeset": 101435623,
      "user": "Patrick Lou",
      "uid": 10123674,
      "tags": {
        "name": "Mercari Ballaro",
        "name:en": "Market Ballaro",
        "name:ru": "рынок",
        "shop": "convenience"
      }
    },
    {
      "type": "node",
      "id": 6214029481,
      "lat": 37.8266849,
      "lon": 13.4859358,
      "timestamp": "2020-06-18T14:38:59Z",
      "version": 4,
      "changeset": 86830972,
      "user": "fayor",
      "uid": 743479,
      "tags": {
        "name": "Campofelice di Fitalia",
        "name:scn": "Campufilici di Fitalia",
        "place": "village",
        "population": "475",
        "source": "Istat novembre 2019"
      }
    },
    {
      "type": "node",
      "id": 6214031921,
      "lat": 37.8264432,
      "lon": 13.485616,
      "timestamp": "2019-01-16T17:36:29Z",
      "version": 1,
      "changeset": 66370998,
      "user": "vohokudul",
      "uid": 9211483,
      "tags": {
        "amenity": "drinking_water"
      }
    },
    {
      "type": "node",
      "id": 6214031957,
      "lat": 37.8277006,
      "lon": 13.4861144,
      "timestamp": "2019-01-16T17:36:30Z",
      "version": 1,
      "changeset": 66370998,
      "user": "vohokudul",
      "uid": 9211483,
      "tags": {
        "amenity": "drinking_water"
      }
    },
    {
      "type": "node",
      "id": 6259151310,
      "lat": 37.9650115,
      "lon": 13.9890437,
      "timestamp": "2019-02-05T04:59:23Z",
      "version": 1,
      "changeset": 66922429,
      "user": "aldoct",
      "uid": 923271,
      "tags": {
        "name": "Sorgente Capo d'Acqua",
        "natural": "spring"
      }
    },
    {
      "type": "node",
      "id": 6332713946,
      "lat": 37.9223398,
      "lon": 13.5693752,
      "timestamp": "2019-03-12T09:01:14Z",
      "version": 1,
      "changeset": 68053764,
      "user": "aldoct",
      "uid": 923271,
      "tags": {
        "amenity": "drinking_water"
      }
    },
    {
      "type": "node",
      "id": 6450327991,
      "lat": 37.7200097,
      "lon": 13.4334616,
      "timestamp": "2019-05-05T18:01:10Z",
      "version": 1,
      "changeset": 69911545,
      "user": "aldoct",
      "uid": 923271,
      "tags": {
        "amenity": "drinking_water"
      }
    },
    {
      "type": "node",
      "id": 6461973740,
      "lat": 37.7723791,
      "lon": 13.4943505,
      "timestamp": "2019-05-27T16:06:33Z",
      "version": 2,
      "changeset": 70667005,
      "user": "aldoct",
      "uid": 923271,
      "tags": {
        "name": "Borgo Portella della Croce",
        "place": "hamlet"
      }
    },
    {
      "type": "node",
      "id": 6468275575,
      "lat": 37.7271477,
      "lon": 13.4410563,
      "timestamp": "2019-05-12T16:08:19Z",
      "version": 1,
      "changeset": 70164359,
      "user": "aldoct",
      "uid": 923271,
      "tags": {
        "amenity": "drinking_water"
      }
    },
    {
      "type": "node",
      "id": 6468367592,
      "lat": 37.7634993,
      "lon": 13.5010439,
      "timestamp": "2019-06-01T14:28:49Z",
      "version": 2,
      "changeset": 70836733,
      "user": "aldoct",
      "uid": 923271,
      "tags": {
        "amenity": "drinking_water"
      }
    },
    {
      "type": "node",
      "id": 6468587845,
      "lat": 37.7200044,
      "lon": 13.5200246,
      "timestamp": "2019-06-01T11:10:44Z",
      "version": 2,
      "changeset": 70833033,
      "user": "aldoct",
      "uid": 923271,
      "tags": {
        "amenity": "drinking_water"
      }
    },
    {
      "type": "node",
      "id": 6469391681,
      "lat": 37.7725339,
      "lon": 13.4953442,
      "timestamp": "2019-05-13T08:01:44Z",
      "version": 1,
      "changeset": 70180739,
      "user": "aldoct",
      "uid": 923271,
      "tags": {
        "amenity": "drinking_water"
      }
    },
    {
      "type": "node",
      "id": 6514729598,
      "lat": 37.7221526,
      "lon": 13.4264758,
      "timestamp": "2019-06-01T08:00:35Z",
      "version": 1,
      "changeset": 70830014,
      "user": "aldoct",
      "uid": 923271,
      "tags": {
        "amenity": "drinking_water"
      }
    },
    {
      "type": "node",
      "id": 6514899353,
      "lat": 37.7206123,
      "lon": 13.5195807,
      "timestamp": "2019-06-01T11:10:44Z",
      "version": 1,
      "changeset": 70833033,
      "user": "aldoct",
      "uid": 923271,
      "tags": {
        "amenity": "drinking_water"
      }
    },
    {
      "type": "node",
      "id": 6515042787,
      "lat": 37.7261856,
      "lon": 13.5432968,
      "timestamp": "2019-06-01T12:53:50Z",
      "version": 1,
      "changeset": 70834898,
      "user": "aldoct",
      "uid": 923271,
      "tags": {
        "amenity": "drinking_water"
      }
    },
    {
      "type": "node",
      "id": 6515133678,
      "lat": 37.7347028,
      "lon": 13.4782264,
      "timestamp": "2019-06-01T14:28:49Z",
      "version": 1,
      "changeset": 70836733,
      "user": "aldoct",
      "uid": 923271,
      "tags": {
        "amenity": "drinking_water"
      }
    },
    {
      "type": "node",
      "id": 6515141415,
      "lat": 37.7618836,
      "lon": 13.4926137,
      "timestamp": "2019-06-01T14:28:49Z",
      "version": 1,
      "changeset": 70836733,
      "user": "aldoct",
      "uid": 923271,
      "tags": {
        "amenity": "drinking_water"
      }
    },
    {
      "type": "node",
      "id": 6532154649,
      "lat": 37.9499803,
      "lon": 13.5972092,
      "timestamp": "2019-06-07T14:22:19Z",
      "version": 1,
      "changeset": 71025602,
      "user": "aldoct",
      "uid": 923271,
      "tags": {
        "amenity": "drinking_water"
      }
    },
    {
      "type": "node",
      "id": 6533310492,
      "lat": 38.0168098,
      "lon": 13.5588375,
      "timestamp": "2019-06-08T05:06:55Z",
      "version": 1,
      "changeset": 71043168,
      "user": "aldoct",
      "uid": 923271,
      "tags": {
        "amenity": "drinking_water",
        "name": "Abbeveratoio Angelìa"
      }
    },
    {
      "type": "node",
      "id": 6538296273,
      "lat": 38.0226179,
      "lon": 14.0105914,
      "timestamp": "2020-12-30T22:23:20Z",
      "version": 2,
      "changeset": 96693371,
      "user": "SantoPanella",
      "uid": 12401952,
      "tags": {
        "drinking_water": "yes",
        "name": "sorgente Pisciotto",
        "natural": "spring"
      }
    },
    {
      "type": "node",
      "id": 6549397809,
      "lat": 37.7797674,
      "lon": 14.0433611,
      "timestamp": "2019-06-15T14:15:34Z",
      "version": 1,
      "changeset": 71280897,
      "user": "aldoct",
      "uid": 923271,
      "tags": {
        "amenity": "drinking_water"
      }
    },
    {
      "type": "node",
      "id": 6613090385,
      "lat": 37.7263935,
      "lon": 13.4365866,
      "timestamp": "2020-06-29T16:15:25Z",
      "version": 3,
      "changeset": 87303616,
      "user": "aldoct",
      "uid": 923271,
      "tags": {
        "amenity": "drinking_water"
      }
    },
    {
      "type": "node",
      "id": 6754237787,
      "lat": 38.0374423,
      "lon": 14.0221491,
      "timestamp": "2019-08-28T20:43:27Z",
      "version": 1,
      "changeset": 73857222,
      "user": "JackNUMBER",
      "uid": 4846986,
      "tags": {
        "access": "yes",
        "amenity": "drinking_water",
        "drinking_water": "yes",
        "indoor": "no"
      }
    },
    {
      "type": "node",
      "id": 6802937593,
      "lat": 38.0887212,
      "lon": 13.4127771,
      "timestamp": "2019-09-17T17:52:38Z",
      "version": 1,
      "changeset": 74593482,
      "user": "tolioalessandro",
      "uid": 3146557,
      "tags": {
        "brand": "Ipercoop",
        "brand:wikidata": "Q6064990",
        "brand:wikipedia": "it:Coop Italia",
        "name": "Ipercoop",
        "operator": "Coop Alleanza 3.0",
        "operator:wikidata": "Q21189584",
        "operator:wikipedia": "it:Coop Alleanza 3.0",
        "shop": "supermarket"
      }
    },
    {
      "type": "node",
      "id": 6814281478,
      "lat": 37.9535047,
      "lon": 13.8499642,
      "timestamp": "2019-09-21T16:00:50Z",
      "version": 1,
      "changeset": 74753047,
      "user": "fayor",
      "uid": 743479,
      "tags": {
        "name": "Borgo Garbinogara",
        "place": "hamlet",
        "population": "10"
      }
    },
    {
      "type": "node",
      "id": 6815808700,
      "lat": 38.0280983,
      "lon": 13.9490425,
      "timestamp": "2019-09-22T16:20:59Z",
      "version": 1,
      "changeset": 74775947,
      "user": "fayor",
      "uid": 743479,
      "tags": {
        "name": "Capo",
        "place": "hamlet",
        "population": "150"
      }
    },
    {
      "type": "node",
      "id": 6836005469,
      "lat": 37.9055756,
      "lon": 13.7076628,
      "timestamp": "2019-09-29T23:58:34Z",
      "version": 1,
      "changeset": 75074652,
      "user": "fayor",
      "uid": 743479,
      "tags": {
        "name": "San Giovanni li Greci",
        "place": "village",
        "population": "472"
      }
    },
    {
      "type": "node",
      "id": 6838948104,
      "lat": 38.0320988,
      "lon": 13.5851732,
      "timestamp": "2019-09-30T22:04:55Z",
      "version": 1,
      "changeset": 75121595,
      "user": "fayor",
      "uid": 743479,
      "tags": {
        "name": "Torre Colonna",
        "place": "hamlet"
      }
    },
    {
      "type": "node",
      "id": 6838948106,
      "lat": 38.0297889,
      "lon": 13.5708828,
      "timestamp": "2019-09-30T22:04:55Z",
      "version": 1,
      "changeset": 75121595,
      "user": "fayor",
      "uid": 743479,
      "tags": {
        "name": "Sperone",
        "place": "village",
        "population": "741"
      }
    },
    {
      "type": "node",
      "id": 6838948107,
      "lat": 38.0282063,
      "lon": 13.5835205,
      "timestamp": "2019-09-30T22:04:55Z",
      "version": 1,
      "changeset": 75121595,
      "user": "fayor",
      "uid": 743479,
      "tags": {
        "name": "San Michele",
        "place": "hamlet",
        "population": "261"
      }
    },
    {
      "type": "node",
      "id": 6906543763,
      "lat": 38.1175247,
      "lon": 13.3615646,
      "timestamp": "2019-10-22T17:07:48Z",
      "version": 1,
      "changeset": 76061320,
      "user": "rm_",
      "uid": 398010,
      "tags": {
        "addr:city": "Palermo",
        "addr:housenumber": "47/53",
        "addr:postcode": "90133",
        "addr:street": "Via Venezia",
        "name": "Supermercato 3C",
        "shop": "supermarket"
      }
    },
    {
      "type": "node",
      "id": 6943570676,
      "lat": 38.0810867,
      "lon": 13.5185151,
      "timestamp": "2019-11-03T19:12:55Z",
      "version": 1,
      "changeset": 76560180,
      "user": "Matthias Frank",
      "uid": 287306,
      "tags": {
        "name": "Todis",
        "shop": "supermarket"
      }
    },