{
  "osm3s": {
    "timestamp_osm_date": "2022-08-13T23:59:59Z",
    "timestamp_osm_base": "2022-08-14T04:15:41Z",
    "copyright": "The data included in this document is from www.openstreetmap.org. The data is made available under ODbL."
  },
  "elements": [
    {
      "type": "node",
      "id": 150932956,
      "lat": 46.2249277,
      "lon": -111.9713804,
      "timestamp": "2020-03-18T00:03:10Z",
      "version": 3,
      "changeset": 82321483,
      "user": "mapman44",
      "uid": 2888253,
      "tags": {
        "ele": "1633",
        "gnis:County": "Jefferson",
        "gnis:County_num": "043",
        "gnis:ST_alpha": "MT",
        "gnis:ST_num": "30",
        "gnis:id": "794190",
        "import_uuid": "bb7269ee-502a-5391-8056-e3ce0e66489c",
        "name": "Blazing Place",
        "place": "hamlet"
      }
    },
    {
      "type": "node",
      "id": 150934347,
      "lat": 46.320207,
      "lon": -112.1072224,
      "timestamp": "2020-03-18T00:03:10Z",
      "version": 3,
      "changeset": 82321483,
      "user": "mapman44",
      "uid": 2888253,
      "tags": {
        "ele": "1663",
        "gnis:County": "Jefferson",
        "gnis:County_num": "043",
        "gnis:ST_alpha": "MT",
        "gnis:ST_num": "30",
        "gnis:id": "778996",
        "import_uuid": "bb7269ee-502a-5391-8056-e3ce0e66489c",
        "name": "Amazon",
        "place": "hamlet"
      }
    },
    {
      "type": "node",
      "id": 150935276,
      "lat": 46.3374295,
      "lon": -112.1183343,
      "timestamp": "2020-03-18T00:03:10Z",
      "version": 3,
      "changeset": 82321483,
      "user": "mapman44",
      "uid": 2888253,
      "tags": {
        "ele": "1672",
        "gnis:County": "Jefferson",
        "gnis:County_num": "043",
        "gnis:ST_alpha": "MT",
        "gnis:ST_num": "30",
        "gnis:id": "789116",
        "import_uuid": "bb7269ee-502a-5391-8056-e3ce0e66489c",
        "name": "Portal",
        "place": "hamlet"
      }
    },
    {
      "type": "node",
      "id": 150936171,
      "lat": 46.2513168,
      "lon": -111.9649914,
      "timestamp": "2020-03-18T00:03:10Z",
      "version": 3,
      "changeset": 82321483,
      "user": "mapman44",
      "uid": 2888253,
      "tags": {
        "ele": "1750",
        "gnis:County": "Jefferson",
        "gnis:County_num": "043",
        "gnis:ST_alpha": "MT",
        "gnis:ST_num": "30",
        "gnis:id": "789287",
        "import_uuid": "bb7269ee-502a-5391-8056-e3ce0e66489c",
        "name": "Queen",
        "place": "hamlet"
      }
    },
    {
      "type": "node",
      "id": 150937098,
      "lat": 46.2577065,
      "lon": -112.3372362,
      "timestamp": "2020-03-18T00:03:10Z",
      "version": 3,
      "changeset": 82321483,
      "user": "mapman44",
      "uid": 2888253,
      "tags": {
        "ele": "1692",
        "gnis:County": "Jefferson",
        "gnis:County_num": "043",
        "gnis:ST_alpha": "MT",
        "gnis:ST_num": "30",
        "gnis:id": "802028",
        "import_uuid": "bb7269ee-502a-5391-8056-e3ce0e66489c",
        "name": "Bernice",
        "place": "hamlet"
      }
    },
    {
      "type": "node",
      "id": 150937791,
      "lat": 46.2677061,
      "lon": -112.0994437,
      "timestamp": "2020-03-18T00:03:10Z",
      "version": 3,
      "changeset": 82321483,
      "user": "mapman44",
      "uid": 2888253,
      "tags": {
        "ele": "1497",
        "gnis:County": "Jefferson",
        "gnis:County_num": "043",
        "gnis:ST_alpha": "MT",
        "gnis:ST_num": "30",
        "gnis:id": "794895",
        "import_uuid": "bb7269ee-502a-5391-8056-e3ce0e66489c",
        "name": "Rieder",
        "place": "hamlet"
      }
    },
    {
      "type": "node",
      "id": 150939440,
      "lat": 46.164928,
      "lon": -112.3722371,
      "timestamp": "2020-03-18T00:03:10Z",
      "version": 3,
      "changeset": 82321483,
      "user": "mapman44",
      "uid": 2888253,
      "tags": {
        "ele": "1901",
        "gnis:County": "Jefferson",
        "gnis:County_num": "043",
        "gnis:ST_alpha": "MT",
        "gnis:ST_num": "30",
        "gnis:id": "783110",
        "import_uuid": "bb7269ee-502a-5391-8056-e3ce0e66489c",
        "name": "Elk Park",
        "place": "hamlet"
      }
    },
    {
      "type": "node",
      "id": 150940390,
      "lat": 46.4648493,
      "lon": -111.9864276,
      "timestamp": "2020-10-02T00:27:49Z",
      "version": 6,
      "changeset": 91849871,
      "user": "randomnumber",
      "uid": 6711796,
      "tags": {
        "gnis:feature_id": "800597",
        "name": "Clancy",
        "place": "village",
        "population": "1661"
      }
    },
    {
      "type": "node",
      "id": 150941738,
      "lat": 46.2346502,
      "lon": -112.1244449,
      "timestamp": "2020-03-18T00:03:10Z",
      "version": 3,
      "changeset": 82321483,
      "user": "mapman44",
      "uid": 2888253,
      "tags": {
        "ele": "1495",
        "gnis:County": "Jefferson",
        "gnis:County_num": "043",
        "gnis:ST_alpha": "MT",
        "gnis:ST_num": "30",
        "gnis:id": "1762598",
        "import_uuid": "bb7269ee-502a-5391-8056-e3ce0e66489c",
        "name": "Sunset Trailer Court",
        "place": "hamlet"
      }
    },
    {
      "type": "node",
      "id": 150946679,
      "lat": 46.2346502,
      "lon": -112.1261117,
      "timestamp": "2020-03-18T00:03:10Z",
      "version": 3,
      "changeset": 82321483,
      "user": "mapman44",
      "uid": 2888253,
      "tags": {
        "ele": "1495",
        "gnis:County": "Jefferson",
        "gnis:County_num": "043",
        "gnis:ST_alpha": "MT",
        "gnis:ST_num": "30",
        "gnis:id": "1762597",
        "import_uuid": "bb7269ee-502a-5391-8056-e3ce0e66489c",
        "name": "Mountain Valley Trailer Court",
        "place": "hamlet"
      }
    },
    {
      "type": "node",
      "id": 150946690,
      "lat": 46.2622716,
      "lon": -112.2036138,
      "timestamp": "2020-03-18T00:03:10Z",
      "version": 4,
      "changeset": 82321483,
      "user": "mapman44",
      "uid": 2888253,
      "tags": {
        "ele": "1558",
        "gnis:County": "Jefferson",
        "gnis:County_num": "043",
        "gnis:ST_alpha": "MT",
        "gnis:ST_num": "30",
        "gnis:id": "783783",
        "import_uuid": "bb7269ee-502a-5391-8056-e3ce0e66489c",
        "name": "Fuller",
        "place": "hamlet"
      }
    },
    {
      "type": "node",
      "id": 150952314,
      "lat": 46.4879874,
      "lon": -112.2466769,
      "timestamp": "2020-03-18T00:03:10Z",
      "version": 3,
      "changeset": 82321483,
      "user": "mapman44",
      "uid": 2888253,
      "tags": {
        "ele": "1611",
        "gnis:County": "Lewis and Clark",
        "gnis:County_num": "049",
        "gnis:ST_alpha": "MT",
        "gnis:ST_num": "30",
        "gnis:id": "806966",
        "import_uuid": "bb7269ee-502a-5391-8056-e3ce0e66489c",
        "name": "Rimini",
        "place": "hamlet"
      }
    },
    {
      "type": "node",
      "id": 150953841,
      "lat": 46.541322,
      "lon": -112.1094465,
      "timestamp": "2020-03-18T00:03:10Z",
      "version": 3,
      "changeset": 82321483,
      "user": "mapman44",
      "uid": 2888253,
      "tags": {
        "ele": "1535",
        "gnis:County": "Lewis and Clark",
        "gnis:County_num": "049",
        "gnis:ST_alpha": "MT",
        "gnis:ST_num": "30",
        "gnis:id": "801276",
        "import_uuid": "bb7269ee-502a-5391-8056-e3ce0e66489c",
        "name": "Park City",
        "place": "hamlet"
      }
    },
    {
      "type": "node",
      "id": 150955451,
      "lat": 46.5413221,
      "lon": -112.0850005,
      "timestamp": "2020-03-18T00:03:10Z",
      "version": 3,
      "changeset": 82321483,
      "user": "mapman44",
      "uid": 2888253,
      "tags": {
        "ele": "1499",
        "gnis:County": "Lewis and Clark",
        "gnis:County_num": "049",
        "gnis:ST_alpha": "MT",
        "gnis:ST_num": "30",
        "gnis:id": "801637",
        "import_uuid": "bb7269ee-502a-5391-8056-e3ce0e66489c",
        "name": "Unionville",
        "place": "hamlet"
      }
    },
    {
      "type": "node",
      "id": 150955469,
      "lat": 46.3496519,
      "lon": -112.1033335,
      "timestamp": "2020-03-18T00:03:10Z",
      "version": 3,
      "changeset": 82321483,
      "user": "mapman44",
      "uid": 2888253,
      "tags": {
        "ele": "1584",
        "gnis:County": "Jefferson",
        "gnis:County_num": "043",
        "gnis:ST_alpha": "MT",
        "gnis:ST_num": "30",
        "gnis:id": "793263",
        "import_uuid": "bb7269ee-502a-5391-8056-e3ce0e66489c",
        "name": "Wickes",
        "place": "hamlet"
      }
    },
    {
      "type": "node",
      "id": 150955884,
      "lat": 46.3804858,
      "lon": -112.0619422,
      "timestamp": "2020-03-18T00:03:10Z",
      "version": 3,
      "changeset": 82321483,
      "user": "mapman44",
      "uid": 2888253,
      "tags": {
        "ele": "1453",
        "gnis:County": "Jefferson",
        "gnis:County_num": "043",
        "gnis:ST_alpha": "MT",
        "gnis:ST_num": "30",
        "gnis:id": "781665",
        "import_uuid": "bb7269ee-502a-5391-8056-e3ce0e66489c",
        "name": "Corbin",
        "place": "hamlet"
      }
    },
    {
      "type": "node",
      "id": 150957100,
      "lat": 46.2713177,
      "lon": -112.2636205,
      "timestamp": "2020-03-18T00:03:10Z",
      "version": 3,
      "changeset": 82321483,
      "user": "mapman44",
      "uid": 2888253,
      "tags": {
        "ele": "1635",
        "gnis:County": "Jefferson",
        "gnis:County_num": "043",
        "gnis:ST_alpha": "MT",
        "gnis:ST_num": "30",
        "gnis:id": "800393",
        "import_uuid": "bb7269ee-502a-5391-8056-e3ce0e66489c",
        "name": "Basin",
        "place": "hamlet"
      }
    },
    {
      "type": "node",
      "id": 150958532,
      "lat": 46.2746506,
      "lon": -111.9458238,
      "timestamp": "2020-03-18T00:03:10Z",
      "version": 4,
      "changeset": 82321483,
      "user": "mapman44",
      "uid": 2888253,
      "tags": {
        "ele": "1964",
        "gnis:County": "Jefferson",
        "gnis:County_num": "043",
        "gnis:ST_alpha": "MT",
        "gnis:ST_num": "30",
        "gnis:id": "783128",
        "import_uuid": "bb7269ee-502a-5391-8056-e3ce0e66489c",
        "name": "Elkhorn",
        "place": "hamlet",
        "wikidata": "Q389288",
        "wikipedia": "en:Elkhorn, Montana"
      }
    },
    {
      "type": "node",
      "id": 150958754,
      "lat": 46.3107625,
      "lon": -112.170004,
      "timestamp": "2020-03-18T00:03:10Z",
      "version": 3,
      "changeset": 82321483,
      "user": "mapman44",
      "uid": 2888253,
      "tags": {
        "ele": "1947",
        "gnis:County": "Jefferson",
        "gnis:County_num": "043",
        "gnis:ST_alpha": "MT",
        "gnis:ST_num": "30",
        "gnis:id": "781541",
        "import_uuid": "bb7269ee-502a-5391-8056-e3ce0e66489c",
        "name": "Comet",
        "place": "hamlet"
      }
    },
    {
      "type": "node",
      "id": 150959177,
      "lat": 46.4513204,
      "lon": -111.988327,
      "timestamp": "2020-03-18T00:03:10Z",
      "version": 3,
      "changeset": 82321483,
      "user": "mapman44",
      "uid": 2888253,
      "tags": {
        "ele": "1305",
        "gnis:County": "Jefferson",
        "gnis:County_num": "043",
        "gnis:ST_alpha": "MT",
        "gnis:ST_num": "30",
        "gnis:id": "778941",
        "import_uuid": "bb7269ee-502a-5391-8056-e3ce0e66489c",
        "name": "Alhambra",
        "place": "hamlet"
      }
    },
    {
      "type": "node",
      "id": 150965394,
      "lat": 46.3882636,
      "lon": -112.0274957,
      "timestamp": "2020-03-18T00:03:10Z",
      "version": 3,
      "changeset": 82321483,
      "user": "mapman44",
      "uid": 2888253,
      "tags": {
        "ele": "1391",
        "gnis:County": "Jefferson",
        "gnis:County_num": "043",
        "gnis:ST_alpha": "MT",
        "gnis:ST_num": "30",
        "gnis:id": "785437",
        "import_uuid": "bb7269ee-502a-5391-8056-e3ce0e66489c",
        "name": "Jefferson City",
        "place": "hamlet"
      }
    },
    {
      "type": "node",
      "id": 150968628,
      "lat": 46.102605,
      "lon": -112.4173518,
      "timestamp": "2020-03-18T00:03:10Z",
      "version": 4,
      "changeset": 82321483,
      "user": "mapman44",
      "uid": 2888253,
      "tags": {
        "ele": "1921",
        "gnis:County": "Jefferson",
        "gnis:County_num": "043",
        "gnis:ST_alpha": "MT",
        "gnis:ST_num": "30",
        "gnis:id": "792356",
        "import_uuid": "bb7269ee-502a-5391-8056-e3ce0e66489c",
        "name": "Trask",
        "place": "hamlet"
      }
    },
    {
      "type": "node",
      "id": 150968895,
      "lat": 46.540855,
      "lon": -111.9463457,
      "timestamp": "2021-05-06T23:57:31Z",
      "version": 4,
      "changeset": 104278469,
      "user": "snarkyclarky",
      "uid": 10422174,
      "tags": {
        "census:population": "2021",
        "ele": "1236",
        "gnis:County": "Jefferson",
        "gnis:County_num": "043",
        "gnis:ST_alpha": "MT",
        "gnis:ST_num": "30",
        "gnis:id": "787566",
        "import_uuid": "bb7269ee-502a-5391-8056-e3ce0e66489c",
        "name": "Montana City",
        "place": "town",
        "population": "2872",
        "wikidata": "Q960527",
        "wikipedia": "en:Montana City, Montana"
      }
    },
    {
      "type": "node",
      "id": 150977426,
      "lat": 46.236595,
      "lon": -112.120834,
      "timestamp": "2020-03-18T00:03:10Z",
      "version": 5,
      "changeset": 82321483,
      "user": "mapman44",
      "uid": 2888253,
      "tags": {
        "census:population": "1445;2006",
        "ele": "1496",
        "gnis:County": "Jefferson",
        "gnis:County_num": "043",
        "gnis:ST_alpha": "MT",
        "gnis:ST_num": "30",
        "gnis:id": "780250",
        "name": "Boulder",
        "place": "town",
        "population": "1445",
        "wikidata": "Q967035"
      }
    },
    {
      "type": "node",
      "id": 150981207,
      "lat": 46.2749284,
      "lon": -112.0772202,
      "timestamp": "2020-03-18T00:03:10Z",
      "version": 3,
      "changeset": 82321483,
      "user": "mapman44",
      "uid": 2888253,
      "tags": {
        "ele": "1499",
        "gnis:County": "Jefferson",
        "gnis:County_num": "043",
        "gnis:ST_alpha": "MT",
        "gnis:ST_num": "30",
        "gnis:id": "794908",
        "import_uuid": "bb7269ee-502a-5391-8056-e3ce0e66489c",
        "name": "Kyle",
        "place": "hamlet"
      }
    },
    {
      "type": "node",
      "id": 2189377203,
      "lat": 46.1411187,
      "lon": -111.832423,
      "timestamp": "2013-03-07T07:43:56Z",
      "version": 1,
      "changeset": 15278959,
      "user": "Shawn Michael",
      "uid": 22902,
      "tags": {
        "name": "Boyd Spring",
        "natural": "spring"
      }
    },
    {
      "type": "node",
      "id": 2189377204,
      "lat": 46.2655747,
      "lon": -111.8264988,
      "timestamp": "2013-03-07T07:43:56Z",
      "version": 1,
      "changeset": 15278959,
      "user": "Shawn Michael",
      "uid": 22902,
      "tags": {
        "name": "Swamp Creek Spring",
        "natural": "spring"
      }
    },
    {
      "type": "node",
      "id": 2189377205,
      "lat": 46.1316262,
      "lon": -111.8073088,
      "timestamp": "2013-03-07T07:43:56Z",
      "version": 1,
      "changeset": 15278959,
      "user": "Shawn Michael",
      "uid": 22902,
      "tags": {
        "name": "Trail Spring",
        "natural": "spring"
      }
    },
    {
      "type": "node",
      "id": 2189377206,
      "lat": 46.2519494,
      "lon": -111.8140931,
      "timestamp": "2013-03-07T07:43:56Z",
      "version": 1,
      "changeset": 15278959,
      "user": "Shawn Michael",
      "uid": 22902,
      "tags": {
        "name": "Two Sam Spring",
        "natural": "spring"
      }
    },
    {
      "type": "node",
      "id": 2189377408,
      "lat": 46.2560513,
      "lon": -111.8323683,
      "timestamp": "2013-03-07T07:44:00Z",
      "version": 1,
      "changeset": 15278959,
      "user": "Shawn Michael",
      "uid": 22902,
      "tags": {
        "natural": "spring"
      }
    },
    {
      "type": "node",
      "id": 2361232649,
      "lat": 46.2714237,
      "lon": -111.9099472,
      "timestamp": "2013-06-26T06:23:41Z",
      "version": 1,
      "changeset": 16708520,
      "user": "Shawn Michael",
      "uid": 22902,
      "tags": {
        "natural": "spring"
      }
    },
    {
      "type": "node",
      "id": 2860717130,
      "lat": 46.2382419,
      "lon": -112.1191971,
      "timestamp": "2021-01-14T12:44:33Z",
      "version": 2,
      "changeset": 97496143,
      "user": "torapa",
      "uid": 5446055,
      "tags": {
        "addr:city": "Boulder",
        "addr:housenumber": "215",
        "addr:postcode": "59632",
        "addr:street": "North Main Street",
        "name": "L & P Grocery",
        "shop": "supermarket"
      }
    },
    {
      "type": "node",
      "id": 3420678212,
      "lat": 46.2440355,
      "lon": -112.1173361,
      "timestamp": "2018-11-04T21:58:13Z",
      "version": 2,
      "changeset": 64179684,
      "user": "cbeddow",
      "uid": 2611295,
      "tags": {
        "name": "Town Pump",
        "shop": "convenience"
      }
    },
    {
      "type": "node",
      "id": 3654089615,
      "lat": 46.5261116,
      "lon": -112.2561111,
      "timestamp": "2015-07-16T12:39:52Z",
      "version": 1,
      "changeset": 32672964,
      "user": "daveroundy",
      "uid": 216905,
      "tags": {
        "name": "Moose Creek campground",
        "tourism": "camp_site"
      }
    },
    {
      "type": "node",
      "id": 3654089618,
      "lat": 46.4427795,
      "lon": -112.1686096,
      "timestamp": "2018-07-26T21:51:14Z",
      "version": 2,
      "changeset": 61101812,
      "user": "Veronika Dominguez",
      "uid": 1788870,
      "tags": {
        "name": "Park Lake campground",
        "tourism": "camp_site",
        "website": "https://www.fs.usda.gov/recarea/hlcnf/recarea/?recid=62843"
      }
    },
    {
      "type": "node",
      "id": 4312136018,
      "lat": 46.2658131,
      "lon": -111.8497799,
      "timestamp": "2016-07-20T03:37:39Z",
      "version": 1,
      "changeset": 40886161,
      "user": "Shawn Michael",
      "uid": 22902,
      "tags": {
        "natural": "spring"
      }
    },
    {
      "type": "node",
      "id": 4312136039,
      "lat": 46.2676599,
      "lon": -111.8452524,
      "timestamp": "2016-07-20T03:37:39Z",
      "version": 1,
      "changeset": 40886161,
      "user": "Shawn Michael",
      "uid": 22902,
      "tags": {
        "natural": "spring"
      }
    },
    {
      "type": "node",
      "id": 4312136138,
      "lat": 46.2750761,
      "lon": -111.8576764,
      "timestamp": "2016-07-20T03:37:40Z",
      "version": 1,
      "changeset": 40886161,
      "user": "Shawn Michael",
      "uid": 22902,
      "tags": {
        "natural": "spring"
      }
    },
    {
      "type": "node",
      "id": 7835546938,
      "lat": 46.2297948,
      "lon": -112.2183895,
      "timestamp": "2020-08-22T17:44:20Z",
      "version": 1,
      "changeset": 89788308,
      "user": "Shawn Michael",
      "uid": 22902,
      "tags": {
        "natural": "spring"
      }
    },
    {
      "type": "node",
      "id": 7835546970,
      "lat": 46.2438946,
      "lon": -112.2548568,
      "timestamp": "2020-08-22T17:44:20Z",
      "version": 1,
      "changeset": 89788308,
      "user": "Shawn Michael",
      "uid": 22902,
      "tags": {
        "natural": "spring"
      }
    },
    {
      "type": "node",
      "id": 7835547254,
      "lat": 46.2228401,
      "lon": -112.2741366,
      "timestamp": "2020-08-22T17:44:20Z",
      "version": 1,
      "changeset": 89788308,
      "user": "Shawn Michael",
      "uid": 22902,
      "tags": {
        "natural": "spring"
      }
    },
    {
      "type": "node",
      "id": 7835547270,
      "lat": 46.2385631,
      "lon": -112.2654301,
      "timestamp": "2020-08-22T17:44:20Z",
      "version": 1,
      "changeset": 89788308,
      "user": "Shawn Michael",
      "uid": 22902,
      "tags": {
        "natural": "spring"
      }
    },
    {
      "type": "node",
      "id": 7964071920,
      "lat": 46.556069,
      "lon": -112.3159527,
      "timestamp": "2020-10-01T16:17:08Z",
      "version": 1,
      "changeset": 91836815,
      "user": "randomnumber",
      "uid": 6711796,
      "tags": {
        "name": "Cromwell Dixon campground",
        "tourism": "camp_site"
      }
    },
    {
      "type": "way",
      "id": 820546381,
      "timestamp": "2020-06-28T22:34:33Z",
      "version": 1,
      "changeset": 87262744,
      "user": "Shawn Michael",
      "uid": 22902,
      "center": {
        "lat": 46.2582605,
        "lon": -112.4749294
      },
      "nodes": [],
      "tags": {
        "cabins": "no",
        "caravans": "yes",
        "name": "Whitehouse Campground",
        "operator": "United States Forest Service",
        "tents": "yes",
        "tourism": "camp_site"
      }
    },
    {
      "type": "way",
      "id": 820546382,
      "timestamp": "2020-06-28T22:34:33Z",
      "version": 1,
      "changeset": 87262744,
      "user": "Shawn Michael",
      "uid": 22902,
      "center": {
        "lat": 46.2517517,
        "lon": -112.4040299
      },
      "nodes": [],
      "tags": {
        "cabins": "no",
        "caravans": "no",
        "name": "Lady Smith",
        "operator": "United States Forest Service",
        "tents": "yes",
        "tourism": "camp_site"
      }
    },
    {
      "type": "way",
      "id": 836239324,
      "timestamp": "2020-08-11T23:43:14Z",
      "version": 1,
      "changeset": 89272608,
      "user": "Shawn Michael",
      "uid": 22902,
      "center": {
        "lat": 46.2543866,
        "lon": -112.1838384
      },
      "nodes": [],
      "tags": {
        "capacity": "12",
        "caravans": "yes",
        "internet_access": "no",
        "name": "Galena Gulch Campground",
        "nudism": "no",
        "operator": "BLM",
        "sanitary_dump_station": "no",
        "tents": "yes",
        "tourism": "camp_site",
        "wheelchair": "limited"
      }
    },
    {
      "type": "way",
      "id": 854084720,
      "timestamp": "2020-10-02T00:18:49Z",
      "version": 1,
      "changeset": 91849785,
      "user": "randomnumber",
      "uid": 6711796,
      "center": {
        "lat": 46.5389019,
        "lon": -111.9341747
      },
      "nodes": [],
      "tags": {
        "amenity": "shelter",
        "building": "yes"
      }
    },
    {
      "type": "way",
      "id": 856111457,
      "timestamp": "2020-10-06T20:09:21Z",
      "version": 1,
      "changeset": 92068425,
      "user": "randomnumber",
      "uid": 6711796,
      "center": {
        "lat": 46.4457438,
        "lon": -112.1705195
      },
      "nodes": [],
      "tags": {
        "name": "Park Lake Campground",
        "tourism": "camp_site"
      }
    },
    {
      "type": "way",
      "id": 973684864,
      "timestamp": "2021-08-16T20:29:10Z",
      "version": 1,
      "changeset": 109771348,
      "user": "randomnumber",
      "uid": 6711796,
      "center": {
        "lat": 46.428499,
        "lon": -112.4825613
      },
      "nodes": [],
      "tags": {
        "access": "yes",
        "charge": "10 USD",
        "fee": "yes",
        "name": "Kading Campground",
        "operator": "USFS",
        "payment:cash": "yes",
        "tourism": "camp_site"
      }
    },
    {
      "type": "way",
      "id": 989744245,
      "timestamp": "2021-10-04T21:43:07Z",
      "version": 1,
      "changeset": 112096435,
      "user": "Jnewberry",
      "uid": 14112225,
      "center": {
        "lat": 46.4538286,
        "lon": -111.9850924
      },
      "nodes": [],
      "tags": {
        "name": "Alahambra RV park",
        "tourism": "camp_site"
      }
    }
  ]
}