{
  "osm3s": {
    "timestamp_osm_date": "2022-06-30T23:59:59Z",
    "timestamp_osm_base": "2022-07-01T05:34:33Z",
    "copyright": "The data included in this document is from www.openstreetmap.org. The data is made available under ODbL."
  },
  "elements": [
    {
      "type": "node",
      "id": 29021962,
      "lat": 28.1023118,
      "lon": -14.3888189,
      "timestamp": "2019-07-16T22:30:54Z",
      "version": 4,
      "changeset": 72324990,
      "user": "Juan_Carlos_G_F-imports",
      "uid": 2802925,
      "tags": {
        "name": "Cofete",
        "place": "village"
      }
    },
    {
      "type": "node",
      "id": 33105405,
      "lat": 28.2121335,
      "lon": -14.2144218,
      "timestamp": "2019-07-16T22:30:54Z",
      "version": 4,
      "changeset": 72324990,
      "user": "Juan_Carlos_G_F-imports",
      "uid": 2802925,
      "tags": {
        "ele": "44",
        "name": "La Pared",
        "place": "village",
        "population": "604",
        "population:date": "2009",
        "ref:ine": "35015001100",
        "source": "Instituto Geográfico Nacional",
        "source:date": "2011-06",
        "source:ele": "MDT5",
        "source:file": "http://centrodedescargas.cnig.es/CentroDescargas/equipamiento/BD_Municipios-Entidades.zip",
        "source:name": "Nomenclátor Geográfico de Municipios y Entidades de Población"
      }
    },
    {
      "type": "node",
      "id": 33107136,
      "lat": 28.113384,
      "lon": -14.2634782,
      "timestamp": "2010-12-24T12:25:40Z",
      "version": 2,
      "changeset": 6754058,
      "user": "mahau",
      "uid": 160164,
      "tags": {
        "name": "Risco del Paso",
        "place": "hamlet"
      }
    },
    {
      "type": "node",
      "id": 60599763,
      "lat": 28.1834046,
      "lon": -14.151955,
      "timestamp": "2019-07-16T22:30:54Z",
      "version": 5,
      "changeset": 72324990,
      "user": "Juan_Carlos_G_F-imports",
      "uid": 2802925,
      "tags": {
        "ele": "9",
        "name": "La Lajita",
        "place": "village",
        "population": "1750",
        "population:date": "2009",
        "ref:ine": "35015000300",
        "source": "Instituto Geográfico Nacional",
        "source:date": "2011-06",
        "source:ele": "MDT5",
        "source:file": "http://centrodedescargas.cnig.es/CentroDescargas/equipamiento/BD_Municipios-Entidades.zip",
        "source:name": "Nomenclátor Geográfico de Municipios y Entidades de Población"
      }
    },
    {
      "type": "node",
      "id": 60599764,
      "lat": 28.194435,
      "lon": -14.1168186,
      "timestamp": "2019-07-16T22:30:54Z",
      "version": 4,
      "changeset": 72324990,
      "user": "Juan_Carlos_G_F-imports",
      "uid": 2802925,
      "tags": {
        "ele": "1",
        "name": "Tarajalejo",
        "place": "village",
        "population": "1305",
        "population:date": "2009",
        "ref:ine": "35030000600",
        "source": "Instituto Geográfico Nacional",
        "source:date": "2011-06",
        "source:ele": "MDT5",
        "source:file": "http://centrodedescargas.cnig.es/CentroDescargas/equipamiento/BD_Municipios-Entidades.zip",
        "source:name": "Nomenclátor Geográfico de Municipios y Entidades de Población"
      }
    },
    {
      "type": "node",
      "id": 60644323,
      "lat": 28.2618822,
      "lon": -14.1399438,
      "timestamp": "2019-07-16T22:30:54Z",
      "version": 3,
      "changeset": 72324990,
      "user": "Juan_Carlos_G_F-imports",
      "uid": 2802925,
      "tags": {
        "ele": "223",
        "name": "Cardón",
        "place": "hamlet",
        "population": "135",
        "population:date": "2009",
        "ref:ine": "35015000100",
        "source": "Instituto Geográfico Nacional",
        "source:date": "2011-06",
        "source:ele": "MDT5",
        "source:file": "http://centrodedescargas.cnig.es/CentroDescargas/equipamiento/BD_Municipios-Entidades.zip",
        "source:name": "Nomenclátor Geográfico de Municipios y Entidades de Población"
      }
    },
    {
      "type": "node",
      "id": 60644644,
      "lat": 28.2273992,
      "lon": -14.1936115,
      "timestamp": "2007-10-03T22:49:20Z",
      "version": 1,
      "changeset": 33668,
      "user": "MichaelK_old",
      "uid": 6002,
      "tags": {
        "created_by": "JOSM",
        "name": "Las Hermosas",
        "place": "hamlet"
      }
    },
    {
      "type": "node",
      "id": 214149222,
      "lat": 28.0489629,
      "lon": -14.3395814,
      "timestamp": "2022-06-13T18:18:51Z",
      "version": 7,
      "changeset": 122337315,
      "user": "FlyingWitchDog",
      "uid": 14052707,
      "tags": {
        "brand": "HiperDino",
        "brand:wikidata": "Q105955292",
        "name": "HiperDino Express",
        "opening_hours": "Mo-Su 08:00-22:00",
        "operator": "DinoSol",
        "operator:wikidata": "Q5278478",
        "shop": "supermarket"
      }
    },
    {
      "type": "node",
      "id": 291829092,
      "lat": 28.1588678,
      "lon": -14.2285985,
      "timestamp": "2022-06-11T13:12:15Z",
      "version": 8,
      "changeset": 122248868,
      "user": "drlellinger",
      "uid": 531886,
      "tags": {
        "brand": "Spar",
        "brand:wikidata": "Q610492",
        "brand:wikipedia": "en:Spar (retailer)",
        "level": "0",
        "name": "Spar",
        "opening_hours": "Mo-Sa 08:00-21:00; Su 08:30-15:00",
        "organic": "yes",
        "shop": "supermarket",
        "wheelchair": "yes"
      }
    },
    {
      "type": "node",
      "id": 329600633,
      "lat": 28.0912153,
      "lon": -14.3812614,
      "timestamp": "2021-10-21T21:12:32Z",
      "version": 8,
      "changeset": 112811221,
      "user": "korni",
      "uid": 526156,
      "tags": {
        "ele": "345",
        "name": "Degollada de Cofete",
        "natural": "saddle"
      }
    },
    {
      "type": "node",
      "id": 330055445,
      "lat": 28.0867352,
      "lon": -14.3869958,
      "timestamp": "2019-07-16T22:30:54Z",
      "version": 2,
      "changeset": 72324990,
      "user": "Juan_Carlos_G_F-imports",
      "uid": 2802925,
      "tags": {
        "name": "Casas de Gran Valle",
        "place": "hamlet"
      }
    },
    {
      "type": "node",
      "id": 331919169,
      "lat": 28.0732716,
      "lon": -14.499447,
      "timestamp": "2019-07-16T22:30:54Z",
      "version": 5,
      "changeset": 72324990,
      "user": "Juan_Carlos_G_F-imports",
      "uid": 2802925,
      "tags": {
        "ele": "13",
        "name": "Puerto de la Cruz",
        "place": "hamlet",
        "population": "29",
        "population:date": "2009",
        "ref:ine": "35015001400",
        "source": "Instituto Geográfico Nacional",
        "source:date": "2011-06",
        "source:ele": "MDT5",
        "source:file": "http://centrodedescargas.cnig.es/CentroDescargas/equipamiento/BD_Municipios-Entidades.zip",
        "source:name": "Nomenclátor Geográfico de Municipios y Entidades de Población"
      }
    },
    {
      "type": "node",
      "id": 336112739,
      "lat": 28.1560976,
      "lon": -14.233061,
      "timestamp": "2022-06-06T12:25:29Z",
      "version": 5,
      "changeset": 122023052,
      "user": "drlellinger",
      "uid": 531886,
      "tags": {
        "brand": "HiperDino Express",
        "brand:wikidata": "Q105955317",
        "currency:EUR": "yes",
        "level": "1",
        "name": "HiperDino",
        "opening_hours": "08:00-22:00",
        "operator": "DinoSol",
        "operator:wikidata": "Q5278478",
        "operator:wikipedia": "es:Dinosol Supermercados, S.L.",
        "organic": "yes",
        "shop": "convenience",
        "wheelchair": "no"
      }
    },
    {
      "type": "node",
      "id": 336128339,
      "lat": 28.0530975,
      "lon": -14.3244957,
      "timestamp": "2022-06-13T18:18:51Z",
      "version": 6,
      "changeset": 122337315,
      "user": "FlyingWitchDog",
      "uid": 14052707,
      "tags": {
        "brand": "Spar",
        "brand:wikidata": "Q610492",
        "brand:wikipedia": "en:Spar (retailer)",
        "name": "Spar",
        "shop": "supermarket"
      }
    },
    {
      "type": "node",
      "id": 529868367,
      "lat": 28.2167698,
      "lon": -14.1343537,
      "timestamp": "2020-03-26T10:16:34Z",
      "version": 7,
      "changeset": 82654116,
      "user": "Emilio Gomez",
      "uid": 2904,
      "tags": {
        "ele": "316",
        "name": "Morro de la Cruzada",
        "natural": "peak",
        "source": "IGN",
        "wikidata": "Q23987130"
      }
    },
    {
      "type": "node",
      "id": 568815096,
      "lat": 28.0507789,
      "lon": -14.3506245,
      "timestamp": "2020-06-06T17:19:18Z",
      "version": 5,
      "changeset": 86285861,
      "user": "Hugoren Martinako",
      "uid": 3392826,
      "tags": {
        "brand": "Eurospar",
        "brand:wikidata": "Q12309283",
        "brand:wikipedia": "da:Eurospar",
        "name": "Eurospar",
        "operator": "José Padilla Francés S.L.",
        "shop": "supermarket"
      }
    },
    {
      "type": "node",
      "id": 610327646,
      "lat": 28.1694769,
      "lon": -14.223006,
      "timestamp": "2021-11-29T14:33:46Z",
      "version": 3,
      "changeset": 114364112,
      "user": "dk1ri",
      "uid": 49044,
      "tags": {
        "name": "Alro",
        "shop": "supermarket"
      }
    },
    {
      "type": "node",
      "id": 613452077,
      "lat": 28.0500508,
      "lon": -14.3534792,
      "timestamp": "2010-01-14T13:19:49Z",
      "version": 1,
      "changeset": 3616908,
      "user": "dk1ri",
      "uid": 49044,
      "tags": {
        "name": "Rodriguez Lopez",
        "shop": "supermarket"
      }
    },
    {
      "type": "node",
      "id": 648637805,
      "lat": 28.0527698,
      "lon": -14.3528233,
      "timestamp": "2013-10-30T23:32:54Z",
      "version": 2,
      "changeset": 18626796,
      "user": "Javier Sanchez",
      "uid": 47882,
      "tags": {
        "name": "Umpierrez",
        "shop": "supermarket"
      }
    },
    {
      "type": "node",
      "id": 652872776,
      "lat": 28.1847016,
      "lon": -14.1530625,
      "timestamp": "2020-06-06T17:19:18Z",
      "version": 2,
      "changeset": 86285861,
      "user": "Hugoren Martinako",
      "uid": 3392826,
      "tags": {
        "brand": "Spar",
        "brand:wikidata": "Q610492",
        "brand:wikipedia": "en:Spar (retailer)",
        "name": "Padilla Spar",
        "shop": "supermarket"
      }
    },
    {
      "type": "node",
      "id": 948755449,
      "lat": 28.2223613,
      "lon": -14.0936541,
      "timestamp": "2020-03-26T10:16:32Z",
      "version": 6,
      "changeset": 82654116,
      "user": "Emilio Gomez",
      "uid": 2904,
      "tags": {
        "ele": "468.19",
        "ign:latitud": "28.2223613091099992",
        "ign:longitud": "-14.0936540895208999",
        "ign:red": "Red Geodesica Nacional Convencional (ROI)",
        "man_made": "survey_point",
        "name": "Caracol",
        "natural": "peak",
        "note": "This is a point from an official geodetic network. Use it as a reference, but do NOT move it.",
        "ref": "110368",
        "source": "Instituto Geográfico Nacional",
        "source:ref": "ftp://ftp.geodesia.ign.es",
        "wikidata": "Q23986646"
      }
    },
    {
      "type": "node",
      "id": 1102486805,
      "lat": 28.0785528,
      "lon": -14.2989897,
      "timestamp": "2022-06-13T18:18:51Z",
      "version": 3,
      "changeset": 122337315,
      "user": "FlyingWitchDog",
      "uid": 14052707,
      "tags": {
        "brand": "Spar",
        "brand:wikidata": "Q610492",
        "brand:wikipedia": "en:Spar (retailer)",
        "name": "Spar",
        "shop": "supermarket"
      }
    },
    {
      "type": "node",
      "id": 1441041996,
      "lat": 28.059656,
      "lon": -14.3151496,
      "timestamp": "2019-07-16T22:31:01Z",
      "version": 2,
      "changeset": 72324990,
      "user": "Juan_Carlos_G_F-imports",
      "uid": 2802925,
      "tags": {
        "ele": "31",
        "name": "Piedras Caídas",
        "place": "hamlet",
        "population": "334",
        "population:date": "2009",
        "ref:ine": "35015001200",
        "source": "Instituto Geográfico Nacional",
        "source:date": "2011-06",
        "source:ele": "MDT5",
        "source:file": "http://centrodedescargas.cnig.es/CentroDescargas/equipamiento/BD_Municipios-Entidades.zip",
        "source:name": "Nomenclátor Geográfico de Municipios y Entidades de Población"
      }
    },
    {
      "type": "node",
      "id": 1441042005,
      "lat": 28.0929537,
      "lon": -14.2880214,
      "timestamp": "2019-07-16T22:31:01Z",
      "version": 2,
      "changeset": 72324990,
      "user": "Juan_Carlos_G_F-imports",
      "uid": 2802925,
      "tags": {
        "ele": "51",
        "name": "Mal Nombre",
        "place": "hamlet",
        "population": "92",
        "population:date": "2009",
        "ref:ine": "35015001000",
        "source": "Instituto Geográfico Nacional",
        "source:date": "2011-06",
        "source:ele": "MDT5",
        "source:file": "http://centrodedescargas.cnig.es/CentroDescargas/equipamiento/BD_Municipios-Entidades.zip",
        "source:name": "Nomenclátor Geográfico de Municipios y Entidades de Población"
      }
    },
    {
      "type": "node",
      "id": 1524947979,
      "lat": 28.264696,
      "lon": -14.1627417,
      "timestamp": "2014-12-29T18:05:26Z",
      "version": 2,
      "changeset": 27782964,
      "user": "Romanese",
      "uid": 60780,
      "tags": {
        "amenity": "drinking_water"
      }
    },
    {
      "type": "node",
      "id": 1524948033,
      "lat": 28.2647622,
      "lon": -14.1627095,
      "timestamp": "2014-12-29T18:05:27Z",
      "version": 2,
      "changeset": 27782964,
      "user": "Romanese",
      "uid": 60780,
      "tags": {
        "amenity": "drinking_water"
      }
    },
    {
      "type": "node",
      "id": 1618293171,
      "lat": 28.0529043,
      "lon": -14.3531272,
      "timestamp": "2012-02-04T23:27:43Z",
      "version": 1,
      "changeset": 10589565,
      "user": "dk1ri",
      "uid": 49044,
      "tags": {
        "name": "-",
        "shop": "convenience"
      }
    },
    {
      "type": "node",
      "id": 1618293214,
      "lat": 28.0517807,
      "lon": -14.3529522,
      "timestamp": "2013-10-30T23:32:52Z",
      "version": 2,
      "changeset": 18626796,
      "user": "Javier Sanchez",
      "uid": 47882,
      "tags": {
        "name": "Los Niños",
        "shop": "convenience"
      }
    },
    {
      "type": "node",
      "id": 1618293268,
      "lat": 28.0527235,
      "lon": -14.3527156,
      "timestamp": "2012-02-04T23:27:47Z",
      "version": 1,
      "changeset": 10589565,
      "user": "dk1ri",
      "uid": 49044,
      "tags": {
        "name": "maxorata",
        "shop": "convenience"
      }
    },
    {
      "type": "node",
      "id": 1620432276,
      "lat": 28.0511296,
      "lon": -14.3529747,
      "timestamp": "2013-10-30T23:32:53Z",
      "version": 2,
      "changeset": 18626796,
      "user": "Javier Sanchez",
      "uid": 47882,
      "tags": {
        "name": "Sandra",
        "shop": "convenience"
      }
    },
    {
      "type": "node",
      "id": 1753896117,
      "lat": 28.0498594,
      "lon": -14.332595,
      "timestamp": "2022-06-13T18:18:51Z",
      "version": 3,
      "changeset": 122337315,
      "user": "FlyingWitchDog",
      "uid": 14052707,
      "tags": {
        "brand": "HiperDino",
        "brand:wikidata": "Q105955292",
        "name": "HiperDino Express",
        "opening_hours": "Mo-Su 08:00-22:00",
        "operator": "DinoSol",
        "operator:wikidata": "Q5278478",
        "shop": "supermarket"
      }
    },
    {
      "type": "node",
      "id": 1956551532,
      "lat": 28.1018402,
      "lon": -14.3555384,
      "timestamp": "2020-04-25T07:54:15Z",
      "version": 12,
      "changeset": 84094206,
      "user": "5R-MFT",
      "uid": 3417876,
      "tags": {
        "alt_name": "Pico de Jandía",
        "ele": "807",
        "image": "https://commons.wikimedia.org/wiki/File:Pico_de_la_Zarza_-_summit.jpg",
        "name": "Pico de la Zarza",
        "natural": "peak",
        "tourism": "viewpoint",
        "wikidata": "Q6075118",
        "wikimedia_commons": "File:Pico_de_la_Zarza_-_summit.jpg",
        "wikipedia": "es:Pico de la Zarza"
      }
    },
    {
      "type": "node",
      "id": 2452159241,
      "lat": 28.0493584,
      "lon": -14.3324255,
      "timestamp": "2013-09-09T19:13:05Z",
      "version": 1,
      "changeset": 17755603,
      "user": "Nadjita",
      "uid": 1633343,
      "tags": {
        "amenity": "shelter",
        "bench": "yes",
        "covered": "yes",
        "shelter_type": "public_transport"
      }
    },
    {
      "type": "node",
      "id": 3332966782,
      "lat": 28.2737102,
      "lon": -14.135626,
      "timestamp": "2015-06-06T15:17:19Z",
      "version": 2,
      "changeset": 31771231,
      "user": "ocotillo",
      "uid": 78871,
      "tags": {
        "amenity": "shelter",
        "shelter_type": "lean_to"
      }
    },
    {
      "type": "node",
      "id": 3332973307,
      "lat": 28.2540886,
      "lon": -14.1428626,
      "timestamp": "2015-02-05T22:57:15Z",
      "version": 1,
      "changeset": 28641671,
      "user": "CAKA",
      "uid": 2381048,
      "tags": {
        "amenity": "shelter",
        "shelter_type": "lean_to"
      }
    },
    {
      "type": "node",
      "id": 3332977348,
      "lat": 28.2132765,
      "lon": -14.2191396,
      "timestamp": "2021-05-13T18:40:01Z",
      "version": 2,
      "changeset": 104654417,
      "user": "Strubbl",
      "uid": 536583,
      "tags": {
        "name": "Minimarket el VieJo Rey",
        "shop": "convenience"
      }
    },
    {
      "type": "node",
      "id": 4169085618,
      "lat": 28.3039352,
      "lon": -14.0675321,
      "timestamp": "2016-05-06T07:40:04Z",
      "version": 1,
      "changeset": 39137060,
      "user": "honny",
      "uid": 54223,
      "tags": {
        "name": "La Florida",
        "place": "hamlet"
      }
    },
    {
      "type": "node",
      "id": 4794072538,
      "lat": 28.0499318,
      "lon": -14.3420551,
      "timestamp": "2022-06-13T18:18:51Z",
      "version": 3,
      "changeset": 122337315,
      "user": "FlyingWitchDog",
      "uid": 14052707,
      "tags": {
        "brand": "HiperDino Express",
        "brand:wikidata": "Q105955317",
        "name": "HiperDino Express",
        "operator": "DinoSol",
        "operator:wikidata": "Q5278478",
        "shop": "convenience"
      }
    },
    {
      "type": "node",
      "id": 4795764759,
      "lat": 28.0491794,
      "lon": -14.3413585,
      "timestamp": "2022-06-13T18:18:51Z",
      "version": 6,
      "changeset": 122337315,
      "user": "FlyingWitchDog",
      "uid": 14052707,
      "tags": {
        "brand": "HiperDino Express",
        "brand:wikidata": "Q105955317",
        "name": "HiperDino Express",
        "operator": "DinoSol",
        "operator:wikidata": "Q5278478",
        "phone": "+34 928 541 434",
        "shop": "convenience"
      }
    },
    {
      "type": "node",
      "id": 4795770303,
      "lat": 28.0494319,
      "lon": -14.3432456,
      "timestamp": "2019-01-22T19:50:07Z",
      "version": 2,
      "changeset": 66549026,
      "user": "Stoneridge",
      "uid": 2093065,
      "tags": {
        "name": "Sol Jandia Mar Supermarket",
        "opening_hours": "Mo-Fr 08:00-20:30; Sa,Su 08:00-14:00,16:30-20:30",
        "shop": "convenience"
      }
    },
    {
      "type": "node",
      "id": 6205711685,
      "lat": 28.1466963,
      "lon": -14.2342171,
      "timestamp": "2019-01-13T16:00:49Z",
      "version": 1,
      "changeset": 66277674,
      "user": "Sprinter1+",
      "uid": 9335811,
      "tags": {
        "amenity": "drinking_water"
      }
    },
    {
      "type": "node",
      "id": 6604809935,
      "lat": 28.1922494,
      "lon": -14.1160161,
      "timestamp": "2019-07-11T11:02:17Z",
      "version": 2,
      "changeset": 72129757,
      "user": "Javier Sanchez",
      "uid": 47882,
      "tags": {
        "name": "venticuatro Tarajalejo",
        "opening_hours": "Mo-Su 07:00-23:00",
        "shop": "convenience"
      }
    },
    {
      "type": "node",
      "id": 6689729053,
      "lat": 28.15717,
      "lon": -14.2297566,
      "timestamp": "2021-12-16T09:36:08Z",
      "version": 5,
      "changeset": 114998175,
      "user": "kapazao_import",
      "uid": 8770019,
      "tags": {
        "addr:street": "Calle Punta de los Molinillos",
        "brand": "Spar",
        "brand:wikidata": "Q610492",
        "brand:wikipedia": "es:SPAR",
        "level": "0",
        "name": "Spar",
        "opening_hours": "Mo-Su 09:00-22:00; PH closed",
        "organic": "yes",
        "shop": "supermarket",
        "wheelchair": "yes"
      }
    },
    {
      "type": "node",
      "id": 6690603088,
      "lat": 28.0489714,
      "lon": -14.3398154,
      "timestamp": "2021-10-23T15:42:16Z",
      "version": 3,
      "changeset": 112879123,
      "user": "korni",
      "uid": 526156,
      "tags": {
        "addr:city": "Jandía",
        "addr:housenumber": "8",
        "addr:postcode": "35625",
        "addr:street": "Avenida del Saladar",
        "air_conditioning": "yes",
        "name": "Fund Grube Palm Garden",
        "opening_hours": "Mo-Su 09:30-22:00",
        "operator": "Fund Grube SA",
        "payment:cash": "yes",
        "payment:maestro": "yes",
        "payment:mastercard": "yes",
        "payment:visa": "yes",
        "phone": "+34 928 142 952",
        "shop": "supermarket",
        "website": "https://www.fundgrube.es/de/tiendas/palm-garden.html"
      }
    },
    {
      "type": "node",
      "id": 6937642230,
      "lat": 28.2633767,
      "lon": -14.0911675,
      "timestamp": "2020-03-26T10:16:20Z",
      "version": 2,
      "changeset": 82654116,
      "user": "Emilio Gomez",
      "uid": 2904,
      "tags": {
        "ele": "341",
        "name": "Montaña de Tirba",
        "natural": "peak",
        "wikidata": "Q23978867"
      }
    },
    {
      "type": "node",
      "id": 9023862959,
      "lat": 28.0533249,
      "lon": -14.3724815,
      "timestamp": "2021-08-20T21:44:06Z",
      "version": 1,
      "changeset": 110007328,
      "user": "didapike",
      "uid": 9397053,
      "tags": {
        "natural": "cave_entrance"
      }
    },
    {
      "type": "way",
      "id": 184877710,
      "timestamp": "2013-11-30T00:05:50Z",
      "version": 4,
      "changeset": 19187686,
      "user": "Javier Sanchez",
      "uid": 47882,
      "center": {
        "lat": 28.2127458,
        "lon": -14.2159858
      },
      "nodes": [],
      "tags": {
        "landuse": "residential",
        "name": "La Pared",
        "place": "village"
      }
    },
    {
      "type": "way",
      "id": 280160350,
      "timestamp": "2017-06-21T21:31:41Z",
      "version": 2,
      "changeset": 49731275,
      "user": "Prot D",
      "uid": 748291,
      "center": {
        "lat": 28.1019426,
        "lon": -14.355276
      },
      "nodes": [],
      "tags": {
        "amenity": "shelter",
        "building": "shed",
        "shelter_type": "weather_shelter"
      }
    },
    {
      "type": "way",
      "id": 396292977,
      "timestamp": "2020-06-06T17:19:18Z",
      "version": 3,
      "changeset": 86285861,
      "user": "Hugoren Martinako",
      "uid": 3392826,
      "center": {
        "lat": 28.1927922,
        "lon": -14.1158528
      },
      "nodes": [],
      "tags": {
        "brand": "Spar",
        "brand:wikidata": "Q610492",
        "brand:wikipedia": "en:Spar (retailer)",
        "building": "yes",
        "name": "Padilla Spar",
        "shop": "supermarket"
      }
    },
    {
      "type": "way",
      "id": 439821122,
      "timestamp": "2021-12-24T12:07:53Z",
      "version": 7,
      "changeset": 115333844,
      "user": "kapazao_import",
      "uid": 8770019,
      "center": {
        "lat": 28.0737151,
        "lon": -14.3071333
      },
      "nodes": [],
      "tags": {
        "brand": "Mercadona",
        "brand:wikidata": "Q377705",
        "brand:wikipedia": "es:Mercadona",
        "building": "supermarket",
        "name": "Mercadona",
        "opening_hours": "Mo-Sa 09:00-21:30",
        "shop": "supermarket",
        "wheelchair": "yes"
      }
    }
  ]
}