{
  "osm3s": {
    "timestamp_osm_date": "2021-09-24T23:59:59Z",
    "timestamp_osm_base": "2021-09-25T05:04:58Z",
    "copyright": "The data included in this document is from www.openstreetmap.org. The data is made available under ODbL."
  },
  "elements": [
    {
      "type": "node",
      "id": 26864738,
      "lat": 65.864758,
      "lon": 15.258401,
      "timestamp": "2019-05-02T12:54:31Z",
      "version": 5,
      "changeset": 69803151,
      "user": "pangoSE",
      "uid": 987207,
      "tags": {
        "ele": "1685",
        "name": "Södra Sytertoppen",
        "name:sma": "Syjhterentjåhke",
        "name:sv": "Södra Sytertoppen",
        "natural": "peak",
        "wikidata": "Q10689013"
      }
    },
    {
      "type": "node",
      "id": 26864895,
      "lat": 65.892281,
      "lon": 15.270088,
      "timestamp": "2019-10-16T07:03:33Z",
      "version": 6,
      "changeset": 75756868,
      "user": "mirelon",
      "uid": 1270972,
      "tags": {
        "ele": "1768",
        "name": "Norra Sytertoppen",
        "name:sma": "Syjhterensjnjurhtjie",
        "name:sv": "Norra Sytertoppen",
        "natural": "peak",
        "prominence": "1088",
        "wikidata": "Q3075826"
      }
    },
    {
      "type": "node",
      "id": 301164455,
      "lat": 65.6615883,
      "lon": 15.4480965,
      "timestamp": "2015-09-05T08:26:39Z",
      "version": 4,
      "changeset": 33810354,
      "user": "gunnar1m",
      "uid": 160560,
      "tags": {
        "name": "Forsbäck",
        "place": "hamlet"
      }
    },
    {
      "type": "node",
      "id": 322569731,
      "lat": 65.6827276,
      "lon": 15.3866126,
      "timestamp": "2008-12-29T06:28:48Z",
      "version": 2,
      "changeset": 664246,
      "user": "Cohan",
      "uid": 53931,
      "tags": {
        "name": "Sundsliden",
        "place": "hamlet"
      }
    },
    {
      "type": "node",
      "id": 322569738,
      "lat": 65.6938902,
      "lon": 15.3899613,
      "timestamp": "2008-12-29T06:29:14Z",
      "version": 2,
      "changeset": 664246,
      "user": "Cohan",
      "uid": 53931,
      "tags": {
        "name": "Storsand",
        "place": "hamlet"
      }
    },
    {
      "type": "node",
      "id": 322569740,
      "lat": 65.7019146,
      "lon": 15.3715974,
      "timestamp": "2008-12-29T06:29:27Z",
      "version": 2,
      "changeset": 664246,
      "user": "Cohan",
      "uid": 53931,
      "tags": {
        "name": "Bäcknäs",
        "place": "hamlet"
      }
    },
    {
      "type": "node",
      "id": 322569750,
      "lat": 65.667209,
      "lon": 15.4249829,
      "timestamp": "2008-12-28T16:12:51Z",
      "version": 1,
      "changeset": 645118,
      "user": "Cohan",
      "uid": 53931,
      "tags": {
        "name": "Sundsgården",
        "place": "hamlet"
      }
    },
    {
      "type": "node",
      "id": 322575442,
      "lat": 65.6914296,
      "lon": 15.2999243,
      "timestamp": "2008-12-29T06:04:14Z",
      "version": 2,
      "changeset": 664246,
      "user": "Cohan",
      "uid": 53931,
      "tags": {
        "name": "Nedre Granås",
        "place": "hamlet"
      }
    },
    {
      "type": "node",
      "id": 322641304,
      "lat": 65.7207493,
      "lon": 15.2285271,
      "timestamp": "2008-12-29T07:54:45Z",
      "version": 2,
      "changeset": 664246,
      "user": "Cohan",
      "uid": 53931,
      "tags": {
        "name": "Konäset",
        "place": "hamlet"
      }
    },
    {
      "type": "node",
      "id": 322641305,
      "lat": 65.7329223,
      "lon": 15.2414752,
      "timestamp": "2008-12-29T07:54:34Z",
      "version": 2,
      "changeset": 664246,
      "user": "Cohan",
      "uid": 53931,
      "tags": {
        "name": "Getviken",
        "place": "hamlet"
      }
    },
    {
      "type": "node",
      "id": 322641720,
      "lat": 65.7464486,
      "lon": 15.1873552,
      "timestamp": "2019-03-30T13:01:07Z",
      "version": 3,
      "changeset": 68696872,
      "user": "Essin",
      "uid": 438299,
      "tags": {
        "name": "Laisholm",
        "name:sma": "Laajsere",
        "name:sv": "Laisholm",
        "place": "hamlet"
      }
    },
    {
      "type": "node",
      "id": 322673761,
      "lat": 65.7479398,
      "lon": 15.0856066,
      "timestamp": "2015-09-05T08:26:39Z",
      "version": 2,
      "changeset": 33810354,
      "user": "gunnar1m",
      "uid": 160560,
      "tags": {
        "name": "Västansjö",
        "place": "hamlet"
      }
    },
    {
      "type": "node",
      "id": 322678376,
      "lat": 65.7804444,
      "lon": 15.1039351,
      "timestamp": "2008-12-28T21:28:38Z",
      "version": 1,
      "changeset": 646899,
      "user": "Cohan",
      "uid": 53931,
      "tags": {
        "name": "Portbron",
        "place": "hamlet"
      }
    },
    {
      "type": "node",
      "id": 322680044,
      "lat": 65.8152777,
      "lon": 15.08528,
      "timestamp": "2019-03-30T13:01:07Z",
      "version": 5,
      "changeset": 68696872,
      "user": "Essin",
      "uid": 438299,
      "tags": {
        "name": "Hemavan",
        "name:sma": "Bïerke",
        "name:sv": "Hemavan",
        "place": "village",
        "ref:se:pts:postort": "HEMAVAN"
      }
    },
    {
      "type": "node",
      "id": 339309788,
      "lat": 65.8927753,
      "lon": 15.3966722,
      "timestamp": "2017-10-04T19:34:25Z",
      "version": 6,
      "changeset": 52635484,
      "user": "Traildino",
      "uid": 716637,
      "tags": {
        "capacity": "50",
        "ele": "720",
        "emergency": "phone",
        "name": "Syter Fjällstuga",
        "operator": "Svenska Turistföreningen",
        "shop": "yes",
        "snowmobile": "yes",
        "tourism": "alpine_hut",
        "website": "https://www.svenskaturistforeningen.se/anlaggningar/stf-syter-fjallstuga/"
      }
    },
    {
      "type": "node",
      "id": 710609256,
      "lat": 65.9457611,
      "lon": 15.0373482,
      "timestamp": "2019-03-30T13:01:07Z",
      "version": 2,
      "changeset": 68696872,
      "user": "Essin",
      "uid": 438299,
      "tags": {
        "is_in": "Sweden",
        "name": "Umfors",
        "name:sma": "Luspie",
        "name:sv": "Umfors",
        "place": "village"
      }
    },
    {
      "type": "node",
      "id": 710609259,
      "lat": 65.8717666,
      "lon": 15.0062775,
      "timestamp": "2019-03-30T13:01:07Z",
      "version": 2,
      "changeset": 68696872,
      "user": "Essin",
      "uid": 438299,
      "tags": {
        "is_in": "Sweden",
        "name": "Klippen",
        "name:sma": "Klihpie",
        "name:sv": "Klippen",
        "place": "village"
      }
    },
    {
      "type": "node",
      "id": 1835362471,
      "lat": 65.8190247,
      "lon": 15.0845722,
      "timestamp": "2017-08-06T10:36:53Z",
      "version": 4,
      "changeset": 50881014,
      "user": "Henschi",
      "uid": 953233,
      "tags": {
        "addr:city": "Hemavan",
        "addr:country": "SE",
        "addr:housenumber": "35",
        "addr:postcode": "920 66",
        "addr:street": "Blå Vägen",
        "name": "ICA Fjällboden",
        "opening_hours": "09:00-21:00",
        "shop": "supermarket",
        "snowmobile": "yes",
        "wheelchair": "yes"
      }
    },
    {
      "type": "node",
      "id": 1835362473,
      "lat": 65.9002074,
      "lon": 14.9874427,
      "timestamp": "2019-03-30T13:01:08Z",
      "version": 2,
      "changeset": 68696872,
      "user": "Essin",
      "uid": 438299,
      "tags": {
        "name": "Stintbäcken",
        "name:sma": "Stihtegiedtie",
        "name:sv": "Stintbäcken",
        "place": "hamlet"
      }
    },
    {
      "type": "node",
      "id": 1919777682,
      "lat": 65.8737595,
      "lon": 15.2891975,
      "timestamp": "2017-10-04T19:34:26Z",
      "version": 5,
      "changeset": 52635484,
      "user": "Traildino",
      "uid": 716637,
      "tags": {
        "amenity": "shelter",
        "ele": "870",
        "emergency": "phone",
        "name": "Syterskal Rastskydd",
        "operator": "Länsstyrelsen Västerbotten",
        "shelter_type": "basic_hut",
        "website": "http://www.vindelfjallen.se/besokare/stugor-kojor-och-rastskyddmankeforsstugan/syterskalet"
      }
    },
    {
      "type": "node",
      "id": 2236207094,
      "lat": 65.7131764,
      "lon": 15.2827449,
      "timestamp": "2020-02-22T19:45:26Z",
      "version": 5,
      "changeset": 81353102,
      "user": "Mateusz_P_90110",
      "uid": 10649349,
      "tags": {
        "is_in": "Storumans kommun;Västerbottens län;Lapplands landskap;Sweden",
        "name": "Tärnaby",
        "name:sju": "Deärnná",
        "name:sma": "Dearna",
        "name:sv": "Tärnaby",
        "place": "village",
        "population": "482",
        "ref:se:pts:postort": "TÄRNABY",
        "ref:se:scb": "8364"
      }
    },
    {
      "type": "node",
      "id": 2405585828,
      "lat": 65.711457,
      "lon": 15.2572783,
      "timestamp": "2020-08-25T12:01:09Z",
      "version": 5,
      "changeset": 89913919,
      "user": "Ice25T",
      "uid": 157205,
      "tags": {
        "addr:city": "Tärnaby",
        "addr:country": "SE",
        "addr:housenumber": "15",
        "addr:postcode": "92064",
        "addr:street": "Västra Strandvägen",
        "brand": "Coop Konsum",
        "name": "Coop Konsum",
        "opening_hours": "Mo-Sa 09:00-19:00, Su 11:00-19:00",
        "shop": "supermarket",
        "wheelchair": "yes"
      }
    },
    {
      "type": "node",
      "id": 2428331674,
      "lat": 65.7374513,
      "lon": 15.3396802,
      "timestamp": "2016-06-30T18:20:49Z",
      "version": 2,
      "changeset": 40399240,
      "user": "abbst",
      "uid": 233422,
      "tags": {
        "amenity": "shelter",
        "shelter_type": "lean_to"
      }
    },
    {
      "type": "node",
      "id": 2801959450,
      "lat": 65.7744546,
      "lon": 15.1401655,
      "timestamp": "2019-03-30T13:01:09Z",
      "version": 2,
      "changeset": 68696872,
      "user": "Essin",
      "uid": 438299,
      "tags": {
        "name": "Krokfors",
        "name:sma": "Gåebrie",
        "name:sv": "Krokfors",
        "place": "hamlet"
      }
    },
    {
      "type": "node",
      "id": 2801959451,
      "lat": 65.7708251,
      "lon": 15.1673473,
      "timestamp": "2014-04-19T19:31:14Z",
      "version": 1,
      "changeset": 21804313,
      "user": "Ice25T",
      "uid": 157205,
      "tags": {
        "name": "Laisaliden",
        "place": "hamlet"
      }
    },
    {
      "type": "node",
      "id": 3732658238,
      "lat": 65.6876012,
      "lon": 15.2826033,
      "timestamp": "2015-09-07T08:49:38Z",
      "version": 1,
      "changeset": 33850945,
      "user": "gunnar1m",
      "uid": 160560,
      "tags": {
        "name": "Granås",
        "place": "hamlet"
      }
    },
    {
      "type": "node",
      "id": 3732760461,
      "lat": 65.659475,
      "lon": 15.1271516,
      "timestamp": "2015-09-07T09:20:24Z",
      "version": 1,
      "changeset": 33851637,
      "user": "gunnar1m",
      "uid": 160560,
      "tags": {
        "name": "Tärnamo",
        "place": "hamlet"
      }
    },
    {
      "type": "node",
      "id": 4274033761,
      "lat": 65.7327179,
      "lon": 15.3389754,
      "timestamp": "2016-06-30T18:20:48Z",
      "version": 1,
      "changeset": 40399240,
      "user": "abbst",
      "uid": 233422,
      "tags": {
        "amenity": "shelter"
      }
    },
    {
      "type": "node",
      "id": 4377659913,
      "lat": 65.819723,
      "lon": 15.0841487,
      "timestamp": "2016-08-31T17:23:18Z",
      "version": 1,
      "changeset": 41831604,
      "user": "Essin",
      "uid": 438299,
      "tags": {
        "amenity": "shelter",
        "public_transport": "platform",
        "shelter_type": "public_transport"
      }
    },
    {
      "type": "node",
      "id": 7125723339,
      "lat": 65.7376529,
      "lon": 15.3347593,
      "timestamp": "2020-01-15T18:28:38Z",
      "version": 3,
      "changeset": 79617712,
      "user": "pangoSE",
      "uid": 987207,
      "tags": {
        "amenity": "shelter",
        "fixme": "Position may be off ± 50 meters. What type of shelter is this?",
        "name": "Stor-Laisan",
        "shelter_type": "lean_to",
        "source": "Facebook group Vindskydd i Norden",
        "source2": "lm topographic",
        "source:shelter_type": "lm topo",
        "source:url": "https://www.google.com/maps/d/viewer?mid=1doLXXvokOtiMzthVz0SLFjEPmD4"
      }
    },
    {
      "type": "node",
      "id": 7125728285,
      "lat": 65.8199501,
      "lon": 15.1146984,
      "timestamp": "2020-01-15T17:06:55Z",
      "version": 2,
      "changeset": 79615419,
      "user": "pangoSE",
      "uid": 987207,
      "tags": {
        "amenity": "shelter",
        "fixme": "Position may be off ± 50 meters. What type of shelter is this?",
        "source": "Facebook group Vindskydd i Norden",
        "source:url": "https://www.google.com/maps/d/viewer?mid=1doLXXvokOtiMzthVz0SLFjEPmD4"
      }
    },
    {
      "type": "node",
      "id": 7125728286,
      "lat": 65.7883644,
      "lon": 15.0401974,
      "timestamp": "2020-01-15T17:06:55Z",
      "version": 2,
      "changeset": 79615419,
      "user": "pangoSE",
      "uid": 987207,
      "tags": {
        "amenity": "shelter",
        "fixme": "Position may be off ± 50 meters. What type of shelter is this?",
        "source": "Facebook group Vindskydd i Norden",
        "source:url": "https://www.google.com/maps/d/viewer?mid=1doLXXvokOtiMzthVz0SLFjEPmD4"
      }
    },
    {
      "type": "node",
      "id": 7125728287,
      "lat": 65.7814121,
      "lon": 15.0374508,
      "timestamp": "2020-01-15T17:06:55Z",
      "version": 2,
      "changeset": 79615419,
      "user": "pangoSE",
      "uid": 987207,
      "tags": {
        "amenity": "shelter",
        "fixme": "Position may be off ± 50 meters. What type of shelter is this?",
        "source": "Facebook group Vindskydd i Norden",
        "source:url": "https://www.google.com/maps/d/viewer?mid=1doLXXvokOtiMzthVz0SLFjEPmD4"
      }
    },
    {
      "type": "node",
      "id": 7125728288,
      "lat": 65.7762623,
      "lon": 15.0259495,
      "timestamp": "2020-01-15T17:06:55Z",
      "version": 2,
      "changeset": 79615419,
      "user": "pangoSE",
      "uid": 987207,
      "tags": {
        "amenity": "shelter",
        "fixme": "Position may be off ± 50 meters. What type of shelter is this?",
        "source": "Facebook group Vindskydd i Norden",
        "source:url": "https://www.google.com/maps/d/viewer?mid=1doLXXvokOtiMzthVz0SLFjEPmD4"
      }
    },
    {
      "type": "node",
      "id": 7125728289,
      "lat": 65.7661343,
      "lon": 15.0348759,
      "timestamp": "2020-01-15T17:06:55Z",
      "version": 2,
      "changeset": 79615419,
      "user": "pangoSE",
      "uid": 987207,
      "tags": {
        "amenity": "shelter",
        "fixme": "Position may be off ± 50 meters. What type of shelter is this?",
        "source": "Facebook group Vindskydd i Norden",
        "source:url": "https://www.google.com/maps/d/viewer?mid=1doLXXvokOtiMzthVz0SLFjEPmD4"
      }
    },
    {
      "type": "node",
      "id": 7125728290,
      "lat": 65.7687092,
      "lon": 14.9894714,
      "timestamp": "2020-01-15T17:06:55Z",
      "version": 2,
      "changeset": 79615419,
      "user": "pangoSE",
      "uid": 987207,
      "tags": {
        "amenity": "shelter",
        "fixme": "Position may be off ± 50 meters. What type of shelter is this?",
        "source": "Facebook group Vindskydd i Norden",
        "source:url": "https://www.google.com/maps/d/viewer?mid=1doLXXvokOtiMzthVz0SLFjEPmD4"
      }
    },
    {
      "type": "node",
      "id": 7125728291,
      "lat": 65.7602978,
      "lon": 15.0151348,
      "timestamp": "2020-01-15T17:06:55Z",
      "version": 2,
      "changeset": 79615419,
      "user": "pangoSE",
      "uid": 987207,
      "tags": {
        "amenity": "shelter",
        "fixme": "Position may be off ± 50 meters. What type of shelter is this?",
        "source": "Facebook group Vindskydd i Norden",
        "source:url": "https://www.google.com/maps/d/viewer?mid=1doLXXvokOtiMzthVz0SLFjEPmD4"
      }
    },
    {
      "type": "node",
      "id": 7125728292,
      "lat": 65.7548046,
      "lon": 15.004921,
      "timestamp": "2020-01-15T17:06:55Z",
      "version": 2,
      "changeset": 79615419,
      "user": "pangoSE",
      "uid": 987207,
      "tags": {
        "amenity": "shelter",
        "fixme": "Position may be off ± 50 meters. What type of shelter is this?",
        "source": "Facebook group Vindskydd i Norden",
        "source:url": "https://www.google.com/maps/d/viewer?mid=1doLXXvokOtiMzthVz0SLFjEPmD4"
      }
    },
    {
      "type": "node",
      "id": 7125728293,
      "lat": 65.7550621,
      "lon": 15.0009727,
      "timestamp": "2020-01-15T17:06:55Z",
      "version": 2,
      "changeset": 79615419,
      "user": "pangoSE",
      "uid": 987207,
      "tags": {
        "amenity": "shelter",
        "fixme": "Position may be off ± 50 meters. What type of shelter is this?",
        "source": "Facebook group Vindskydd i Norden",
        "source:url": "https://www.google.com/maps/d/viewer?mid=1doLXXvokOtiMzthVz0SLFjEPmD4"
      }
    },
    {
      "type": "node",
      "id": 7125728294,
      "lat": 65.7402816,
      "lon": 15.096572,
      "timestamp": "2020-01-15T18:41:41Z",
      "version": 4,
      "changeset": 79618191,
      "user": "pangoSE",
      "uid": 987207,
      "tags": {
        "amenity": "shelter",
        "fixme": "detaljer saknas",
        "name": "Västeransjö",
        "shelter_type": "lean_to",
        "source": "Facebook group Vindskydd i Norden",
        "source2": "lm topographic",
        "source:shelter_type": "lm topo",
        "source:url": "https://www.google.com/maps/d/viewer?mid=1doLXXvokOtiMzthVz0SLFjEPmD4"
      }
    },
    {
      "type": "node",
      "id": 7125728295,
      "lat": 65.7067394,
      "lon": 15.0836277,
      "timestamp": "2020-01-15T17:06:55Z",
      "version": 2,
      "changeset": 79615419,
      "user": "pangoSE",
      "uid": 987207,
      "tags": {
        "amenity": "shelter",
        "fixme": "Position may be off ± 50 meters. What type of shelter is this?",
        "source": "Facebook group Vindskydd i Norden",
        "source:url": "https://www.google.com/maps/d/viewer?mid=1doLXXvokOtiMzthVz0SLFjEPmD4"
      }
    },
    {
      "type": "node",
      "id": 7125728296,
      "lat": 65.7115459,
      "lon": 15.012989,
      "timestamp": "2020-01-15T17:06:55Z",
      "version": 2,
      "changeset": 79615419,
      "user": "pangoSE",
      "uid": 987207,
      "tags": {
        "amenity": "shelter",
        "fixme": "Position may be off ± 50 meters. What type of shelter is this?",
        "source": "Facebook group Vindskydd i Norden",
        "source:url": "https://www.google.com/maps/d/viewer?mid=1doLXXvokOtiMzthVz0SLFjEPmD4"
      }
    },
    {
      "type": "node",
      "id": 7125728724,
      "lat": 65.7962608,
      "lon": 15.1187325,
      "timestamp": "2020-01-15T17:06:55Z",
      "version": 2,
      "changeset": 79615419,
      "user": "pangoSE",
      "uid": 987207,
      "tags": {
        "amenity": "shelter",
        "fixme": "Position may be off ± 50 meters. What type of shelter is this?",
        "source": "Facebook group Vindskydd i Norden",
        "source:url": "https://www.google.com/maps/d/viewer?mid=1doLXXvokOtiMzthVz0SLFjEPmD4"
      }
    },
    {
      "type": "node",
      "id": 7125728725,
      "lat": 65.7893944,
      "lon": 15.1285172,
      "timestamp": "2020-01-15T17:06:55Z",
      "version": 2,
      "changeset": 79615419,
      "user": "pangoSE",
      "uid": 987207,
      "tags": {
        "amenity": "shelter",
        "fixme": "Position may be off ± 50 meters. What type of shelter is this?",
        "source": "Facebook group Vindskydd i Norden",
        "source:url": "https://www.google.com/maps/d/viewer?mid=1doLXXvokOtiMzthVz0SLFjEPmD4"
      }
    },
    {
      "type": "node",
      "id": 7125728726,
      "lat": 65.7837373,
      "lon": 15.1246736,
      "timestamp": "2020-01-15T17:06:55Z",
      "version": 3,
      "changeset": 79615419,
      "user": "pangoSE",
      "uid": 987207,
      "tags": {
        "amenity": "shelter",
        "fixme": "Position may be off ± 50 meters. What type of shelter is this?",
        "source": "Facebook group Vindskydd i Norden",
        "source2": "lm topographic",
        "source:url": "https://www.google.com/maps/d/viewer?mid=1doLXXvokOtiMzthVz0SLFjEPmD4"
      }
    },
    {
      "type": "node",
      "id": 7125728727,
      "lat": 65.7682664,
      "lon": 15.4369711,
      "timestamp": "2020-01-15T17:06:55Z",
      "version": 3,
      "changeset": 79615419,
      "user": "pangoSE",
      "uid": 987207,
      "tags": {
        "amenity": "shelter",
        "fixme": "Position may be off ± 50 meters. What type of shelter is this?",
        "source": "Facebook group Vindskydd i Norden",
        "source2": "lm topographic",
        "source:url": "https://www.google.com/maps/d/viewer?mid=1doLXXvokOtiMzthVz0SLFjEPmD4"
      }
    },
    {
      "type": "node",
      "id": 7133793888,
      "lat": 65.7278512,
      "lon": 15.2706622,
      "timestamp": "2020-01-15T18:28:38Z",
      "version": 1,
      "changeset": 79617712,
      "user": "pangoSE",
      "uid": 987207,
      "tags": {
        "amenity": "shelter",
        "fixme": "detaljer saknas",
        "name": "Laaksevaartoe",
        "shelter_type": "lean_to",
        "source2": "lm topographic",
        "source:shelter_type": "lm topo"
      }
    },
    {
      "type": "node",
      "id": 7133836499,
      "lat": 65.8723434,
      "lon": 15.0300693,
      "timestamp": "2020-01-15T18:38:49Z",
      "version": 1,
      "changeset": 79618090,
      "user": "pangoSE",
      "uid": 987207,
      "tags": {
        "amenity": "shelter",
        "fixme": "detaljer saknas",
        "name": "Portbron",
        "shelter_type": "lean_to",
        "source": "lm topographic",
        "source:shelter_type": "lm topo"
      }
    },
    {
      "type": "node",
      "id": 7133836500,
      "lat": 65.8733937,
      "lon": 14.9994278,
      "timestamp": "2020-01-15T18:38:49Z",
      "version": 1,
      "changeset": 79618090,
      "user": "pangoSE",
      "uid": 987207,
      "tags": {
        "amenity": "shelter",
        "fixme": "detaljer saknas",
        "name": "Klihpie Norra",
        "shelter_type": "lean_to",
        "source": "lm topographic",
        "source:shelter_type": "lm topo"
      }
    },
    {
      "type": "node",
      "id": 7133836501,
      "lat": 65.8665844,
      "lon": 15.0091481,
      "timestamp": "2020-01-15T18:38:49Z",
      "version": 1,
      "changeset": 79618090,
      "user": "pangoSE",
      "uid": 987207,
      "tags": {
        "amenity": "shelter",
        "fixme": "detaljer saknas",
        "name": "Klihpie",
        "shelter_type": "lean_to",
        "source": "lm topographic",
        "source:shelter_type": "lm topo"
      }
    },
    {
      "type": "node",
      "id": 7133836502,
      "lat": 65.8598832,
      "lon": 15.0133986,
      "timestamp": "2020-01-15T18:38:49Z",
      "version": 1,
      "changeset": 79618090,
      "user": "pangoSE",
      "uid": 987207,
      "tags": {
        "amenity": "shelter",
        "fixme": "detaljer saknas",
        "name": "Klihpie Östra",
        "shelter_type": "lean_to",
        "source": "lm topographic",
        "source:shelter_type": "lm topo"
      }
    },
    {
      "type": "node",
      "id": 7133836503,
      "lat": 65.8592999,
      "lon": 15.011942,
      "timestamp": "2020-01-15T18:38:49Z",
      "version": 1,
      "changeset": 79618090,
      "user": "pangoSE",
      "uid": 987207,
      "tags": {
        "amenity": "shelter",
        "fixme": "detaljer saknas",
        "name": "Klihpie Västra",
        "shelter_type": "lean_to",
        "source": "lm topographic",
        "source:shelter_type": "lm topo"
      }
    },
    {
      "type": "node",
      "id": 7133836504,
      "lat": 65.8568442,
      "lon": 15.015403,
      "timestamp": "2020-01-15T18:38:49Z",
      "version": 1,
      "changeset": 79618090,
      "user": "pangoSE",
      "uid": 987207,
      "tags": {
        "amenity": "shelter",
        "fixme": "detaljer saknas",
        "name": "Rensimmarvallen",
        "shelter_type": "lean_to",
        "source": "lm topographic",
        "source:shelter_type": "lm topo"
      }
    },
    {
      "type": "node",
      "id": 7133836505,
      "lat": 65.7812283,
      "lon": 15.1131266,
      "timestamp": "2020-01-15T18:38:49Z",
      "version": 1,
      "changeset": 79618090,
      "user": "pangoSE",
      "uid": 987207,
      "tags": {
        "amenity": "shelter",
        "fixme": "detaljer saknas",
        "name": "Portbron",
        "shelter_type": "lean_to",
        "source": "lm topographic",
        "source:shelter_type": "lm topo"
      }
    },
    {
      "type": "way",
      "id": 233902882,
      "timestamp": "2021-08-05T18:35:20Z",
      "version": 2,
      "changeset": 109216866,
      "user": "Joya129",
      "uid": 13873785,
      "center": {
        "lat": 65.7194679,
        "lon": 15.3349985
      },
      "nodes": [],
      "tags": {
        "addr:housenumber": "3",
        "addr:street": "Ljungvägen",
        "caravans": "yes",
        "internet_access": "wlan",
        "name": "Tärnaby Camping",
        "phone": "070-547 27 97",
        "power_supply": "yes",
        "tents": "yes",
        "tourism": "camp_site",
        "website": "http://www.tarnabycamping.se"
      }
    },
    {
      "type": "way",
      "id": 337746159,
      "timestamp": "2019-05-08T18:56:28Z",
      "version": 2,
      "changeset": 70042377,
      "user": "pangoSE",
      "uid": 987207,
      "center": {
        "lat": 65.8850069,
        "lon": 15.1585533
      },
      "nodes": [],
      "tags": {
        "building": "yes",
        "capacity": "25",
        "ele": "860",
        "emergency": "phone",
        "name": "Viterskalet Fjällstuga",
        "operator": "Svenska Turistföreningen",
        "shop": "yes",
        "snowmobile": "yes",
        "tourism": "alpine_hut",
        "website": "https://www.svenskaturistforeningen.se/anlaggningar/stf-viterskalet-fjallstuga/"
      }
    }
  ]
}