{
  "osm3s": {
    "timestamp_osm_date": "2021-08-24T23:59:59Z",
    "timestamp_osm_base": "2021-08-25T04:54:29Z",
    "copyright": "The data included in this document is from www.openstreetmap.org. The data is made available under ODbL."
  },
  "elements": [
    {
      "type": "node",
      "id": 57096731,
      "lat": 45.5706789,
      "lon": 15.1925962,
      "timestamp": "2020-11-03T08:21:26Z",
      "version": 15,
      "changeset": 93465709,
      "user": "filu",
      "uid": 675543,
      "tags": {
        "name": "Črnomelj",
        "name:de": "Tschernembl",
        "name:lt": "Črnomelis",
        "name:ru": "Чрномель",
        "name:sl": "Črnomelj",
        "place": "town",
        "population": "5800",
        "source:population": "http://www.stat.si/KrajevnaImena/",
        "wikidata": "Q15861",
        "wikipedia": "sl:Črnomelj"
      }
    },
    {
      "type": "node",
      "id": 60313900,
      "lat": 45.4435242,
      "lon": 15.2642332,
      "timestamp": "2020-12-19T22:36:00Z",
      "version": 10,
      "changeset": 96123906,
      "user": "kdkeller",
      "uid": 43207,
      "tags": {
        "addr:postcode": "47251",
        "is_in": "Bosiljevo",
        "name": "Bosanci",
        "place": "village",
        "population": "40",
        "population:date": "2011-03-31",
        "source:population": "DZS 2011",
        "wikidata": "Q848200"
      }
    },
    {
      "type": "node",
      "id": 84812150,
      "lat": 45.5079822,
      "lon": 15.4144765,
      "timestamp": "2019-08-05T10:15:08Z",
      "version": 7,
      "changeset": 73014640,
      "user": "PavelPS",
      "uid": 25561,
      "tags": {
        "name": "Netretić",
        "place": "village",
        "population": "58",
        "population:date": "2011-03-31",
        "source:population": "DZS 2011",
        "wikidata": "Q969794"
      }
    },
    {
      "type": "node",
      "id": 87184260,
      "lat": 45.2668211,
      "lon": 15.2250286,
      "timestamp": "2019-06-17T12:22:28Z",
      "version": 14,
      "changeset": 71328248,
      "user": "Badojo",
      "uid": 8189075,
      "tags": {
        "name": "Ogulin",
        "name:lt": "Ogulinas",
        "name:ru": "Огулин",
        "name:sr": "Огулин",
        "place": "town",
        "population": "8216",
        "population:date": "2011-03-31",
        "source:population": "DZS 2011",
        "wikidata": "Q397372",
        "wikipedia": "hr:Ogulin"
      }
    },
    {
      "type": "node",
      "id": 87184270,
      "lat": 45.2301733,
      "lon": 15.0386831,
      "timestamp": "2021-07-26T19:52:23Z",
      "version": 4,
      "changeset": 108643831,
      "user": "imperiumultimum",
      "uid": 2095521,
      "tags": {
        "name": "Jasenak",
        "name:sr": "Јасенак",
        "place": "village",
        "population": "226",
        "population:date": "2011-03-31",
        "source:population": "DZS 2011"
      }
    },
    {
      "type": "node",
      "id": 87184275,
      "lat": 45.254037,
      "lon": 15.0171906,
      "timestamp": "2013-02-21T21:59:52Z",
      "version": 2,
      "changeset": 15117351,
      "user": "Janjko",
      "uid": 244754,
      "tags": {
        "name": "Vrelo",
        "place": "hamlet"
      }
    },
    {
      "type": "node",
      "id": 87198774,
      "lat": 45.4602334,
      "lon": 15.2537407,
      "timestamp": "2019-02-11T13:10:03Z",
      "version": 5,
      "changeset": 67099869,
      "user": "StefanB",
      "uid": 3834,
      "tags": {
        "is_in": "Slovenia, Europe",
        "name": "Vinica",
        "place": "village",
        "wikidata": "Q6962629",
        "wikipedia:sl": "Vinica, Črnomelj"
      }
    },
    {
      "type": "node",
      "id": 87198782,
      "lat": 45.5220541,
      "lon": 15.1789047,
      "timestamp": "2020-07-26T06:12:53Z",
      "version": 7,
      "changeset": 88511766,
      "user": "Joško Horvat",
      "uid": 2146151,
      "tags": {
        "ele": "166.7",
        "name": "Dragatuš",
        "name:ru": "Драгатуш",
        "place": "village",
        "population": "224",
        "wikidata": "Q2658854"
      }
    },
    {
      "type": "node",
      "id": 286373297,
      "lat": 45.1366933,
      "lon": 15.0913227,
      "timestamp": "2020-12-19T22:35:51Z",
      "version": 5,
      "changeset": 96123906,
      "user": "kdkeller",
      "uid": 43207,
      "tags": {
        "is_in": "Karlovačka županija",
        "name": "Drežnica",
        "place": "village",
        "population": "516",
        "population:date": "2011-03-31",
        "source:population": "DZS 2011",
        "wikidata": "Q402659"
      }
    },
    {
      "type": "node",
      "id": 286373301,
      "lat": 45.147878,
      "lon": 15.0362976,
      "timestamp": "2008-08-09T00:42:59Z",
      "version": 1,
      "changeset": 161481,
      "user": "blazv",
      "uid": 58143,
      "tags": {
        "created_by": "Potlatch 0.10b",
        "is_in": "Karlovačka županija",
        "name": "Tomići",
        "place": "village"
      }
    },
    {
      "type": "node",
      "id": 379597095,
      "lat": 45.5731134,
      "lon": 14.8491226,
      "timestamp": "2019-02-11T12:14:50Z",
      "version": 3,
      "changeset": 67098257,
      "user": "StefanB",
      "uid": 3834,
      "tags": {
        "name": "Novi Lazi",
        "name:ru": "Нови-Лази",
        "place": "village",
        "wikidata": "Q2702832",
        "wikipedia:en": "Novi Lazi"
      }
    },
    {
      "type": "node",
      "id": 379597766,
      "lat": 45.5749221,
      "lon": 14.7996781,
      "timestamp": "2019-02-11T12:14:49Z",
      "version": 5,
      "changeset": 67098257,
      "user": "StefanB",
      "uid": 3834,
      "tags": {
        "name": "Kočevska Reka",
        "name:ru": "Кочевска-Река",
        "place": "village",
        "wikidata": "Q2653434",
        "wikipedia:en": "Kočevska Reka"
      }
    },
    {
      "type": "node",
      "id": 452496613,
      "lat": 45.5494786,
      "lon": 14.8623655,
      "timestamp": "2019-02-11T12:14:31Z",
      "version": 5,
      "changeset": 67098257,
      "user": "StefanB",
      "uid": 3834,
      "tags": {
        "is_in": "Slovenia, Europe",
        "name": "Morava",
        "name:ru": "Морава",
        "place": "village",
        "wikidata": "Q279244",
        "wikipedia:en": "Morava, Kočevje"
      }
    },
    {
      "type": "node",
      "id": 454605064,
      "lat": 45.4948027,
      "lon": 15.3774003,
      "timestamp": "2020-07-09T12:26:00Z",
      "version": 6,
      "changeset": 87765656,
      "user": "OSMuser7890",
      "uid": 10139854,
      "tags": {
        "name": "Jakovci Netretićki",
        "old_name:-1991": "Jakovci Netretički",
        "place": "village",
        "population": "21",
        "population:date": "2011-03-31",
        "source:population": "DZS 2011"
      }
    },
    {
      "type": "node",
      "id": 454605192,
      "lat": 45.5380536,
      "lon": 15.4307121,
      "timestamp": "2014-05-05T16:10:56Z",
      "version": 2,
      "changeset": 22149513,
      "user": "Janjko",
      "uid": 244754,
      "tags": {
        "name": "Završje",
        "place": "village"
      }
    },
    {
      "type": "node",
      "id": 454837919,
      "lat": 45.4728622,
      "lon": 14.8740083,
      "timestamp": "2019-02-11T12:18:01Z",
      "version": 6,
      "changeset": 67098358,
      "user": "StefanB",
      "uid": 3834,
      "tags": {
        "is_in": "Slovenia, Europe",
        "name": "Vas",
        "place": "village",
        "population": "70",
        "source": "landsat",
        "source:population": "http://www.stat.si/KrajevnaImena/",
        "wikidata": "Q3223266",
        "wikipedia:sl": "Vas, Kostel"
      }
    },
    {
      "type": "node",
      "id": 467096085,
      "lat": 45.3739079,
      "lon": 14.9393586,
      "timestamp": "2017-12-03T18:53:59Z",
      "version": 6,
      "changeset": 54305888,
      "user": "antal",
      "uid": 98294,
      "tags": {
        "name": "Ravna Gora",
        "place": "village",
        "population": "1709",
        "population:date": "2011-03-31",
        "source:population": "DZS 2011",
        "website": "http://www.ravnagora.hr",
        "wikidata": "Q1277458",
        "wikipedia": "hr:Ravna Gora (općina)"
      }
    },
    {
      "type": "node",
      "id": 467096087,
      "lat": 45.3766284,
      "lon": 14.9954368,
      "timestamp": "2020-12-19T14:25:58Z",
      "version": 5,
      "changeset": 96110337,
      "user": "kdkeller",
      "uid": 43207,
      "tags": {
        "name": "Stara Sušica",
        "place": "village",
        "population": "262",
        "population:date": "2011-03-31",
        "source:population": "DZS 2011",
        "wikidata": "Q4488367"
      }
    },
    {
      "type": "node",
      "id": 467096089,
      "lat": 45.3781956,
      "lon": 15.030126,
      "timestamp": "2017-12-03T18:53:59Z",
      "version": 3,
      "changeset": 54305888,
      "user": "antal",
      "uid": 98294,
      "tags": {
        "name": "Jablan",
        "place": "village",
        "population": "209",
        "population:date": "2011-03-31",
        "source:population": "DZS 2011"
      }
    },
    {
      "type": "node",
      "id": 467096090,
      "lat": 45.3740037,
      "lon": 15.0781121,
      "timestamp": "2020-04-13T15:44:19Z",
      "version": 11,
      "changeset": 83486085,
      "user": "Badojo",
      "uid": 8189075,
      "tags": {
        "name": "Vrbovsko",
        "name:it": "Verbosco",
        "name:lt": "Vrbovskas",
        "name:ru": "Врбовско",
        "name:sr": "Врбовско",
        "place": "town",
        "population": "1673",
        "population:date": "2011-03-31",
        "source:population": "DZS 2011",
        "wikidata": "Q396637",
        "wikipedia": "hr:Vrbovsko"
      }
    },
    {
      "type": "node",
      "id": 470718613,
      "lat": 45.297476,
      "lon": 15.2624799,
      "timestamp": "2021-05-12T07:27:37Z",
      "version": 3,
      "changeset": 104553477,
      "user": "Aranc",
      "uid": 9475258,
      "tags": {
        "name": "Izvor Dobre",
        "natural": "cave_entrance"
      }
    },
    {
      "type": "node",
      "id": 481411644,
      "lat": 45.2733396,
      "lon": 14.9615438,
      "timestamp": "2020-09-17T05:43:34Z",
      "version": 3,
      "changeset": 91020600,
      "user": "mirelon",
      "uid": 1270972,
      "tags": {
        "alt_name": "Bjelolasica",
        "ele": "1534",
        "name": "Kula",
        "natural": "peak",
        "prominence": "642",
        "wikidata": "Q89549880"
      }
    },
    {
      "type": "node",
      "id": 484686942,
      "lat": 45.4615329,
      "lon": 15.2536894,
      "timestamp": "2021-07-23T19:18:10Z",
      "version": 5,
      "changeset": 108510016,
      "user": "Joško Horvat",
      "uid": 2146151,
      "tags": {
        "name": "Samopostrežna trgovina",
        "opening_hours": "Mo-Sa 06:30-19:00; Su 07:00-12:00",
        "operator": "Frankovič Franc s.p.",
        "shop": "convenience"
      }
    },
    {
      "type": "node",
      "id": 484688172,
      "lat": 45.4583748,
      "lon": 15.2521312,
      "timestamp": "2014-08-16T09:01:37Z",
      "version": 2,
      "changeset": 24782746,
      "user": "MarBur",
      "uid": 772424,
      "tags": {
        "name": "Kamp Katra",
        "tourism": "camp_site"
      }
    },
    {
      "type": "node",
      "id": 484688541,
      "lat": 45.4586457,
      "lon": 15.2548864,
      "timestamp": "2014-08-16T09:01:37Z",
      "version": 2,
      "changeset": 24782746,
      "user": "MarBur",
      "uid": 772424,
      "tags": {
        "name": "Kamp Kolpa",
        "tourism": "camp_site"
      }
    },
    {
      "type": "node",
      "id": 498449700,
      "lat": 45.1980781,
      "lon": 14.7845007,
      "timestamp": "2009-09-16T20:35:22Z",
      "version": 2,
      "changeset": 2506292,
      "user": "Darko Boto",
      "uid": 13931,
      "tags": {
        "name": "Kuća Kurin",
        "tourism": "alpine_hut"
      }
    },
    {
      "type": "node",
      "id": 498449726,
      "lat": 45.2939689,
      "lon": 14.7873932,
      "timestamp": "2017-05-28T13:37:09Z",
      "version": 5,
      "changeset": 49046020,
      "user": "Janjko",
      "uid": 244754,
      "tags": {
        "amenity": "shelter",
        "ele": "1303",
        "name": "Sklonište Bitorajka",
        "tourism": "wilderness_hut"
      }
    },
    {
      "type": "node",
      "id": 498449746,
      "lat": 45.2953032,
      "lon": 14.8840814,
      "timestamp": "2019-09-24T07:24:40Z",
      "version": 5,
      "changeset": 74838833,
      "user": "Club Touristi Triestini",
      "uid": 1847864,
      "tags": {
        "addr:city": "Mrkopalj",
        "addr:country": "HR",
        "addr:housenumber": "30",
        "addr:place": "Tuk Vojni",
        "addr:street": "Tučka",
        "email": "monacomrkopalj1@gmail.com",
        "name": "Dom Bijele Stijene",
        "phone": "+385 99 8401998",
        "tourism": "alpine_hut"
      }
    },
    {
      "type": "node",
      "id": 498449823,
      "lat": 45.3881397,
      "lon": 14.95212,
      "timestamp": "2013-07-18T21:52:30Z",
      "version": 4,
      "changeset": 17005464,
      "user": "Janjko",
      "uid": 244754,
      "tags": {
        "name": "Kuća Javorova Kosa",
        "start_date": "1989",
        "tourism": "alpine_hut"
      }
    },
    {
      "type": "node",
      "id": 498449836,
      "lat": 45.2256086,
      "lon": 14.9519392,
      "timestamp": "2017-05-15T09:42:27Z",
      "version": 6,
      "changeset": 48696393,
      "user": "Janjko",
      "uid": 244754,
      "tags": {
        "amenity": "shelter",
        "ele": "1200",
        "mapillary": "79RWxwLDftcqax6D3DkOIA",
        "name": "Ratkovo sklonište",
        "start_date": "1952",
        "tourism": "wilderness_hut"
      }
    },
    {
      "type": "node",
      "id": 498449858,
      "lat": 45.2572269,
      "lon": 15.1443047,
      "timestamp": "2020-10-01T18:42:38Z",
      "version": 5,
      "changeset": 91841930,
      "user": "Vedran V",
      "uid": 158601,
      "tags": {
        "ele": "1000",
        "name": "Planinarski dom Klek",
        "name:en": "Mountain hut Klek",
        "tourism": "alpine_hut"
      }
    },
    {
      "type": "node",
      "id": 498449869,
      "lat": 45.2376396,
      "lon": 15.1827586,
      "timestamp": "2017-05-28T13:37:09Z",
      "version": 7,
      "changeset": 49046020,
      "user": "Janjko",
      "uid": 244754,
      "tags": {
        "amenity": "shelter",
        "beds": "10",
        "ele": "800",
        "name": "Sklonište Stožac",
        "shelter_type": "weather_shelter",
        "tourism": "wilderness_hut"
      }
    },
    {
      "type": "node",
      "id": 556713829,
      "lat": 45.3991761,
      "lon": 14.8020393,
      "timestamp": "2019-03-08T16:23:32Z",
      "version": 19,
      "changeset": 67929257,
      "user": "Ramying",
      "uid": 668137,
      "tags": {
        "name": "Delnice",
        "name:hu": "Delnice",
        "name:it": "Delnizza",
        "name:lt": "Delnicė",
        "name:ru": "Делнице",
        "name:sr": "Делнице",
        "place": "town",
        "population": "4379",
        "population:date": "2011-03-31",
        "source:population": "DZS 2011",
        "wikidata": "Q397508",
        "wikipedia": "en:Delnice"
      }
    },
    {
      "type": "node",
      "id": 670864351,
      "lat": 45.4205031,
      "lon": 15.3479181,
      "timestamp": "2017-12-03T18:55:00Z",
      "version": 4,
      "changeset": 54305888,
      "user": "antal",
      "uid": 98294,
      "tags": {
        "name": "Beč",
        "place": "village",
        "population": "9",
        "population:date": "2011-03-31",
        "source:population": "DZS 2011"
      }
    },
    {
      "type": "node",
      "id": 749679594,
      "lat": 45.3442242,
      "lon": 15.3760127,
      "timestamp": "2020-05-04T12:01:10Z",
      "version": 8,
      "changeset": 84622210,
      "user": "Badojo",
      "uid": 8189075,
      "tags": {
        "name": "Generalski Stol",
        "place": "village",
        "population": "589",
        "population:date": "2011-03-31",
        "source:population": "DZS 2011",
        "wikidata": "Q221086",
        "wikipedia": "hr:Generalski Stol"
      }
    },
    {
      "type": "node",
      "id": 766542315,
      "lat": 45.4874864,
      "lon": 15.389772,
      "timestamp": "2017-12-03T18:55:13Z",
      "version": 3,
      "changeset": 54305888,
      "user": "antal",
      "uid": 98294,
      "tags": {
        "name": "Ladešići",
        "place": "village",
        "population": "28",
        "population:date": "2011-03-31",
        "source:population": "DZS 2011"
      }
    },
    {
      "type": "node",
      "id": 834619044,
      "lat": 45.3154497,
      "lon": 14.8557128,
      "timestamp": "2019-03-08T16:23:31Z",
      "version": 6,
      "changeset": 67929257,
      "user": "Ramying",
      "uid": 668137,
      "tags": {
        "name": "Mrkopalj",
        "name:it": "Mercopaglio",
        "place": "village",
        "population": "755",
        "population:date": "2011-03-31",
        "source:population": "DZS 2011",
        "website": "http://www.mrkopalj.hr",
        "wikidata": "Q1027260",
        "wikipedia": "hr:Mrkopalj"
      }
    },
    {
      "type": "node",
      "id": 872551088,
      "lat": 45.5685837,
      "lon": 14.9476795,
      "timestamp": "2019-02-11T12:14:53Z",
      "version": 7,
      "changeset": 67098257,
      "user": "StefanB",
      "uid": 3834,
      "tags": {
        "name": "Rajndol",
        "name:ru": "Райндол",
        "place": "village",
        "population": "48",
        "source": "landsat",
        "source:population": "http://www.stat.si/KrajevnaImena/",
        "wikidata": "Q3440172",
        "wikipedia:en": "Rajndol"
      }
    },
    {
      "type": "node",
      "id": 872551227,
      "lat": 45.5502846,
      "lon": 15.0094419,
      "timestamp": "2019-02-11T12:14:37Z",
      "version": 5,
      "changeset": 67098257,
      "user": "StefanB",
      "uid": 3834,
      "tags": {
        "is_in": "Slovenia, Europe",
        "name": "Knežja Lipa",
        "name:ru": "Кнежья-Липа",
        "place": "village",
        "population": "19",
        "source": "landsat",
        "source:population": "http://www.stat.si/KrajevnaImena/",
        "wikidata": "Q2182441",
        "wikipedia:en": "Knežja Lipa"
      }
    },
    {
      "type": "node",
      "id": 875919486,
      "lat": 45.4902385,
      "lon": 15.0625113,
      "timestamp": "2020-07-26T06:12:53Z",
      "version": 6,
      "changeset": 88511766,
      "user": "Joško Horvat",
      "uid": 2146151,
      "tags": {
        "name": "Prelesje",
        "place": "village",
        "population": "24",
        "source": "landsat",
        "source:population": "http://www.stat.si/KrajevnaImena/",
        "wikidata": "Q2855581"
      }
    },
    {
      "type": "node",
      "id": 875919516,
      "lat": 45.5342824,
      "lon": 15.0653928,
      "timestamp": "2019-02-11T13:10:01Z",
      "version": 5,
      "changeset": 67099869,
      "user": "StefanB",
      "uid": 3834,
      "tags": {
        "is_in": "Slovenia, Europe",
        "name": "Gorenja Podgora",
        "place": "village",
        "population": "23",
        "source": "landsat",
        "source:population": "http://www.stat.si/KrajevnaImena/",
        "wikidata": "Q3439816",
        "wikipedia:sl": "Gorenja Podgora"
      }
    },
    {
      "type": "node",
      "id": 875919535,
      "lat": 45.5081362,
      "lon": 14.9104871,
      "timestamp": "2017-03-10T17:10:24Z",
      "version": 8,
      "changeset": 46743847,
      "user": "Batareikin",
      "uid": 127299,
      "tags": {
        "is_in": "Slovenia, Europe",
        "name": "Kostel",
        "name:de": "Grafenwarth",
        "name:ru": "Костел",
        "name:sl": "Kostel",
        "place": "village",
        "population": "13",
        "source": "landsat",
        "source:population": "http://www.stat.si/KrajevnaImena/"
      }
    },
    {
      "type": "node",
      "id": 875919586,
      "lat": 45.4969733,
      "lon": 15.0642039,
      "timestamp": "2019-02-11T13:09:49Z",
      "version": 5,
      "changeset": 67099869,
      "user": "StefanB",
      "uid": 3834,
      "tags": {
        "is_in": "Slovenia, Europe",
        "name": "Kovača vas",
        "place": "village",
        "population": "13",
        "source": "landsat",
        "source:population": "http://www.stat.si/KrajevnaImena/",
        "wikidata": "Q2423789",
        "wikipedia:sl": "Kovača vas, Črnomelj"
      }
    },
    {
      "type": "node",
      "id": 875919608,
      "lat": 45.5051229,
      "lon": 15.0556773,
      "timestamp": "2019-02-11T12:14:51Z",
      "version": 5,
      "changeset": 67098257,
      "user": "StefanB",
      "uid": 3834,
      "tags": {
        "is_in": "Slovenia, Europe",
        "name": "Predgrad",
        "name:ru": "Предград",
        "place": "village",
        "population": "108",
        "source": "landsat",
        "source:population": "http://www.stat.si/KrajevnaImena/",
        "wikidata": "Q2961590",
        "wikipedia:en": "Predgrad"
      }
    },
    {
      "type": "node",
      "id": 875919641,
      "lat": 45.539086,
      "lon": 15.0458362,
      "timestamp": "2019-02-11T12:14:34Z",
      "version": 4,
      "changeset": 67098257,
      "user": "StefanB",
      "uid": 3834,
      "tags": {
        "is_in": "Slovenia, Europe",
        "name": "Čeplje",
        "place": "village",
        "population": "23",
        "source": "landsat",
        "source:population": "http://www.stat.si/KrajevnaImena/",
        "wikidata": "Q1956503",
        "wikipedia:en": "Čeplje, Kočevje"
      }
    },
    {
      "type": "node",
      "id": 875919684,
      "lat": 45.5255484,
      "lon": 15.0612107,
      "timestamp": "2019-02-11T13:09:55Z",
      "version": 4,
      "changeset": 67099869,
      "user": "StefanB",
      "uid": 3834,
      "tags": {
        "is_in": "Slovenia, Europe",
        "name": "Zagozdac",
        "place": "village",
        "population": "24",
        "source": "landsat",
        "source:population": "http://www.stat.si/KrajevnaImena/",
        "wikidata": "Q2698734",
        "wikipedia:sl": "Zagozdac"
      }
    },
    {
      "type": "node",
      "id": 875919688,
      "lat": 45.4937448,
      "lon": 15.0774361,
      "timestamp": "2020-07-25T20:36:00Z",
      "version": 4,
      "changeset": 88505858,
      "user": "Joško Horvat",
      "uid": 2146151,
      "tags": {
        "ele": "376.3",
        "name": "Stari trg ob Kolpi",
        "place": "village",
        "population": "86",
        "source": "landsat",
        "source:population": "http://www.stat.si/KrajevnaImena/",
        "wikidata": "Q1954302"
      }
    },
    {
      "type": "node",
      "id": 875919689,
      "lat": 45.4670397,
      "lon": 15.0936947,
      "timestamp": "2019-02-11T13:09:59Z",
      "version": 5,
      "changeset": 67099869,
      "user": "StefanB",
      "uid": 3834,
      "tags": {
        "is_in": "Slovenia, Europe",
        "name": "Srednji Radenci",
        "name:ru": "Средни-Раденци",
        "place": "village",
        "population": "25",
        "source": "landsat",
        "source:population": "http://www.stat.si/KrajevnaImena/",
        "wikidata": "Q3336199",
        "wikipedia:sl": "Srednji Radenci"
      }
    },
    {
      "type": "node",
      "id": 875919720,
      "lat": 45.4960061,
      "lon": 15.0523374,
      "timestamp": "2020-08-10T05:49:10Z",
      "version": 6,
      "changeset": 89176803,
      "user": "Joško Horvat",
      "uid": 2146151,
      "tags": {
        "is_in": "Slovenia, Europe",
        "name": "Dol",
        "place": "village",
        "population": "22",
        "source": "landsat",
        "source:population": "http://www.stat.si/KrajevnaImena/",
        "wikidata": "Q2477866",
        "wikipedia:en": "Dol, Kočevje"
      }
    },
    {
      "type": "node",
      "id": 875919737,
      "lat": 45.5150615,
      "lon": 14.911481,
      "timestamp": "2019-02-11T12:18:04Z",
      "version": 5,
      "changeset": 67098358,
      "user": "StefanB",
      "uid": 3834,
      "tags": {
        "is_in": "Slovenia, Europe",
        "name": "Dolenja Žaga",
        "place": "village",
        "source": "landsat",
        "wikidata": "Q15214492",
        "wikipedia:sl": "Dolenja Žaga"
      }
    },
    {
      "type": "node",
      "id": 875919754,
      "lat": 45.4865882,
      "lon": 15.0797072,
      "timestamp": "2019-02-11T13:09:38Z",
      "version": 4,
      "changeset": 67099869,
      "user": "StefanB",
      "uid": 3834,
      "tags": {
        "is_in": "Slovenia, Europe",
        "name": "Sodevci",
        "place": "village",
        "population": "51",
        "source": "landsat",
        "source:population": "http://www.stat.si/KrajevnaImena/",
        "wikidata": "Q736763",
        "wikipedia:sl": "Sodevci"
      }
    },
    {
      "type": "node",
      "id": 875919757,
      "lat": 45.511287,
      "lon": 14.9651118,
      "timestamp": "2019-02-11T12:14:32Z",
      "version": 4,
      "changeset": 67098257,
      "user": "StefanB",
      "uid": 3834,
      "tags": {
        "is_in": "Slovenia, Europe",
        "name": "Spodnja Bilpa",
        "place": "village",
        "population": "7",
        "source": "landsat",
        "source:population": "http://www.stat.si/KrajevnaImena/",
        "wikidata": "Q633704",
        "wikipedia:en": "Spodnja Bilpa"
      }
    },
    {
      "type": "node",
      "id": 875919787,
      "lat": 45.4971074,
      "lon": 15.07187,
      "timestamp": "2019-02-11T13:10:00Z",
      "version": 5,
      "changeset": 67099869,
      "user": "StefanB",
      "uid": 3834,
      "tags": {
        "is_in": "Slovenia, Europe",
        "name": "Deskova vas",
        "place": "village",
        "population": "27",
        "source": "landsat",
        "source:population": "http://www.stat.si/KrajevnaImena/",
        "wikidata": "Q3439797",
        "wikipedia:sl": "Deskova vas"
      }
    },
    {
      "type": "node",
      "id": 875919837,
      "lat": 45.4675386,
      "lon": 15.0977581,
      "timestamp": "2019-02-11T13:09:43Z",
      "version": 5,
      "changeset": 67099869,
      "user": "StefanB",
      "uid": 3834,
      "tags": {
        "is_in": "Slovenia, Europe",
        "name": "Dolenji Radenci",
        "place": "village",
        "population": "31",
        "source": "landsat",
        "source:population": "http://www.stat.si/KrajevnaImena/",
        "wikidata": "Q1989448",
        "wikipedia:sl": "Dolenji Radenci"
      }
    },
    {
      "type": "node",
      "id": 875919854,
      "lat": 45.4677574,
      "lon": 15.0910767,
      "timestamp": "2019-02-11T13:09:59Z",
      "version": 5,
      "changeset": 67099869,
      "user": "StefanB",
      "uid": 3834,
      "tags": {
        "is_in": "Slovenia, Europe",
        "name": "Gorenji Radenci",
        "place": "village",
        "population": "26",
        "source": "landsat",
        "source:population": "http://www.stat.si/KrajevnaImena/",
        "wikidata": "Q3439780",
        "wikipedia:sl": "Gorenji Radenci"
      }
    },
    {
      "type": "node",
      "id": 875919874,
      "lat": 45.4997156,
      "lon": 14.9107876,
      "timestamp": "2019-02-11T12:17:58Z",
      "version": 5,
      "changeset": 67098358,
      "user": "StefanB",
      "uid": 3834,
      "tags": {
        "is_in": "Slovenia, Europe",
        "name": "Brsnik",
        "place": "hamlet",
        "population": "2",
        "source": "landsat",
        "source:population": "http://www.stat.si/KrajevnaImena/",
        "wikidata": "Q2596244",
        "wikipedia:sl": "Brsnik"
      }
    },
    {
      "type": "node",
      "id": 875919877,
      "lat": 45.4773845,
      "lon": 15.0882832,
      "timestamp": "2020-08-10T06:18:42Z",
      "version": 6,
      "changeset": 89178406,
      "user": "Joško Horvat",
      "uid": 2146151,
      "tags": {
        "ele": "186.9",
        "name": "Dečina",
        "place": "village",
        "population": "2",
        "source": "landsat",
        "source:population": "http://www.stat.si/KrajevnaImena/",
        "wikidata": "Q2615899"
      }
    },
    {
      "type": "node",
      "id": 875919908,
      "lat": 45.5210247,
      "lon": 14.9480946,
      "timestamp": "2019-02-11T12:17:54Z",
      "version": 5,
      "changeset": 67098358,
      "user": "StefanB",
      "uid": 3834,
      "tags": {
        "is_in": "Slovenia, Europe",
        "name": "Grgelj",
        "place": "village",
        "population": "2",
        "source": "landsat",
        "source:population": "http://www.stat.si/KrajevnaImena/",
        "wikidata": "Q2283855",
        "wikipedia:sl": "Grgelj"
      }
    },
    {
      "type": "node",
      "id": 875920014,
      "lat": 45.5501313,
      "lon": 15.0407499,
      "timestamp": "2019-02-11T12:14:53Z",
      "version": 5,
      "changeset": 67098257,
      "user": "StefanB",
      "uid": 3834,
      "tags": {
        "is_in": "Slovenia, Europe",
        "name": "Brezovica pri Predgradu",
        "place": "village",
        "population": "49",
        "source": "landsat",
        "source:population": "http://www.stat.si/KrajevnaImena/",
        "wikidata": "Q3439892",
        "wikipedia:en": "Brezovica pri Predgradu"
      }
    },
    {
      "type": "node",
      "id": 875920036,
      "lat": 45.5181332,
      "lon": 14.911387,
      "timestamp": "2019-02-11T12:17:50Z",
      "version": 5,
      "changeset": 67098358,
      "user": "StefanB",
      "uid": 3834,
      "tags": {
        "is_in": "Slovenia, Europe",
        "name": "Gorenja Žaga",
        "place": "village",
        "population": "13",
        "source": "landsat",
        "source:population": "http://www.stat.si/KrajevnaImena/",
        "wikidata": "Q749998",
        "wikipedia:sl": "Gorenja Žaga"
      }
    },
    {
      "type": "node",
      "id": 875920075,
      "lat": 45.496624,
      "lon": 15.0790117,
      "timestamp": "2019-02-11T13:09:56Z",
      "version": 4,
      "changeset": 67099869,
      "user": "StefanB",
      "uid": 3834,
      "tags": {
        "is_in": "Slovenia, Europe",
        "name": "Močile",
        "place": "village",
        "population": "15",
        "source": "landsat",
        "source:population": "http://www.stat.si/KrajevnaImena/",
        "wikidata": "Q2779910",
        "wikipedia:sl": "Močile, Črnomelj"
      }
    },
    {
      "type": "node",
      "id": 875920090,
      "lat": 45.5307632,
      "lon": 15.0735204,
      "timestamp": "2019-02-11T13:09:47Z",
      "version": 5,
      "changeset": 67099869,
      "user": "StefanB",
      "uid": 3834,
      "tags": {
        "is_in": "Slovenia, Europe",
        "name": "Dolenja Podgora",
        "place": "village",
        "population": "10",
        "source": "landsat",
        "source:population": "http://www.stat.si/KrajevnaImena/",
        "wikidata": "Q2228911",
        "wikipedia:sl": "Dolenja Podgora"
      }
    },
    {
      "type": "node",
      "id": 875920093,
      "lat": 45.5131589,
      "lon": 15.0543884,
      "timestamp": "2019-02-11T12:14:45Z",
      "version": 5,
      "changeset": 67098257,
      "user": "StefanB",
      "uid": 3834,
      "tags": {
        "is_in": "Slovenia, Europe",
        "name": "Jelenja vas",
        "place": "village",
        "population": "19",
        "source": "landsat",
        "source:population": "http://www.stat.si/KrajevnaImena/",
        "wikidata": "Q2458814",
        "wikipedia:en": "Jelenja Vas"
      }
    },
    {
      "type": "node",
      "id": 875920124,
      "lat": 45.4904024,
      "lon": 15.0282022,
      "timestamp": "2019-02-11T12:14:58Z",
      "version": 4,
      "changeset": 67098257,
      "user": "StefanB",
      "uid": 3834,
      "tags": {
        "is_in": "Slovenia, Europe",
        "name": "Hreljin",
        "place": "hamlet",
        "source": "landsat",
        "wikidata": "Q23198193",
        "wikipedia:en": "Hreljin, Kočevje"
      }
    },
    {
      "type": "node",
      "id": 875920172,
      "lat": 45.4974309,
      "lon": 14.9918165,
      "timestamp": "2019-02-11T12:14:34Z",
      "version": 3,
      "changeset": 67098257,
      "user": "StefanB",
      "uid": 3834,
      "tags": {
        "is_in": "Slovenia, Europe",
        "name": "Vrt",
        "place": "hamlet",
        "population": "3",
        "source": "landsat",
        "source:population": "http://www.stat.si/KrajevnaImena/",
        "wikidata": "Q1979645",
        "wikipedia:en": "Vrt, Kočevje"
      }
    },
    {
      "type": "node",
      "id": 875920200,
      "lat": 45.5415622,
      "lon": 15.0408058,
      "timestamp": "2017-06-17T15:26:21Z",
      "version": 3,
      "changeset": 49617000,
      "user": "gvil_import",
      "uid": 2413345,
      "tags": {
        "is_in": "Slovenia, Europe",
        "name": "Vimolj pri Podgradu",
        "place": "village",
        "population": "20",
        "source": "landsat",
        "source:population": "http://www.stat.si/KrajevnaImena/"
      }
    },
    {
      "type": "node",
      "id": 875920231,
      "lat": 45.4957266,
      "lon": 15.0169891,
      "timestamp": "2019-02-11T12:14:35Z",
      "version": 4,
      "changeset": 67098257,
      "user": "StefanB",
      "uid": 3834,
      "tags": {
        "is_in": "Slovenia, Europe",
        "name": "Laze pri Predgradu",
        "place": "village",
        "population": "13",
        "source": "landsat",
        "source:population": "http://www.stat.si/KrajevnaImena/",
        "wikidata": "Q1996525",
        "wikipedia:en": "Laze pri Predgradu"
      }
    },
    {
      "type": "node",
      "id": 875920246,
      "lat": 45.4900615,
      "lon": 15.0698033,
      "timestamp": "2019-02-11T13:09:53Z",
      "version": 5,
      "changeset": 67099869,
      "user": "StefanB",
      "uid": 3834,
      "tags": {
        "is_in": "Slovenia, Europe",
        "name": "Kot ob Kolpi",
        "place": "village",
        "population": "1",
        "source": "landsat",
        "source:population": "http://www.stat.si/KrajevnaImena/",
        "wikidata": "Q2644529",
        "wikipedia:sl": "Kot ob Kolpi"
      }
    },
    {
      "type": "node",
      "id": 876236821,
      "lat": 45.4643987,
      "lon": 14.8428616,
      "timestamp": "2019-02-11T12:17:57Z",
      "version": 4,
      "changeset": 67098358,
      "user": "StefanB",
      "uid": 3834,
      "tags": {
        "is_in": "Slovenia, Europe",
        "name": "Grivac",
        "place": "village",
        "population": "23",
        "source": "landsat",
        "source:population": "http://www.stat.si/KrajevnaImena/",
        "wikidata": "Q2549586",
        "wikipedia:sl": "Grivac"
      }
    },
    {
      "type": "node",
      "id": 876236839,
      "lat": 45.4771436,
      "lon": 14.8829867,
      "timestamp": "2021-08-24T22:07:34Z",
      "version": 8,
      "changeset": 110195733,
      "user": "Mark Martinec",
      "uid": 58976,
      "tags": {
        "name": "Fara",
        "name:ru": "Фара",
        "name:sl": "Fara",
        "place": "village",
        "population": "37",
        "source": "landsat",
        "source:population": "http://www.stat.si/KrajevnaImena/",
        "wikidata": "Q2501505",
        "wikipedia:sl": "Fara, Kostel"
      }
    },
    {
      "type": "node",
      "id": 876236844,
      "lat": 45.4816655,
      "lon": 14.9070456,
      "timestamp": "2019-02-11T12:17:59Z",
      "version": 4,
      "changeset": 67098358,
      "user": "StefanB",
      "uid": 3834,
      "tags": {
        "is_in": "Slovenia, Europe",
        "name": "Slavski Laz",
        "place": "village",
        "population": "20",
        "source": "landsat",
        "source:population": "http://www.stat.si/KrajevnaImena/",
        "wikidata": "Q2656056",
        "wikipedia:sl": "Slavski Laz"
      }
    },
    {
      "type": "node",
      "id": 876236870,
      "lat": 45.4650725,
      "lon": 14.8530801,
      "timestamp": "2019-02-11T12:18:02Z",
      "version": 8,
      "changeset": 67098358,
      "user": "StefanB",
      "uid": 3834,
      "tags": {
        "is_in": "Slovenia, Europe",
        "name": "Petrina",
        "name:ru": "Петрина",
        "place": "village",
        "population": "7",
        "source": "landsat",
        "source:population": "http://www.stat.si/KrajevnaImena/",
        "wikidata": "Q3439362",
        "wikipedia:sl": "Petrina"
      }
    },
    {
      "type": "node",
      "id": 876236894,
      "lat": 45.4753369,
      "lon": 14.8736352,
      "timestamp": "2021-08-24T22:07:34Z",
      "version": 6,
      "changeset": 110195733,
      "user": "Mark Martinec",
      "uid": 58976,
      "tags": {
        "name": "Potok",
        "place": "village",
        "population": "78",
        "source": "landsat",
        "source:population": "http://www.stat.si/KrajevnaImena/",
        "wikidata": "Q1878661",
        "wikipedia:sl": "Potok, Kostel"
      }
    },
    {
      "type": "node",
      "id": 876236959,
      "lat": 45.4772008,
      "lon": 14.8777499,
      "timestamp": "2019-02-11T12:17:52Z",
      "version": 4,
      "changeset": 67098358,
      "user": "StefanB",
      "uid": 3834,
      "tags": {
        "is_in": "Slovenia, Europe",
        "name": "Hrib pri Fari",
        "place": "hamlet",
        "population": "7",
        "source": "landsat",
        "source:population": "http://www.stat.si/KrajevnaImena/",
        "wikidata": "Q1944515",
        "wikipedia:sl": "Hrib pri Fari"
      }
    },
    {
      "type": "node",
      "id": 876236968,
      "lat": 45.4832014,
      "lon": 14.9034527,
      "timestamp": "2019-02-11T12:17:59Z",
      "version": 5,
      "changeset": 67098358,
      "user": "StefanB",
      "uid": 3834,
      "tags": {
        "is_in": "Slovenia, Europe",
        "name": "Padovo pri Fari",
        "place": "hamlet",
        "population": "5",
        "source": "landsat",
        "source:population": "http://www.stat.si/KrajevnaImena/",
        "wikidata": "Q2666110",
        "wikipedia:sl": "Padovo pri Fari"
      }
    },
    {
      "type": "node",
      "id": 876236982,
      "lat": 45.4808928,
      "lon": 14.8710318,
      "timestamp": "2021-08-24T22:07:34Z",
      "version": 5,
      "changeset": 110195733,
      "user": "Mark Martinec",
      "uid": 58976,
      "tags": {
        "name": "Jakšiči",
        "place": "hamlet",
        "population": "14",
        "source": "landsat",
        "source:population": "http://www.stat.si/KrajevnaImena/",
        "wikidata": "Q2534351",
        "wikipedia:sl": "Jakšiči"
      }
    },
    {
      "type": "node",
      "id": 876237017,
      "lat": 45.4949049,
      "lon": 14.9047921,
      "timestamp": "2019-02-11T12:17:56Z",
      "version": 4,
      "changeset": 67098358,
      "user": "StefanB",
      "uid": 3834,
      "tags": {
        "is_in": "Slovenia, Europe",
        "name": "Poden",
        "place": "hamlet",
        "population": "6",
        "source": "landsat",
        "source:population": "http://www.stat.si/KrajevnaImena/",
        "wikidata": "Q2444304",
        "wikipedia:sl": "Poden"
      }
    },
    {
      "type": "node",
      "id": 876237061,
      "lat": 45.4859726,
      "lon": 14.8844194,
      "timestamp": "2021-08-24T22:22:36Z",
      "version": 5,
      "changeset": 110196039,
      "user": "Mark Martinec",
      "uid": 58976,
      "tags": {
        "name": "Tišenpolj",
        "place": "hamlet",
        "population": "1",
        "source": "landsat",
        "source:population": "http://www.stat.si/KrajevnaImena/",
        "wikidata": "Q2225270",
        "wikipedia:sl": "Tišenpolj"
      }
    },
    {
      "type": "node",
      "id": 876237083,
      "lat": 45.4683167,
      "lon": 14.8585893,
      "timestamp": "2019-02-11T12:17:53Z",
      "version": 6,
      "changeset": 67098358,
      "user": "StefanB",
      "uid": 3834,
      "tags": {
        "is_in": "Slovenia, Europe",
        "name": "Pirče",
        "place": "village",
        "population": "15",
        "source": "landsat",
        "source:population": "http://www.stat.si/KrajevnaImena/",
        "wikidata": "Q2140616",
        "wikipedia:sl": "Pirče"
      }
    },
    {
      "type": "node",
      "id": 876364593,
      "lat": 45.5083403,
      "lon": 14.7782726,
      "timestamp": "2019-02-11T12:20:04Z",
      "version": 4,
      "changeset": 67098415,
      "user": "StefanB",
      "uid": 3834,
      "tags": {
        "is_in": "Slovenia, Europe",
        "name": "Mirtoviči",
        "place": "hamlet",
        "population": "11",
        "source": "landsat",
        "source:population": "http://www.stat.si/KrajevnaImena/",
        "wikidata": "Q2460340",
        "wikipedia:sl": "Mirtoviči"
      }
    },
    {
      "type": "node",
      "id": 876364674,
      "lat": 45.5129989,
      "lon": 14.7658432,
      "timestamp": "2019-02-11T12:20:07Z",
      "version": 5,
      "changeset": 67098415,
      "user": "StefanB",
      "uid": 3834,
      "tags": {
        "is_in": "Slovenia, Europe",
        "name": "Bosljiva Loka",
        "name:ru": "Брослива-Лока",
        "place": "village",
        "population": "31",
        "source": "landsat",
        "source:population": "http://www.stat.si/KrajevnaImena/",
        "wikidata": "Q3439897",
        "wikipedia:sl": "Bosljiva Loka"
      }
    },
    {
      "type": "node",
      "id": 876364796,
      "lat": 45.467582,
      "lon": 14.8162933,
      "timestamp": "2019-02-11T12:17:51Z",
      "version": 4,
      "changeset": 67098358,
      "user": "StefanB",
      "uid": 3834,
      "tags": {
        "is_in": "Slovenia, Europe",
        "name": "Gladloka",
        "place": "hamlet",
        "population": "1",
        "source": "landsat",
        "source:population": "http://www.stat.si/KrajevnaImena/",
        "wikidata": "Q1919234",
        "wikipedia:sl": "Gladloka"
      }
    },
    {
      "type": "node",
      "id": 876364878,
      "lat": 45.5024985,
      "lon": 14.7987356,
      "timestamp": "2019-02-11T12:18:00Z",
      "version": 4,
      "changeset": 67098358,
      "user": "StefanB",
      "uid": 3834,
      "tags": {
        "is_in": "Slovenia, Europe",
        "name": "Srobotnik ob Kolpi",
        "place": "village",
        "population": "1",
        "source": "landsat",
        "source:population": "http://www.stat.si/KrajevnaImena/",
        "wikidata": "Q2749468",
        "wikipedia:sl": "Srobotnik ob Kolpi"
      }
    },
    {
      "type": "node",
      "id": 876365007,
      "lat": 45.4743147,
      "lon": 14.8252704,
      "timestamp": "2019-02-11T12:18:00Z",
      "version": 4,
      "changeset": 67098358,
      "user": "StefanB",
      "uid": 3834,
      "tags": {
        "is_in": "Slovenia, Europe",
        "name": "Laze pri Kostelu",
        "place": "village",
        "population": "13",
        "source": "landsat",
        "source:population": "http://www.stat.si/KrajevnaImena/",
        "wikidata": "Q3123402",
        "wikipedia:sl": "Laze pri Kostelu"
      }
    },
    {
      "type": "node",
      "id": 876365047,
      "lat": 45.4708551,
      "lon": 14.8472509,
      "timestamp": "2019-02-11T12:18:05Z",
      "version": 3,
      "changeset": 67098358,
      "user": "StefanB",
      "uid": 3834,
      "tags": {
        "is_in": "Slovenia, Europe",
        "name": "Kuželič",
        "place": "hamlet",
        "source": "landsat",
        "wikidata": "Q23309216",
        "wikipedia:sl": "Kuželič"
      }
    },
    {
      "type": "node",
      "id": 876365088,
      "lat": 45.4775476,
      "lon": 14.8097964,
      "timestamp": "2019-02-11T12:17:59Z",
      "version": 4,
      "changeset": 67098358,
      "user": "StefanB",
      "uid": 3834,
      "tags": {
        "is_in": "Slovenia, Europe",
        "name": "Kuželj",
        "place": "village",
        "population": "50",
        "source": "landsat",
        "source:population": "http://www.stat.si/KrajevnaImena/",
        "wikidata": "Q2722774",
        "wikipedia:sl": "Kuželj"
      }
    },
    {
      "type": "node",
      "id": 907221944,
      "lat": 45.3819837,
      "lon": 14.9363611,
      "timestamp": "2015-01-18T18:38:17Z",
      "version": 2,
      "changeset": 28237344,
      "user": "Janjko",
      "uid": 244754,
      "tags": {
        "name": "Marché",
        "shop": "supermarket"
      }
    },
    {
      "type": "node",
      "id": 928645127,
      "lat": 45.5179983,
      "lon": 15.3259333,
      "timestamp": "2021-07-23T16:49:38Z",
      "version": 2,
      "changeset": 108504588,
      "user": "Joško Horvat",
      "uid": 2146151,
      "tags": {
        "internet_access": "no",
        "name": "Avtokamp Jankovič",
        "stars": "0",
        "tourism": "camp_site"
      }
    },
    {
      "type": "node",
      "id": 931522109,
      "lat": 45.4120999,
      "lon": 15.2882998,
      "timestamp": "2021-02-02T14:57:16Z",
      "version": 6,
      "changeset": 98585682,
      "user": "Badojo",
      "uid": 8189075,
      "tags": {
        "name": "Bosiljevo",
        "place": "village",
        "population": "63",
        "population:date": "2011-03-31",
        "source:population": "DZS 2011",
        "wikidata": "Q1070458",
        "wikipedia": "hr:Bosiljevo"
      }
    },
    {
      "type": "node",
      "id": 945797366,
      "lat": 45.3224952,
      "lon": 14.8192229,
      "timestamp": "2019-03-08T16:23:31Z",
      "version": 7,
      "changeset": 67929257,
      "user": "Ramying",
      "uid": 668137,
      "tags": {
        "name": "Sunger",
        "name:it": "Sungari",
        "place": "village",
        "population": "326",
        "population:date": "2011-03-31",
        "source:population": "DZS 2011"
      }
    },
    {
      "type": "node",
      "id": 945893228,
      "lat": 45.3221258,
      "lon": 14.7954251,
      "timestamp": "2017-12-03T18:55:29Z",
      "version": 4,
      "changeset": 54305888,
      "user": "antal",
      "uid": 98294,
      "tags": {
        "name": "Brestova Draga",
        "place": "village",
        "population": "53",
        "population:date": "2011-03-31",
        "source:population": "DZS 2011"
      }
    },
    {
      "type": "node",
      "id": 945909814,
      "lat": 45.3048699,
      "lon": 14.9056859,
      "timestamp": "2017-12-03T18:55:29Z",
      "version": 8,
      "changeset": 54305888,
      "user": "antal",
      "uid": 98294,
      "tags": {
        "ele": "1060",
        "is_in": "Mrkopalj, Primorsko-goranska. Croatia",
        "name": "Begovo Razdolje",
        "place": "village",
        "population": "48",
        "population:date": "2011-03-31",
        "source:population": "DZS 2011",
        "wikidata": "Q3511509",
        "wikipedia": "hr:Begovo Razdolje"
      }
    },
    {
      "type": "node",
      "id": 954776146,
      "lat": 45.560784,
      "lon": 15.1692291,
      "timestamp": "2021-07-25T06:54:20Z",
      "version": 7,
      "changeset": 108553994,
      "user": "Joško Horvat",
      "uid": 2146151,
      "tags": {
        "ele": "152.8",
        "name": "Kanižarica",
        "place": "village",
        "population": "590",
        "wikidata": "Q1855713",
        "wikipedia:sl": "Kanižarica"
      }
    },
    {
      "type": "node",
      "id": 954776147,
      "lat": 45.5586842,
      "lon": 15.144002,
      "timestamp": "2019-02-11T13:09:57Z",
      "version": 6,
      "changeset": 67099869,
      "user": "StefanB",
      "uid": 3834,
      "tags": {
        "name": "Dobliče",
        "name:ru": "Добличе",
        "place": "village",
        "wikidata": "Q2798574",
        "wikipedia:sl": "Dobliče"
      }
    },
    {
      "type": "node",
      "id": 1162562656,
      "lat": 45.4788442,
      "lon": 15.4476472,
      "timestamp": "2020-12-19T22:35:58Z",
      "version": 4,
      "changeset": 96123906,
      "user": "kdkeller",
      "uid": 43207,
      "tags": {
        "name": "Novigrad na Dobri",
        "place": "village",
        "population": "85",
        "population:date": "2011-03-31",
        "source:population": "DZS 2011",
        "wikidata": "Q782267"
      }
    },
    {
      "type": "node",
      "id": 1162564196,
      "lat": 45.4566512,
      "lon": 15.4119557,
      "timestamp": "2020-12-19T22:35:53Z",
      "version": 4,
      "changeset": 96123906,
      "user": "kdkeller",
      "uid": 43207,
      "tags": {
        "name": "Jarče Polje",
        "place": "village",
        "population": "127",
        "population:date": "2011-03-31",
        "source:population": "DZS 2011",
        "wikidata": "Q590423"
      }
    },
    {
      "type": "node",
      "id": 1226923773,
      "lat": 45.2416465,
      "lon": 15.1488163,
      "timestamp": "2011-03-31T17:36:14Z",
      "version": 1,
      "changeset": 7728116,
      "user": "Janjko",
      "uid": 244754,
      "tags": {
        "ele": "620",
        "name": "Bjelsko",
        "place": "hamlet"
      }
    },
    {
      "type": "node",
      "id": 1226969223,
      "lat": 45.1071384,
      "lon": 14.9053358,
      "timestamp": "2021-02-23T09:35:07Z",
      "version": 3,
      "changeset": 99811230,
      "user": "Arisuaq",
      "uid": 8660990,
      "tags": {
        "name": "Luka Krmpotska",
        "place": "village",
        "population": "2",
        "population:date": "2011-03-31",
        "source:population": "DZS 2011"
      }
    },
    {
      "type": "node",
      "id": 1305293401,
      "lat": 45.4098586,
      "lon": 15.3910053,
      "timestamp": "2017-12-03T18:56:23Z",
      "version": 4,
      "changeset": 54305888,
      "user": "antal",
      "uid": 98294,
      "tags": {
        "name": "Protulipa",
        "place": "village",
        "population": "51",
        "population:date": "2011-03-31",
        "source:population": "DZS 2011"
      }
    },
    {
      "type": "node",
      "id": 1305293410,
      "lat": 45.4494413,
      "lon": 15.41629,
      "timestamp": "2011-05-29T22:42:59Z",
      "version": 1,
      "changeset": 8286963,
      "user": "Janjko",
      "uid": 244754,
      "tags": {
        "name": "Ivana",
        "shop": "convenience"
      }
    },
    {
      "type": "node",
      "id": 1305293411,
      "lat": 45.4206216,
      "lon": 15.4038081,
      "timestamp": "2017-12-03T20:10:24Z",
      "version": 4,
      "changeset": 54308156,
      "user": "antal",
      "uid": 98294,
      "tags": {
        "name": "Gradišće",
        "place": "village",
        "population": "53",
        "population:date": "2011-03-31",
        "source:population": "DZS 2011"
      }
    },
    {
      "type": "node",
      "id": 1305293412,
      "lat": 45.4363847,
      "lon": 15.4094855,
      "timestamp": "2017-12-03T18:56:23Z",
      "version": 5,
      "changeset": 54305888,
      "user": "antal",
      "uid": 98294,
      "tags": {
        "name": "Mračin",
        "place": "village",
        "population": "263",
        "population:date": "2011-03-31",
        "source:population": "DZS 2011"
      }
    },
    {
      "type": "node",
      "id": 1305293418,
      "lat": 45.407146,
      "lon": 15.3941562,
      "timestamp": "2017-12-03T20:10:24Z",
      "version": 4,
      "changeset": 54308156,
      "user": "antal",
      "uid": 98294,
      "tags": {
        "addr:postcode": "47261",
        "name": "Lipa",
        "place": "village",
        "population": "39",
        "population:date": "2011-03-31",
        "source:population": "DZS 2011"
      }
    },
    {
      "type": "node",
      "id": 1305301700,
      "lat": 45.453639,
      "lon": 15.4436946,
      "timestamp": "2020-12-19T22:36:02Z",
      "version": 4,
      "changeset": 96123906,
      "user": "kdkeller",
      "uid": 43207,
      "tags": {
        "name": "Dubravci",
        "place": "village",
        "population": "161",
        "population:date": "2011-03-31",
        "source:population": "DZS 2011",
        "wikidata": "Q851329"
      }
    },
    {
      "type": "node",
      "id": 1305320135,
      "lat": 45.4598786,
      "lon": 15.4644319,
      "timestamp": "2017-12-03T18:56:23Z",
      "version": 4,
      "changeset": 54305888,
      "user": "antal",
      "uid": 98294,
      "tags": {
        "name": "Lišnica",
        "place": "village",
        "population": "183",
        "population:date": "2011-03-31",
        "source:population": "DZS 2011"
      }
    },
    {
      "type": "node",
      "id": 1305320136,
      "lat": 45.4059513,
      "lon": 15.4467953,
      "timestamp": "2017-12-03T18:56:23Z",
      "version": 4,
      "changeset": 54305888,
      "user": "antal",
      "uid": 98294,
      "tags": {
        "name": "Donji Zvečaj",
        "place": "village",
        "population": "165",
        "population:date": "2011-03-31",
        "source:population": "DZS 2011"
      }
    },
    {
      "type": "node",
      "id": 1305320139,
      "lat": 45.3954154,
      "lon": 15.4310123,
      "timestamp": "2017-12-03T18:56:24Z",
      "version": 4,
      "changeset": 54305888,
      "user": "antal",
      "uid": 98294,
      "tags": {
        "name": "Zvečaj",
        "place": "village",
        "population": "203",
        "population:date": "2011-03-31",
        "source:population": "DZS 2011"
      }
    },
    {
      "type": "node",
      "id": 1305326265,
      "lat": 45.3996111,
      "lon": 15.3972261,
      "timestamp": "2017-12-03T18:56:24Z",
      "version": 4,
      "changeset": 54305888,
      "user": "antal",
      "uid": 98294,
      "tags": {
        "name": "Trnovo",
        "place": "village",
        "population": "13",
        "population:date": "2011-03-31",
        "source:population": "DZS 2011"
      }
    },
    {
      "type": "node",
      "id": 1305330148,
      "lat": 45.4148396,
      "lon": 15.4544682,
      "timestamp": "2017-12-03T18:56:24Z",
      "version": 4,
      "changeset": 54305888,
      "user": "antal",
      "uid": 98294,
      "tags": {
        "name": "Venac Mrežnički",
        "place": "village",
        "population": "131",
        "population:date": "2011-03-31",
        "source:population": "DZS 2011"
      }
    },
    {
      "type": "node",
      "id": 1362170808,
      "lat": 45.5109215,
      "lon": 14.9643218,
      "timestamp": "2011-07-14T21:30:09Z",
      "version": 1,
      "changeset": 8726446,
      "user": "mihau",
      "uid": 12967,
      "tags": {
        "addr:city": "Stari trg ob Kolpi",
        "addr:country": "SI",
        "addr:housenumber": "6",
        "addr:postcode": "8342",
        "addr:street": "Spodnja Bilpa",
        "email": "info@apartmaji-bilpa.si",
        "name": "Bilpa",
        "phone": "+386 1 8958000",
        "tourism": "camp_site",
        "website": "http://users.volja.net/jaka5/sotori.htm"
      }
    },
    {
      "type": "node",
      "id": 1362170810,
      "lat": 45.5129,
      "lon": 14.9622663,
      "timestamp": "2012-07-04T23:33:08Z",
      "version": 3,
      "changeset": 12115882,
      "user": "lesko987",
      "uid": 398086,
      "tags": {
        "name": "Izvir Bilpa",
        "natural": "cave_entrance"
      }
    },
    {
      "type": "node",
      "id": 1376157300,
      "lat": 45.4120484,
      "lon": 15.2979585,
      "timestamp": "2017-12-03T18:56:36Z",
      "version": 3,
      "changeset": 54305888,
      "user": "antal",
      "uid": 98294,
      "tags": {
        "name": "Bitorajci",
        "place": "village",
        "population": "16",
        "population:date": "2011-03-31",
        "source:population": "DZS 2011"
      }
    },
    {
      "type": "node",
      "id": 1376157304,
      "lat": 45.412557,
      "lon": 15.2942254,
      "timestamp": "2017-12-03T18:56:36Z",
      "version": 4,
      "changeset": 54305888,
      "user": "antal",
      "uid": 98294,
      "tags": {
        "name": "Fučkovac",
        "place": "village",
        "population": "23",
        "population:date": "2011-03-31",
        "source:population": "DZS 2011"
      }
    },
    {
      "type": "node",
      "id": 1376157307,
      "lat": 45.352563,
      "lon": 15.2884581,
      "timestamp": "2019-08-12T16:26:06Z",
      "version": 5,
      "changeset": 73275963,
      "user": "PavelPS",
      "uid": 25561,
      "tags": {
        "name": "Grabrk",
        "place": "village",
        "population": "117",
        "population:date": "2011-03-31",
        "source:population": "DZS 2011",
        "wikidata": "Q828993"
      }
    },
    {
      "type": "node",
      "id": 1376157312,
      "lat": 45.4054319,
      "lon": 15.2889349,
      "timestamp": "2020-12-19T22:35:51Z",
      "version": 4,
      "changeset": 96123906,
      "user": "kdkeller",
      "uid": 43207,
      "tags": {
        "name": "Orišje",
        "place": "village",
        "population": "50",
        "population:date": "2011-03-31",
        "source:population": "DZS 2011",
        "wikidata": "Q542380"
      }
    },
    {
      "type": "node",
      "id": 1376157314,
      "lat": 45.3972963,
      "lon": 15.2878577,
      "timestamp": "2017-12-10T16:20:12Z",
      "version": 3,
      "changeset": 54515079,
      "user": "Vedran V",
      "uid": 158601,
      "tags": {
        "name": "Podrebar",
        "place": "village",
        "population": "18",
        "population:date": "2011-03-31",
        "source:population": "DZS 2011"
      }
    },
    {
      "type": "node",
      "id": 1376157316,
      "lat": 45.4149276,
      "lon": 15.3004044,
      "timestamp": "2017-12-03T18:56:37Z",
      "version": 3,
      "changeset": 54305888,
      "user": "antal",
      "uid": 98294,
      "tags": {
        "name": "Skoblić Brdo",
        "place": "village",
        "population": "2",
        "population:date": "2011-03-31",
        "source:population": "DZS 2011"
      }
    },
    {
      "type": "node",
      "id": 1376157321,
      "lat": 45.3254372,
      "lon": 15.2744572,
      "timestamp": "2020-12-19T19:36:56Z",
      "version": 4,
      "changeset": 96120013,
      "user": "Vedran V",
      "uid": 158601,
      "tags": {
        "name": "Trošmarija",
        "place": "village",
        "population": "127",
        "population:date": "2011-03-31",
        "source:population": "DZS 2011"
      }
    },
    {
      "type": "node",
      "id": 1376157325,
      "lat": 45.4193465,
      "lon": 15.3198557,
      "timestamp": "2017-12-03T18:56:37Z",
      "version": 3,
      "changeset": 54305888,
      "user": "antal",
      "uid": 98294,
      "tags": {
        "name": "Vrhova Gorica",
        "place": "village",
        "population": "8",
        "population:date": "2011-03-31",
        "source:population": "DZS 2011"
      }
    },
    {
      "type": "node",
      "id": 1376196853,
      "lat": 45.2707495,
      "lon": 15.3173066,
      "timestamp": "2020-12-19T22:36:32Z",
      "version": 4,
      "changeset": 96123906,
      "user": "kdkeller",
      "uid": 43207,
      "tags": {
        "name": "Gerovo Tounjsko",
        "place": "village",
        "population": "55",
        "population:date": "2011-03-31",
        "source:population": "DZS 2011",
        "wikidata": "Q1582538"
      }
    },
    {
      "type": "node",
      "id": 1376349911,
      "lat": 45.2505274,
      "lon": 15.3232063,
      "timestamp": "2019-11-04T07:02:46Z",
      "version": 5,
      "changeset": 76572073,
      "user": "PavelPS",
      "uid": 25561,
      "tags": {
        "name": "Tounj",
        "place": "village",
        "population": "346",
        "population:date": "2011-03-31",
        "source:population": "DZS 2011",
        "wikidata": "Q1284376"
      }
    },
    {
      "type": "node",
      "id": 1379763400,
      "lat": 45.4332541,
      "lon": 14.9059561,
      "timestamp": "2020-01-06T07:01:38Z",
      "version": 4,
      "changeset": 79235135,
      "user": "PavelPS",
      "uid": 25561,
      "tags": {
        "name": "Skrad",
        "place": "village",
        "population": "694",
        "population:date": "2011-03-31",
        "source:population": "DZS 2011",
        "wikidata": "Q1184846"
      }
    },
    {
      "type": "node",
      "id": 1379943917,
      "lat": 45.394476,
      "lon": 14.7999473,
      "timestamp": "2013-03-01T22:13:15Z",
      "version": 2,
      "changeset": 15215524,
      "user": "Janjko",
      "uid": 244754,
      "tags": {
        "addr:city": "Delnice",
        "addr:housenumber": "20",
        "addr:street": "Supilova",
        "name": "Konzum",
        "ref:vatin": "HR29955634590",
        "shop": "supermarket"
      }
    },
    {
      "type": "node",
      "id": 1390253808,
      "lat": 45.4622762,
      "lon": 14.8532321,
      "timestamp": "2017-12-03T18:56:41Z",
      "version": 9,
      "changeset": 54305888,
      "user": "antal",
      "uid": 98294,
      "tags": {
        "name": "Brod na Kupi",
        "name:ru": "Брод",
        "place": "village",
        "population": "207",
        "population:date": "2011-03-31",
        "source:population": "DZS 2011",
        "wikidata": "Q924149",
        "wikipedia": "en:Brod na Kupi"
      }
    },
    {
      "type": "node",
      "id": 1390253809,
      "lat": 45.4333414,
      "lon": 14.8472858,
      "timestamp": "2017-12-03T18:56:42Z",
      "version": 3,
      "changeset": 54305888,
      "user": "antal",
      "uid": 98294,
      "tags": {
        "name": "Donje Tihovo",
        "place": "village",
        "population": "5",
        "population:date": "2011-03-31",
        "source:population": "DZS 2011"
      }
    },
    {
      "type": "node",
      "id": 1390253810,
      "lat": 45.5062083,
      "lon": 14.7825874,
      "timestamp": "2017-12-03T18:56:42Z",
      "version": 3,
      "changeset": 54305888,
      "user": "antal",
      "uid": 98294,
      "tags": {
        "name": "Gašparci",
        "place": "village",
        "population": "15",
        "population:date": "2011-03-31",
        "source:population": "DZS 2011"
      }
    },
    {
      "type": "node",
      "id": 1390253811,
      "lat": 45.4293749,
      "lon": 14.8389264,
      "timestamp": "2017-12-03T18:56:42Z",
      "version": 3,
      "changeset": 54305888,
      "user": "antal",
      "uid": 98294,
      "tags": {
        "name": "Gornje Tihovo",
        "place": "village",
        "population": "6",
        "population:date": "2011-03-31",
        "source:population": "DZS 2011"
      }
    },
    {
      "type": "node",
      "id": 1390253812,
      "lat": 45.4664311,
      "lon": 14.8117411,
      "timestamp": "2017-12-03T18:56:42Z",
      "version": 4,
      "changeset": 54305888,
      "user": "antal",
      "uid": 98294,
      "tags": {
        "name": "Grbajel",
        "place": "village",
        "population": "17",
        "population:date": "2011-03-31",
        "source:population": "DZS 2011"
      }
    },
    {
      "type": "node",
      "id": 1390253813,
      "lat": 45.4599676,
      "lon": 14.8334017,
      "timestamp": "2017-12-03T18:56:42Z",
      "version": 3,
      "changeset": 54305888,
      "user": "antal",
      "uid": 98294,
      "tags": {
        "name": "Gusti Laz",
        "place": "village",
        "population": "4",
        "population:date": "2011-03-31",
        "source:population": "DZS 2011"
      }
    },
    {
      "type": "node",
      "id": 1390253814,
      "lat": 45.4639779,
      "lon": 14.81358,
      "timestamp": "2017-12-03T18:56:42Z",
      "version": 4,
      "changeset": 54305888,
      "user": "antal",
      "uid": 98294,
      "tags": {
        "name": "Guče Selo",
        "place": "village",
        "population": "27",
        "population:date": "2011-03-31",
        "source:population": "DZS 2011"
      }
    },
    {
      "type": "node",
      "id": 1390253815,
      "lat": 45.4740933,
      "lon": 14.8065718,
      "timestamp": "2017-12-03T18:56:42Z",
      "version": 4,
      "changeset": 54305888,
      "user": "antal",
      "uid": 98294,
      "tags": {
        "name": "Kuželj",
        "place": "village",
        "population": "52",
        "population:date": "2011-03-31",
        "source:population": "DZS 2011"
      }
    },
    {
      "type": "node",
      "id": 1390253816,
      "lat": 45.4395377,
      "lon": 14.8505542,
      "timestamp": "2017-12-03T18:56:42Z",
      "version": 4,
      "changeset": 54305888,
      "user": "antal",
      "uid": 98294,
      "tags": {
        "name": "Mala Lešnica",
        "place": "village",
        "population": "8",
        "population:date": "2011-03-31",
        "source:population": "DZS 2011"
      }
    },
    {
      "type": "node",
      "id": 1390253817,
      "lat": 45.4171908,
      "lon": 14.8212046,
      "timestamp": "2020-12-19T14:25:54Z",
      "version": 4,
      "changeset": 96110337,
      "user": "kdkeller",
      "uid": 43207,
      "tags": {
        "name": "Marija Trošt",
        "place": "village",
        "population": "46",
        "population:date": "2011-03-31",
        "source:population": "DZS 2011",
        "wikidata": "Q3293050"
      }
    },
    {
      "type": "node",
      "id": 1390275408,
      "lat": 45.4634059,
      "lon": 14.9715486,
      "timestamp": "2019-12-16T13:12:19Z",
      "version": 7,
      "changeset": 78475336,
      "user": "PavelPS",
      "uid": 25561,
      "tags": {
        "name": "Brod Moravice",
        "place": "village",
        "population": "358",
        "population:date": "2011-03-31",
        "source:population": "DZS 2011",
        "wikidata": "Q924110"
      }
    },
    {
      "type": "node",
      "id": 1390275413,
      "lat": 45.4668483,
      "lon": 14.9508896,
      "timestamp": "2017-12-03T18:56:42Z",
      "version": 4,
      "changeset": 54305888,
      "user": "antal",
      "uid": 98294,
      "tags": {
        "name": "Lokvica",
        "place": "village",
        "population": "38",
        "population:date": "2011-03-31",
        "source:population": "DZS 2011"
      }
    },
    {
      "type": "node",
      "id": 1390275421,
      "lat": 45.4711936,
      "lon": 14.9320635,
      "timestamp": "2017-12-03T18:56:43Z",
      "version": 4,
      "changeset": 54305888,
      "user": "antal",
      "uid": 98294,
      "tags": {
        "name": "Zahrt",
        "place": "village",
        "population": "5",
        "population:date": "2011-03-31",
        "source:population": "DZS 2011"
      }
    },
    {
      "type": "node",
      "id": 1390275432,
      "lat": 45.4756617,
      "lon": 14.9068657,
      "timestamp": "2017-12-03T18:56:43Z",
      "version": 3,
      "changeset": 54305888,
      "user": "antal",
      "uid": 98294,
      "tags": {
        "name": "Čedanj",
        "place": "village",
        "population": "9",
        "population:date": "2011-03-31",
        "source:population": "DZS 2011"
      }
    },
    {
      "type": "node",
      "id": 1390275435,
      "lat": 45.4678528,
      "lon": 14.9421938,
      "timestamp": "2017-12-03T18:56:43Z",
      "version": 5,
      "changeset": 54305888,
      "user": "antal",
      "uid": 98294,
      "tags": {
        "name": "Čučak",
        "place": "village",
        "population": "10",
        "population:date": "2011-03-31",
        "source:population": "DZS 2011"
      }
    },
    {
      "type": "node",
      "id": 1390277587,
      "lat": 45.4735159,
      "lon": 14.892783,
      "timestamp": "2017-12-03T18:56:43Z",
      "version": 4,
      "changeset": 54305888,
      "user": "antal",
      "uid": 98294,
      "tags": {
        "name": "Belo",
        "place": "village",
        "population": "9",
        "population:date": "2011-03-31",
        "source:population": "DZS 2011"
      }
    },
    {
      "type": "node",
      "id": 1390277588,
      "lat": 45.4662541,
      "lon": 14.8756757,
      "timestamp": "2017-12-03T18:56:43Z",
      "version": 4,
      "changeset": 54305888,
      "user": "antal",
      "uid": 98294,
      "tags": {
        "name": "Golik",
        "place": "village",
        "population": "16",
        "population:date": "2011-03-31",
        "source:population": "DZS 2011"
      }
    },
    {
      "type": "node",
      "id": 1390277589,
      "lat": 45.4628991,
      "lon": 14.8598293,
      "timestamp": "2020-06-01T11:06:35Z",
      "version": 3,
      "changeset": 86043276,
      "user": "CroKimba",
      "uid": 354984,
      "tags": {
        "name": "Zamost Brodski",
        "place": "village"
      }
    },
    {
      "type": "node",
      "id": 1390284193,
      "lat": 45.4384512,
      "lon": 15.0083836,
      "timestamp": "2017-12-03T20:51:32Z",
      "version": 4,
      "changeset": 54309279,
      "user": "antal",
      "uid": 98294,
      "tags": {
        "name": "Bunjevci",
        "place": "hamlet",
        "population": "35",
        "population:date": "2011-03-31",
        "source:population": "DZS 2011"
      }
    },
    {
      "type": "node",
      "id": 1390284194,
      "lat": 45.4261324,
      "lon": 15.0264669,
      "timestamp": "2017-12-03T20:51:32Z",
      "version": 4,
      "changeset": 54309279,
      "user": "antal",
      "uid": 98294,
      "tags": {
        "name": "Dokmanovići",
        "place": "hamlet",
        "population": "54",
        "population:date": "2011-03-31",
        "source:population": "DZS 2011"
      }
    },
    {
      "type": "node",
      "id": 1390284195,
      "lat": 45.3935304,
      "lon": 15.0817254,
      "timestamp": "2020-12-19T14:25:52Z",
      "version": 5,
      "changeset": 96110337,
      "user": "kdkeller",
      "uid": 43207,
      "tags": {
        "name": "Hajdine",
        "place": "village",
        "population": "80",
        "population:date": "2011-03-31",
        "source:population": "DZS 2011",
        "wikidata": "Q3125797"
      }
    },
    {
      "type": "node",
      "id": 1390284196,
      "lat": 45.4289399,
      "lon": 15.0225635,
      "timestamp": "2017-12-03T20:51:32Z",
      "version": 3,
      "changeset": 54309279,
      "user": "antal",
      "uid": 98294,
      "tags": {
        "name": "Nikšići",
        "place": "hamlet",
        "population": "30",
        "population:date": "2011-03-31",
        "source:population": "DZS 2011"
      }
    },
    {
      "type": "node",
      "id": 1390284197,
      "lat": 45.3999438,
      "lon": 15.0770802,
      "timestamp": "2020-12-19T14:25:54Z",
      "version": 3,
      "changeset": 96110337,
      "user": "kdkeller",
      "uid": 43207,
      "tags": {
        "name": "Presika",
        "place": "village",
        "population": "14",
        "population:date": "2011-03-31",
        "source:population": "DZS 2011",
        "wikidata": "Q3402431"
      }
    },
    {
      "type": "node",
      "id": 1390284198,
      "lat": 45.3801295,
      "lon": 15.096166,
      "timestamp": "2017-12-03T18:56:43Z",
      "version": 3,
      "changeset": 54305888,
      "user": "antal",
      "uid": 98294,
      "tags": {
        "name": "Stubica",
        "place": "village",
        "population": "53",
        "population:date": "2011-03-31",
        "source:population": "DZS 2011"
      }
    },
    {
      "type": "node",
      "id": 1390284199,
      "lat": 45.4442373,
      "lon": 15.0014916,
      "timestamp": "2017-12-03T20:12:05Z",
      "version": 3,
      "changeset": 54308194,
      "user": "antal",
      "uid": 98294,
      "tags": {
        "name": "Tomići",
        "place": "village",
        "population": "13",
        "population:date": "2011-03-31",
        "source:population": "DZS 2011"
      }
    },
    {
      "type": "node",
      "id": 1397749511,
      "lat": 45.373293,
      "lon": 15.4104768,
      "timestamp": "2017-12-03T18:56:49Z",
      "version": 3,
      "changeset": 54305888,
      "user": "antal",
      "uid": 98294,
      "tags": {
        "name": "Gornji Zvečaj",
        "place": "village",
        "population": "187",
        "population:date": "2011-03-31",
        "source:population": "DZS 2011"
      }
    },
    {
      "type": "node",
      "id": 1397767551,
      "lat": 45.3448069,
      "lon": 15.3889517,
      "timestamp": "2014-04-13T19:54:26Z",
      "version": 2,
      "changeset": 21672982,
      "user": "skrtaca",
      "uid": 776457,
      "tags": {
        "name": "Dobrenići",
        "place": "village",
        "population": "308"
      }
    },
    {
      "type": "node",
      "id": 1397767552,
      "lat": 45.3284811,
      "lon": 15.4274723,
      "timestamp": "2011-08-13T22:29:58Z",
      "version": 1,
      "changeset": 9010484,
      "user": "Janjko",
      "uid": 244754,
      "tags": {
        "name": "Mateško selo",
        "place": "village"
      }
    },
    {
      "type": "node",
      "id": 1397782209,
      "lat": 45.2940939,
      "lon": 15.4653193,
      "timestamp": "2020-12-19T22:35:50Z",
      "version": 4,
      "changeset": 96123906,
      "user": "kdkeller",
      "uid": 43207,
      "tags": {
        "name": "Perjasica",
        "place": "village",
        "population": "17",
        "population:date": "2011-03-31",
        "source:population": "DZS 2011",
        "wikidata": "Q40311"
      }
    },
    {
      "type": "node",
      "id": 1400024383,
      "lat": 45.1888553,
      "lon": 15.2847736,
      "timestamp": "2020-06-30T17:43:11Z",
      "version": 7,
      "changeset": 87360715,
      "user": "Cro_Guy",
      "uid": 11353493,
      "tags": {
        "name": "Josipdol",
        "place": "village",
        "population": "879",
        "population:date": "2011-03-31",
        "source": "interpolated from city_limit, Bing",
        "source:population": "DZS 2011",
        "wikidata": "Q1173323"
      }
    },
    {
      "type": "node",
      "id": 1400024393,
      "lat": 45.1154321,
      "lon": 15.3666841,
      "timestamp": "2017-12-03T18:56:50Z",
      "version": 3,
      "changeset": 54305888,
      "user": "antal",
      "uid": 98294,
      "tags": {
        "name": "Latin",
        "place": "village",
        "population": "196",
        "population:date": "2011-03-31",
        "source": "interpolated from city_limit, Bing",
        "source:population": "DZS 2011"
      }
    },
    {
      "type": "node",
      "id": 1400024400,
      "lat": 45.2255051,
      "lon": 15.2762008,
      "timestamp": "2021-07-04T07:12:03Z",
      "version": 6,
      "changeset": 107377786,
      "user": "Vedran V",
      "uid": 158601,
      "tags": {
        "name": "Oštarije",
        "place": "village",
        "population": "1444",
        "population:date": "2011-03-31",
        "source": "interpolated from city_limit, Bing",
        "source:population": "DZS 2011",
        "wikidata": "Q2118642"
      }
    },
    {
      "type": "node",
      "id": 1400024402,
      "lat": 45.239605,
      "lon": 15.2523028,
      "timestamp": "2017-12-03T18:56:51Z",
      "version": 4,
      "changeset": 54305888,
      "user": "antal",
      "uid": 98294,
      "tags": {
        "name": "Otok Oštarijski",
        "place": "village",
        "population": "381",
        "population:date": "2011-03-31",
        "source": "interpolated from city_limit",
        "source:population": "DZS 2011"
      }
    },
    {
      "type": "node",
      "id": 1400025474,
      "lat": 45.147094,
      "lon": 15.3348737,
      "timestamp": "2020-12-19T22:36:34Z",
      "version": 4,
      "changeset": 96123906,
      "user": "kdkeller",
      "uid": 43207,
      "tags": {
        "name": "Vojnovac",
        "place": "village",
        "population": "94",
        "population:date": "2011-03-31",
        "source": "interpolated from city_limit, Bing",
        "source:population": "DZS 2011",
        "wikidata": "Q2651109"
      }
    },
    {
      "type": "node",
      "id": 1401087606,
      "lat": 45.5011208,
      "lon": 15.4507477,
      "timestamp": "2011-08-16T14:22:51Z",
      "version": 1,
      "changeset": 9037467,
      "user": "Matija Nalis",
      "uid": 52552,
      "tags": {
        "name": "Brajak brdo",
        "place": "hamlet"
      }
    },
    {
      "type": "node",
      "id": 1416077276,
      "lat": 45.1249276,
      "lon": 15.3621444,
      "timestamp": "2021-02-16T18:02:19Z",
      "version": 2,
      "changeset": 99398800,
      "user": "Badojo",
      "uid": 8189075,
      "tags": {
        "name": "Pothum Plaščanski",
        "place": "village",
        "population": "77",
        "wikidata": "Q2170291",
        "wikipedia": "hr:Pothum Plaščanski"
      }
    },
    {
      "type": "node",
      "id": 1568177907,
      "lat": 45.4193333,
      "lon": 15.0054639,
      "timestamp": "2017-12-03T20:51:32Z",
      "version": 3,
      "changeset": 54309279,
      "user": "antal",
      "uid": 98294,
      "tags": {
        "name": "Carevići",
        "place": "hamlet",
        "population": "17",
        "population:date": "2011-03-31",
        "source:population": "DZS 2011"
      }
    },
    {
      "type": "node",
      "id": 1568177923,
      "lat": 45.4244452,
      "lon": 15.0013682,
      "timestamp": "2017-12-03T20:51:33Z",
      "version": 3,
      "changeset": 54309279,
      "user": "antal",
      "uid": 98294,
      "tags": {
        "name": "Donji Vučkovići",
        "place": "hamlet",
        "population": "17",
        "population:date": "2011-03-31",
        "source:population": "DZS 2011"
      }
    },
    {
      "type": "node",
      "id": 1568177925,
      "lat": 45.4261041,
      "lon": 15.0084715,
      "timestamp": "2011-12-29T21:18:57Z",
      "version": 1,
      "changeset": 10239885,
      "user": "SilverSpace",
      "uid": 176920,
      "tags": {
        "name": "Gavranović Market",
        "opening_hours": "Mo-Sa 06:30-20:00; Su 07:00-14:00",
        "shop": "convenience"
      }
    },
    {
      "type": "node",
      "id": 1568177926,
      "lat": 45.4170325,
      "lon": 14.9990378,
      "timestamp": "2017-12-03T20:51:33Z",
      "version": 3,
      "changeset": 54309279,
      "user": "antal",
      "uid": 98294,
      "tags": {
        "name": "Matići",
        "place": "hamlet",
        "population": "13",
        "population:date": "2011-03-31",
        "source:population": "DZS 2011"
      }
    },
    {
      "type": "node",
      "id": 1568177928,
      "lat": 45.4262331,
      "lon": 15.009139,
      "timestamp": "2020-12-19T14:25:41Z",
      "version": 6,
      "changeset": 96110337,
      "user": "kdkeller",
      "uid": 43207,
      "tags": {
        "name": "Moravice",
        "place": "village",
        "population": "664",
        "population:date": "2011-03-31",
        "source:population": "DZS 2011",
        "wikidata": "Q387519"
      }
    },
    {
      "type": "node",
      "id": 1568177937,
      "lat": 45.4219213,
      "lon": 14.9932966,
      "timestamp": "2017-12-03T20:51:33Z",
      "version": 3,
      "changeset": 54309279,
      "user": "antal",
      "uid": 98294,
      "tags": {
        "name": "Petrovići",
        "place": "hamlet",
        "population": "15",
        "population:date": "2011-03-31",
        "source:population": "DZS 2011"
      }
    },
    {
      "type": "node",
      "id": 1568177946,
      "lat": 45.4137019,
      "lon": 14.9996134,
      "timestamp": "2017-07-03T19:42:49Z",
      "version": 2,
      "changeset": 50017810,
      "user": "idelac",
      "uid": 183676,
      "tags": {
        "name": "Vukšići",
        "place": "hamlet"
      }
    },
    {
      "type": "node",
      "id": 1568177954,
      "lat": 45.4180901,
      "lon": 15.0370124,
      "timestamp": "2017-12-03T20:51:33Z",
      "version": 3,
      "changeset": 54309279,
      "user": "antal",
      "uid": 98294,
      "tags": {
        "name": "Vučinići",
        "place": "hamlet",
        "population": "64",
        "population:date": "2011-03-31",
        "source:population": "DZS 2011"
      }
    },
    {
      "type": "node",
      "id": 1568180782,
      "lat": 45.4164757,
      "lon": 15.0236753,
      "timestamp": "2017-12-03T20:51:33Z",
      "version": 3,
      "changeset": 54309279,
      "user": "antal",
      "uid": 98294,
      "tags": {
        "name": "Žakule",
        "place": "hamlet",
        "population": "24",
        "population:date": "2011-03-31",
        "source:population": "DZS 2011"
      }
    },
    {
      "type": "node",
      "id": 1569032279,
      "lat": 45.093857,
      "lon": 15.211472,
      "timestamp": "2020-09-30T20:08:37Z",
      "version": 3,
      "changeset": 91787087,
      "user": "Vedran V",
      "uid": 158601,
      "tags": {
        "ele": "888",
        "mountain_pass": "yes",
        "name": "Kapela",
        "natural": "saddle"
      }
    },
    {
      "type": "node",
      "id": 1637754459,
      "lat": 45.4479991,
      "lon": 15.2600399,
      "timestamp": "2020-12-19T22:35:50Z",
      "version": 5,
      "changeset": 96123906,
      "user": "kdkeller",
      "uid": 43207,
      "tags": {
        "addr:postcode": "47251",
        "is_in": "Bosiljevo",
        "name": "Kasuni",
        "place": "village",
        "population": "58",
        "population:date": "2011-03-31",
        "source:population": "DZS 2011",
        "wikidata": "Q221724"
      }
    },
    {
      "type": "node",
      "id": 1637754463,
      "lat": 45.4511423,
      "lon": 15.2502303,
      "timestamp": "2020-12-19T22:35:57Z",
      "version": 5,
      "changeset": 96123906,
      "user": "kdkeller",
      "uid": 43207,
      "tags": {
        "addr:postcode": "47251",
        "is_in": "Bosiljevo",
        "name": "Pribanjci",
        "place": "village",
        "population": "126",
        "population:date": "2011-03-31",
        "source:population": "DZS 2011",
        "wikidata": "Q774878"
      }
    },
    {
      "type": "node",
      "id": 1639663549,
      "lat": 45.1367125,
      "lon": 14.8410058,
      "timestamp": "2017-12-03T18:57:55Z",
      "version": 7,
      "changeset": 54305888,
      "user": "antal",
      "uid": 98294,
      "tags": {
        "is_in:country": "Croatia",
        "is_in:country_code": "HR",
        "is_in:county": "Primorje-Gorski Kotar",
        "is_in:municipality": "Novi Vinodolski",
        "name": "Ledenice",
        "place": "village",
        "population": "173",
        "population:date": "2011-03-31",
        "source:population": "DZS 2011",
        "wikidata": "Q3228809",
        "wikipedia": "hr:Ledenice"
      }
    },
    {
      "type": "node",
      "id": 1639666024,
      "lat": 45.1366961,
      "lon": 14.8212434,
      "timestamp": "2017-12-03T18:57:56Z",
      "version": 7,
      "changeset": 54305888,
      "user": "antal",
      "uid": 98294,
      "tags": {
        "is_in:country": "Croatia",
        "is_in:country_code": "HR",
        "is_in:county": "Primorje-Gorski Kotar",
        "is_in:municipality": "Novi Vinodolski",
        "name": "Donji Zagon",
        "place": "village",
        "population": "145",
        "population:date": "2011-03-31",
        "source:population": "DZS 2011",
        "wikidata": "Q3036669",
        "wikipedia": "hr:Donji Zagon"
      }
    },
    {
      "type": "node",
      "id": 1639746959,
      "lat": 45.1505083,
      "lon": 14.8485826,
      "timestamp": "2017-12-03T18:57:56Z",
      "version": 6,
      "changeset": 54305888,
      "user": "antal",
      "uid": 98294,
      "tags": {
        "is_in:country": "Croatia",
        "is_in:country_code": "HR",
        "is_in:county": "Primorje-Gorski Kotar",
        "is_in:municipality": "Novi Vinodolski",
        "name": "Bater",
        "place": "village",
        "population": "111",
        "population:date": "2011-03-31",
        "source:population": "DZS 2011",
        "wikidata": "Q2891188",
        "wikipedia": "hr:Bater"
      }
    },
    {
      "type": "node",
      "id": 1735292469,
      "lat": 45.271694,
      "lon": 15.322465,
      "timestamp": "2012-07-29T15:19:54Z",
      "version": 2,
      "changeset": 12536249,
      "user": "idelac",
      "uid": 183676,
      "tags": {
        "name": "Globornica",
        "natural": "spring"
      }
    },
    {
      "type": "node",
      "id": 1780559042,
      "lat": 45.1027535,
      "lon": 14.8457182,
      "timestamp": "2019-03-01T12:13:20Z",
      "version": 6,
      "changeset": 67683770,
      "user": "Ramying",
      "uid": 668137,
      "tags": {
        "is_in:country": "Croatia",
        "is_in:country_code": "HR",
        "is_in:county": "Primorje-Gorski Kotar",
        "is_in:municipality": "Novi Vinodolski",
        "name": "Klenovica",
        "name:it": "Callagno",
        "place": "village",
        "population": "307",
        "population:date": "2011-03-31",
        "source:population": "DZS 2011",
        "wikidata": "Q1005196",
        "wikipedia": "en:Klenovica"
      }
    },
    {
      "type": "node",
      "id": 1821425501,
      "lat": 45.5782273,
      "lon": 15.3472575,
      "timestamp": "2019-11-04T07:01:50Z",
      "version": 5,
      "changeset": 76572038,
      "user": "PavelPS",
      "uid": 25561,
      "tags": {
        "name": "Ribnik",
        "place": "village",
        "population": "113",
        "population:date": "2011-03-31",
        "source:population": "DZS 2011",
        "wikidata": "Q943551"
      }
    },
    {
      "type": "node",
      "id": 1821425580,
      "lat": 45.4494172,
      "lon": 15.339268,
      "timestamp": "2020-01-02T10:13:27Z",
      "version": 4,
      "changeset": 79107721,
      "user": "PavelPS",
      "uid": 25561,
      "tags": {
        "name": "Vukova Gorica",
        "place": "village",
        "population": "52",
        "population:date": "2011-03-31",
        "source:population": "DZS 2011",
        "wikidata": "Q850783"
      }
    },
    {
      "type": "node",
      "id": 1842742200,
      "lat": 45.3228492,
      "lon": 15.3937372,
      "timestamp": "2012-07-29T13:43:59Z",
      "version": 1,
      "changeset": 12535187,
      "user": "idelac",
      "uid": 183676,
      "tags": {
        "name": "Dobrenići",
        "place": "village"
      }
    },
    {
      "type": "node",
      "id": 1854800779,
      "lat": 45.4190176,
      "lon": 15.2875754,
      "timestamp": "2017-12-03T18:58:06Z",
      "version": 3,
      "changeset": 54305888,
      "user": "antal",
      "uid": 98294,
      "tags": {
        "name": "Resnik Bosiljevski",
        "place": "village",
        "population": "16",
        "population:date": "2011-03-31",
        "source:population": "DZS 2011"
      }
    },
    {
      "type": "node",
      "id": 1855346856,
      "lat": 45.1511303,
      "lon": 15.2133405,
      "timestamp": "2020-05-16T15:03:35Z",
      "version": 2,
      "changeset": 85307063,
      "user": "p-rendi",
      "uid": 787100,
      "tags": {
        "amenity": "drinking_water",
        "bottle": "yes",
        "designation": "Stubalj",
        "name": "Stubalj"
      }
    },
    {
      "type": "node",
      "id": 1855397488,
      "lat": 45.1599444,
      "lon": 15.2514972,
      "timestamp": "2021-07-12T12:04:55Z",
      "version": 6,
      "changeset": 107837958,
      "user": "p-rendi",
      "uid": 787100,
      "tags": {
        "name": "Lug",
        "place": "hamlet",
        "wikidata": "Q6699693"
      }
    },
    {
      "type": "node",
      "id": 1855403178,
      "lat": 45.147411,
      "lon": 15.2471792,
      "timestamp": "2019-11-25T14:38:25Z",
      "version": 5,
      "changeset": 77529307,
      "user": "PavelPS",
      "uid": 25561,
      "tags": {
        "name": "Modruš",
        "place": "village",
        "population": "169",
        "population:date": "2011-03-31",
        "source:population": "DZS 2011",
        "wikidata": "Q958041"
      }
    },
    {
      "type": "node",
      "id": 1855420838,
      "lat": 45.1514796,
      "lon": 15.2135459,
      "timestamp": "2012-08-07T10:39:15Z",
      "version": 1,
      "changeset": 12643716,
      "user": "p-rendi",
      "uid": 787100,
      "tags": {
        "name": "Stubalj",
        "place": "hamlet"
      }
    },
    {
      "type": "node",
      "id": 1855430457,
      "lat": 45.1911721,
      "lon": 15.2373462,
      "timestamp": "2021-02-16T18:02:19Z",
      "version": 4,
      "changeset": 99398800,
      "user": "Badojo",
      "uid": 8189075,
      "tags": {
        "name": "Puškarići",
        "place": "hamlet"
      }
    },
    {
      "type": "node",
      "id": 1936827995,
      "lat": 45.5133776,
      "lon": 14.9429809,
      "timestamp": "2017-12-03T20:51:34Z",
      "version": 4,
      "changeset": 54309279,
      "user": "antal",
      "uid": 98294,
      "tags": {
        "name": "Zavrh",
        "place": "hamlet",
        "population": "0",
        "population:date": "2011-03-31",
        "source": "U.S.",
        "source:population": "DZS 2011"
      }
    },
    {
      "type": "node",
      "id": 1936828000,
      "lat": 45.504319,
      "lon": 14.9422047,
      "timestamp": "2017-12-03T18:58:11Z",
      "version": 4,
      "changeset": 54305888,
      "user": "antal",
      "uid": 98294,
      "tags": {
        "name": "Šimatovo",
        "place": "village",
        "population": "3",
        "population:date": "2011-03-31",
        "source": "U.S",
        "source:population": "DZS 2011"
      }
    },
    {
      "type": "node",
      "id": 1936828002,
      "lat": 45.5118586,
      "lon": 14.9225946,
      "timestamp": "2017-12-03T20:51:34Z",
      "version": 4,
      "changeset": 54309279,
      "user": "antal",
      "uid": 98294,
      "tags": {
        "name": "Naglići",
        "place": "hamlet",
        "population": "0",
        "population:date": "2011-03-31",
        "source": "U.S",
        "source:population": "DZS 2011"
      }
    },
    {
      "type": "node",
      "id": 1936828003,
      "lat": 45.5206793,
      "lon": 14.9278037,
      "timestamp": "2017-12-03T20:51:34Z",
      "version": 3,
      "changeset": 54309279,
      "user": "antal",
      "uid": 98294,
      "tags": {
        "name": "Colnari",
        "place": "hamlet",
        "population": "2",
        "population:date": "2011-03-31",
        "source": "U.S",
        "source:population": "DZS 2011"
      }
    },
    {
      "type": "node",
      "id": 1937121440,
      "lat": 45.5008709,
      "lon": 14.9633498,
      "timestamp": "2017-12-03T20:51:34Z",
      "version": 2,
      "changeset": 54309279,
      "user": "antal",
      "uid": 98294,
      "tags": {
        "name": "Donji Šehovac",
        "place": "hamlet",
        "population": "1",
        "population:date": "2011-03-31",
        "source:population": "DZS 2011"
      }
    },
    {
      "type": "node",
      "id": 1937121443,
      "lat": 45.5030998,
      "lon": 14.9589682,
      "timestamp": "2017-12-03T20:51:34Z",
      "version": 2,
      "changeset": 54309279,
      "user": "antal",
      "uid": 98294,
      "tags": {
        "name": "Gornji Šehovac",
        "place": "hamlet",
        "population": "0",
        "population:date": "2011-03-31",
        "source:population": "DZS 2011"
      }
    },
    {
      "type": "node",
      "id": 1937121447,
      "lat": 45.5148764,
      "lon": 14.9243489,
      "timestamp": "2017-12-03T20:51:35Z",
      "version": 3,
      "changeset": 54309279,
      "user": "antal",
      "uid": 98294,
      "tags": {
        "name": "Dolenci",
        "place": "hamlet",
        "population": "10",
        "population:date": "2011-03-31",
        "source:population": "DZS 2011"
      }
    },
    {
      "type": "node",
      "id": 1941850087,
      "lat": 45.2303318,
      "lon": 15.3470098,
      "timestamp": "2020-12-19T22:36:32Z",
      "version": 4,
      "changeset": 96123906,
      "user": "kdkeller",
      "uid": 43207,
      "tags": {
        "name": "Kamenica Skradnička",
        "place": "village",
        "population": "266",
        "population:date": "2011-03-31",
        "source:population": "DZS 2011",
        "wikidata": "Q1582555"
      }
    },
    {
      "type": "node",
      "id": 1941850094,
      "lat": 45.2151258,
      "lon": 15.3860601,
      "timestamp": "2012-10-01T19:47:14Z",
      "version": 1,
      "changeset": 13326760,
      "user": "Girolamo",
      "uid": 908743,
      "tags": {
        "name": "Kamenica",
        "place": "village"
      }
    },
    {
      "type": "node",
      "id": 1946800676,
      "lat": 45.1270044,
      "lon": 14.7914067,
      "timestamp": "2019-07-25T11:32:43Z",
      "version": 9,
      "changeset": 72640267,
      "user": "Pedja",
      "uid": 500313,
      "tags": {
        "alt_name:it": "Novi di Vinodol",
        "is_in:country": "Croatia",
        "is_in:country_code": "HR",
        "is_in:county": "Primorje-Gorski Kotar",
        "name": "Novi Vinodolski",
        "name:it": "Novi",
        "name:lt": "Novi Vinodolskis",
        "name:ru": "Нови-Винодолски",
        "name:sr": "Нови Винодолски",
        "place": "town",
        "population": "4005",
        "population:date": "2011-03-31",
        "source:population": "DZS 2011",
        "website": "https://www.novi-vinodolski.hr/",
        "wikidata": "Q397927",
        "wikipedia": "en:Novi Vinodolski"
      }
    },
    {
      "type": "node",
      "id": 1958575528,
      "lat": 45.2119625,
      "lon": 15.2552585,
      "timestamp": "2018-10-22T21:22:47Z",
      "version": 2,
      "changeset": 63773584,
      "user": "Badojo",
      "uid": 8189075,
      "tags": {
        "name": "Manojlovići",
        "place": "hamlet"
      }
    },
    {
      "type": "node",
      "id": 1959497491,
      "lat": 45.3130188,
      "lon": 15.3989947,
      "timestamp": "2012-10-11T22:00:54Z",
      "version": 1,
      "changeset": 13460589,
      "user": "dkiselev",
      "uid": 230942,
      "tags": {
        "name": "Gaćeši",
        "place": "hamlet"
      }
    },
    {
      "type": "node",
      "id": 1994216007,
      "lat": 45.0903697,
      "lon": 15.4244201,
      "timestamp": "2019-01-17T18:38:10Z",
      "version": 2,
      "changeset": 66404678,
      "user": "Badojo",
      "uid": 8189075,
      "tags": {
        "name": "Mali Tuk",
        "place": "hamlet"
      }
    },
    {
      "type": "node",
      "id": 1994216008,
      "lat": 45.1094154,
      "lon": 15.3897127,
      "timestamp": "2012-11-02T18:42:27Z",
      "version": 1,
      "changeset": 13726094,
      "user": "Girolamo",
      "uid": 908743,
      "tags": {
        "name": "Medakovići",
        "place": "village"
      }
    },
    {
      "type": "node",
      "id": 1994216011,
      "lat": 45.093646,
      "lon": 15.4219547,
      "timestamp": "2019-01-17T18:38:10Z",
      "version": 2,
      "changeset": 66404678,
      "user": "Badojo",
      "uid": 8189075,
      "tags": {
        "name": "Naradžići",
        "place": "hamlet"
      }
    },
    {
      "type": "node",
      "id": 1994216025,
      "lat": 45.0928202,
      "lon": 15.4347151,
      "timestamp": "2019-01-17T18:38:10Z",
      "version": 3,
      "changeset": 66404678,
      "user": "Badojo",
      "uid": 8189075,
      "tags": {
        "name": "Veliki Tuk",
        "place": "hamlet"
      }
    },
    {
      "type": "node",
      "id": 1994229901,
      "lat": 45.2310644,
      "lon": 15.4360158,
      "timestamp": "2014-05-19T21:14:04Z",
      "version": 2,
      "changeset": 22433551,
      "user": "Janjko",
      "uid": 244754,
      "tags": {
        "name": "Glavaši",
        "place": "village"
      }
    },
    {
      "type": "node",
      "id": 1994229903,
      "lat": 45.2198469,
      "lon": 15.4186053,
      "timestamp": "2012-11-02T18:48:11Z",
      "version": 1,
      "changeset": 13726156,
      "user": "Girolamo",
      "uid": 908743,
      "tags": {
        "name": "Jelovci",
        "place": "village"
      }
    },
    {
      "type": "node",
      "id": 1994229904,
      "lat": 45.1996224,
      "lon": 15.4253777,
      "timestamp": "2015-03-29T14:18:00Z",
      "version": 2,
      "changeset": 29827310,
      "user": "bdiscoe",
      "uid": 402624,
      "tags": {
        "name": "Juzbašići",
        "place": "hamlet"
      }
    },
    {
      "type": "node",
      "id": 1994229906,
      "lat": 45.2255498,
      "lon": 15.434342,
      "timestamp": "2012-11-02T18:48:11Z",
      "version": 1,
      "changeset": 13726156,
      "user": "Girolamo",
      "uid": 908743,
      "tags": {
        "name": "Koraci",
        "place": "village"
      }
    },
    {
      "type": "node",
      "id": 1994229907,
      "lat": 45.254449,
      "lon": 15.4284546,
      "timestamp": "2017-12-03T18:42:04Z",
      "version": 3,
      "changeset": 54305497,
      "user": "antal",
      "uid": 98294,
      "tags": {
        "name": "Mala Kosa",
        "place": "village",
        "population": "5",
        "population:date": "2011-03-31",
        "source:population": "DZS 2011"
      }
    },
    {
      "type": "node",
      "id": 1994229909,
      "lat": 45.2593361,
      "lon": 15.4134414,
      "timestamp": "2017-12-03T18:42:04Z",
      "version": 3,
      "changeset": 54305497,
      "user": "antal",
      "uid": 98294,
      "tags": {
        "name": "Mrežnica",
        "place": "village",
        "population": "4",
        "population:date": "2011-03-31",
        "source:population": "DZS 2011"
      }
    },
    {
      "type": "node",
      "id": 1994229915,
      "lat": 45.2269243,
      "lon": 15.3990278,
      "timestamp": "2012-11-02T18:48:12Z",
      "version": 1,
      "changeset": 13726156,
      "user": "Girolamo",
      "uid": 908743,
      "tags": {
        "name": "Orljak",
        "place": "village"
      }
    },
    {
      "type": "node",
      "id": 1994229917,
      "lat": 45.2004365,
      "lon": 15.4189497,
      "timestamp": "2015-03-29T14:18:00Z",
      "version": 2,
      "changeset": 29827310,
      "user": "bdiscoe",
      "uid": 402624,
      "tags": {
        "name": "Roknići",
        "place": "hamlet"
      }
    },
    {
      "type": "node",
      "id": 1994229923,
      "lat": 45.2331237,
      "lon": 15.4312279,
      "timestamp": "2012-11-02T18:48:12Z",
      "version": 1,
      "changeset": 13726156,
      "user": "Girolamo",
      "uid": 908743,
      "tags": {
        "name": "Stanište",
        "place": "village"
      }
    },
    {
      "type": "node",
      "id": 1994229926,
      "lat": 45.226103,
      "lon": 15.4219117,
      "timestamp": "2019-07-03T13:10:41Z",
      "version": 2,
      "changeset": 71859561,
      "user": "isvedic",
      "uid": 331318,
      "tags": {
        "name": "Šušnjari",
        "place": "village"
      }
    },
    {
      "type": "node",
      "id": 1995758419,
      "lat": 45.2444185,
      "lon": 15.3548565,
      "timestamp": "2020-12-19T22:36:32Z",
      "version": 3,
      "changeset": 96123906,
      "user": "kdkeller",
      "uid": 43207,
      "tags": {
        "name": "Rebrovići",
        "place": "village",
        "population": "184",
        "population:date": "2011-03-31",
        "source:population": "DZS 2011",
        "wikidata": "Q1584680"
      }
    },
    {
      "type": "node",
      "id": 2104465923,
      "lat": 45.1849296,
      "lon": 15.4570675,
      "timestamp": "2013-01-10T17:27:17Z",
      "version": 1,
      "changeset": 14600343,
      "user": "Girolamo",
      "uid": 908743,
      "tags": {
        "name": "Gladna brda",
        "place": "hamlet"
      }
    },
    {
      "type": "node",
      "id": 2104465935,
      "lat": 45.1818523,
      "lon": 15.4597288,
      "timestamp": "2013-01-10T17:27:17Z",
      "version": 1,
      "changeset": 14600343,
      "user": "Girolamo",
      "uid": 908743,
      "tags": {
        "name": "Gvozdići",
        "place": "hamlet"
      }
    },