{
  "osm3s": {
    "timestamp_osm_date": "2022-04-13T23:59:59Z",
    "timestamp_osm_base": "2022-04-14T05:39:45Z",
    "copyright": "The data included in this document is from www.openstreetmap.org. The data is made available under ODbL."
  },
  "elements": [
    {
      "type": "node",
      "id": 253901428,
      "lat": 44.5561174,
      "lon": 14.884472,
      "timestamp": "2020-07-12T10:36:44Z",
      "version": 15,
      "changeset": 87873578,
      "user": "Badojo",
      "uid": 8189075,
      "tags": {
        "name": "Novalja",
        "name:it": "Novaglia",
        "name:lt": "Novalia",
        "name:ru": "Новаля",
        "name:sr": "Новаља",
        "old_name:de": "Navala",
        "place": "town",
        "population": "2358",
        "population:date": "2011-03-31",
        "source:population": "DZS 2011",
        "wikidata": "Q396613",
        "wikipedia": "hr:Novalja"
      }
    },
    {
      "type": "node",
      "id": 253933480,
      "lat": 44.5406035,
      "lon": 14.883541,
      "timestamp": "2010-08-08T18:14:46Z",
      "version": 3,
      "changeset": 5435976,
      "user": "mvrban",
      "uid": 148025,
      "tags": {
        "name": "Straško",
        "tourism": "camp_site"
      }
    },
    {
      "type": "node",
      "id": 285358689,
      "lat": 44.4690691,
      "lon": 14.9593099,
      "timestamp": "2022-02-15T19:52:03Z",
      "version": 11,
      "changeset": 117449465,
      "user": "vojtechzaboril",
      "uid": 8971394,
      "tags": {
        "alt_name:it": "San Simone di Pago",
        "name": "Šimuni",
        "name:it": "Porto Simon",
        "place": "village",
        "population": "165",
        "population:date": "2011-03-31",
        "source:population": "DZS 2011",
        "wikidata": "Q14701435",
        "wikipedia": "hr:Šimuni"
      }
    },
    {
      "type": "node",
      "id": 285412339,
      "lat": 44.3246458,
      "lon": 15.2071682,
      "timestamp": "2022-02-16T19:39:21Z",
      "version": 8,
      "changeset": 117491087,
      "user": "vojtechzaboril",
      "uid": 8971394,
      "tags": {
        "alt_name:it": "Scania",
        "name": "Vlašići",
        "name:it": "Ulasich",
        "place": "village",
        "population": "272",
        "population:date": "2011-03-31",
        "source:population": "DZS 2011",
        "wikidata": "Q12805987",
        "wikipedia": "hr:Vlašići (Pag)"
      }
    },
    {
      "type": "node",
      "id": 292955920,
      "lat": 44.476616,
      "lon": 14.9949803,
      "timestamp": "2021-09-17T13:57:55Z",
      "version": 4,
      "changeset": 111339559,
      "user": "vojtechzaboril",
      "uid": 8971394,
      "tags": {
        "ele": "349",
        "name": "Sveti Vid",
        "name:cs": "Svatý Vít",
        "natural": "peak",
        "prominence": "349",
        "wikidata": "Q25286840"
      }
    },
    {
      "type": "node",
      "id": 305503002,
      "lat": 44.30021,
      "lon": 15.0865158,
      "timestamp": "2021-05-12T16:07:56Z",
      "version": 6,
      "changeset": 104584825,
      "user": "Badojo",
      "uid": 8189075,
      "tags": {
        "name": "Vir",
        "name:ru": "Вир",
        "name:sr": "Вир",
        "place": "village",
        "population": "3000",
        "population:date": "2011-03-31",
        "source:population": "DZS 2011",
        "wikidata": "Q426522",
        "wikipedia": "hr:Vir (Zadarska županija)"
      }
    },
    {
      "type": "node",
      "id": 305671737,
      "lat": 44.2949644,
      "lon": 15.1155031,
      "timestamp": "2020-10-02T19:48:26Z",
      "version": 7,
      "changeset": 91881814,
      "user": "adriadomizil",
      "uid": 11918609,
      "tags": {
        "name": "Konzum",
        "opening_hours": "Mo-Sa 07:00-21:00; Su 07:00-12:00",
        "opening_hours:covid19": "open",
        "payment:cash": "yes",
        "payment:credit_cards": "yes",
        "payment:debit_cards": "yes",
        "ref:vatin": "HR29955634590",
        "shop": "supermarket"
      }
    },
    {
      "type": "node",
      "id": 305777302,
      "lat": 44.2943447,
      "lon": 15.0551533,
      "timestamp": "2018-10-26T10:44:49Z",
      "version": 4,
      "changeset": 63895889,
      "user": "Badojo",
      "uid": 8189075,
      "tags": {
        "name": "Torovi",
        "place": "hamlet"
      }
    },
    {
      "type": "node",
      "id": 305777304,
      "lat": 44.3163114,
      "lon": 15.0559087,
      "timestamp": "2018-10-26T10:44:49Z",
      "version": 3,
      "changeset": 63895889,
      "user": "Badojo",
      "uid": 8189075,
      "tags": {
        "name": "Lozice",
        "place": "hamlet"
      }
    },
    {
      "type": "node",
      "id": 305802883,
      "lat": 44.2951923,
      "lon": 15.1087121,
      "timestamp": "2019-01-23T13:25:59Z",
      "version": 5,
      "changeset": 66569757,
      "user": "222211HR",
      "uid": 9375622,
      "tags": {
        "name": "Market Studenac",
        "shop": "supermarket"
      }
    },
    {
      "type": "node",
      "id": 305802885,
      "lat": 44.2925451,
      "lon": 15.1198159,
      "timestamp": "2008-10-19T22:49:59Z",
      "version": 1,
      "changeset": 446126,
      "user": "saftl",
      "uid": 7989,
      "tags": {
        "name": "KONZUM",
        "shop": "supermarket"
      }
    },
    {
      "type": "node",
      "id": 305802894,
      "lat": 44.3017538,
      "lon": 15.081253,
      "timestamp": "2017-01-19T14:02:30Z",
      "version": 3,
      "changeset": 45298264,
      "user": "valentina123",
      "uid": 4808666,
      "tags": {
        "name": "Supermarket TOMMY",
        "shop": "supermarket"
      }
    },
    {
      "type": "node",
      "id": 312031034,
      "lat": 44.3014311,
      "lon": 15.0846004,
      "timestamp": "2018-08-02T09:14:42Z",
      "version": 3,
      "changeset": 61290543,
      "user": "Durko_freemap",
      "uid": 1885079,
      "tags": {
        "name": "Market Antonio",
        "shop": "supermarket"
      }
    },
    {
      "type": "node",
      "id": 331716567,
      "lat": 44.5564064,
      "lon": 15.1182379,
      "timestamp": "2021-07-28T14:40:59Z",
      "version": 5,
      "changeset": 108764980,
      "user": "rjaksic",
      "uid": 6774109,
      "tags": {
        "name": "Dabarska kosa",
        "natural": "saddle"
      }
    },
    {
      "type": "node",
      "id": 442965485,
      "lat": 44.527923,
      "lon": 15.0724951,
      "timestamp": "2021-05-13T16:21:34Z",
      "version": 10,
      "changeset": 104648410,
      "user": "Badojo",
      "uid": 8189075,
      "tags": {
        "name": "Karlobag",
        "name:it": "Carlopago",
        "place": "village",
        "population": "468",
        "population:date": "2011-03-31",
        "source:population": "DZS 2011",
        "wikidata": "Q775393",
        "wikipedia": "hr:Karlobag"
      }
    },
    {
      "type": "node",
      "id": 443320089,
      "lat": 44.3471819,
      "lon": 15.1115506,
      "timestamp": "2021-05-14T15:12:11Z",
      "version": 10,
      "changeset": 104692741,
      "user": "Badojo",
      "uid": 8189075,
      "tags": {
        "name": "Povljana",
        "name:it": "Pogliana",
        "place": "village",
        "population": "759",
        "population:date": "2011-03-31",
        "source:population": "DZS 2011",
        "wikidata": "Q1277227",
        "wikipedia": "hr:Povljana"
      }
    },
    {
      "type": "node",
      "id": 443769998,
      "lat": 44.2616321,
      "lon": 15.2338453,
      "timestamp": "2021-05-12T17:45:23Z",
      "version": 8,
      "changeset": 104588591,
      "user": "Aranc",
      "uid": 9475258,
      "tags": {
        "name": "Vrsi",
        "name:it": "Verchè",
        "place": "village",
        "population": "1627",
        "population:date": "2011-03-31",
        "source:population": "DZS 2011",
        "wikidata": "Q1285708",
        "wikipedia": "hr:Vrsi"
      }
    },
    {
      "type": "node",
      "id": 445114061,
      "lat": 44.1417668,
      "lon": 14.8516813,
      "timestamp": "2021-05-07T19:35:21Z",
      "version": 7,
      "changeset": 104338278,
      "user": "Badojo",
      "uid": 8189075,
      "tags": {
        "name": "Veli Rat",
        "place": "village",
        "population": "60",
        "population:date": "2011-03-31",
        "source:population": "DZS 2011",
        "wikidata": "Q7918936",
        "wikipedia": "hr:Veli Rat"
      }
    },
    {
      "type": "node",
      "id": 445114198,
      "lat": 44.1400123,
      "lon": 14.8810605,
      "timestamp": "2021-04-09T10:35:38Z",
      "version": 8,
      "changeset": 102634314,
      "user": "Badojo",
      "uid": 8189075,
      "tags": {
        "name": "Soline",
        "name:sr": "Солине",
        "place": "village",
        "population": "38",
        "population:date": "2011-03-31",
        "source:population": "DZS 2011",
        "wikidata": "Q522027",
        "wikipedia": "hr:Soline (Sali)"
      }
    },
    {
      "type": "node",
      "id": 455568166,
      "lat": 44.2820537,
      "lon": 15.3476388,
      "timestamp": "2021-05-12T17:26:04Z",
      "version": 7,
      "changeset": 104587855,
      "user": "Badojo",
      "uid": 8189075,
      "tags": {
        "name": "Ražanac",
        "place": "village",
        "population": "943",
        "population:date": "2011-03-31",
        "source:population": "DZS 2011",
        "wikidata": "Q1014078",
        "wikipedia": "hr:Ražanac"
      }
    },
    {
      "type": "node",
      "id": 455568167,
      "lat": 44.2434596,
      "lon": 15.3133138,
      "timestamp": "2022-02-16T19:39:21Z",
      "version": 4,
      "changeset": 117491087,
      "user": "vojtechzaboril",
      "uid": 8971394,
      "tags": {
        "name": "Krneza",
        "place": "village",
        "population": "177",
        "population:date": "2011-03-31",
        "source:population": "DZS 2011",
        "wikidata": "Q12634942",
        "wikipedia": "hr:Krneza"
      }
    },
    {
      "type": "node",
      "id": 455568168,
      "lat": 44.2605531,
      "lon": 15.2953398,
      "timestamp": "2022-02-16T19:39:21Z",
      "version": 6,
      "changeset": 117491087,
      "user": "vojtechzaboril",
      "uid": 8971394,
      "tags": {
        "name": "Ljubač",
        "place": "village",
        "population": "475",
        "population:date": "2011-03-31",
        "source:population": "DZS 2011",
        "wikidata": "Q2771921",
        "wikipedia": "hr:Ljubač (Ražanac)"
      }
    },
    {
      "type": "node",
      "id": 455570133,
      "lat": 44.2213687,
      "lon": 15.2856386,
      "timestamp": "2021-05-12T17:26:04Z",
      "version": 4,
      "changeset": 104587855,
      "user": "Badojo",
      "uid": 8189075,
      "tags": {
        "name": "Poljica",
        "place": "village",
        "population": "426",
        "population:date": "2011-03-31",
        "source:population": "DZS 2011",
        "wikidata": "Q12757682",
        "wikipedia": "hr:Poljica (Vrsi)"
      }
    },
    {
      "type": "node",
      "id": 455570135,
      "lat": 44.2506436,
      "lon": 15.2090496,
      "timestamp": "2019-12-25T20:39:46Z",
      "version": 5,
      "changeset": 78856133,
      "user": "Arisuaq",
      "uid": 8660990,
      "tags": {
        "name": "Zukve",
        "place": "hamlet"
      }
    },
    {
      "type": "node",
      "id": 455570662,
      "lat": 44.2430736,
      "lon": 15.1840255,
      "timestamp": "2017-12-02T22:15:07Z",
      "version": 9,
      "changeset": 54283490,
      "user": "antal",
      "uid": 98294,
      "tags": {
        "name": "Nin",
        "name:it": "Nona",
        "name:ru": "Нин",
        "name:sr": "Нин",
        "place": "town",
        "population": "1132",
        "population:date": "2011-03-31",
        "source:population": "DZS 2011",
        "wikidata": "Q396372",
        "wikipedia": "hr:Nin"
      }
    },
    {
      "type": "node",
      "id": 455572565,
      "lat": 44.2195084,
      "lon": 15.2163605,
      "timestamp": "2021-05-12T15:26:21Z",
      "version": 7,
      "changeset": 104583055,
      "user": "Badojo",
      "uid": 8189075,
      "tags": {
        "name": "Ninski Stanovi",
        "place": "village",
        "population": "358",
        "population:date": "2011-03-31",
        "source:population": "DZS 2011",
        "wikidata": "Q12638442",
        "wikipedia": "hr:Ninski Stanovi"
      }
    },
    {
      "type": "node",
      "id": 455572579,
      "lat": 44.2193476,
      "lon": 15.1717943,
      "timestamp": "2021-05-12T16:07:56Z",
      "version": 9,
      "changeset": 104584825,
      "user": "Badojo",
      "uid": 8189075,
      "tags": {
        "name": "Zaton",
        "place": "village",
        "population": "580",
        "population:date": "2011-03-31",
        "postal_code": "23232",
        "source:population": "DZS 2011",
        "wikidata": "Q3511909",
        "wikipedia": "hr:Zaton (Nin)"
      }
    },
    {
      "type": "node",
      "id": 455574039,
      "lat": 44.1866997,
      "lon": 15.1616173,
      "timestamp": "2021-06-06T20:32:09Z",
      "version": 9,
      "changeset": 105932281,
      "user": "Ramying",
      "uid": 668137,
      "tags": {
        "alt_name:it": "Porto Schiavina",
        "name": "Petrčane",
        "name:it": "Peterzane",
        "place": "village",
        "population": "601",
        "population:date": "2011-03-31",
        "source:population": "DZS 2011",
        "wikidata": "Q2451953",
        "wikipedia": "hr:Petrčane"
      }
    },
    {
      "type": "node",
      "id": 455574059,
      "lat": 44.1710867,
      "lon": 15.1940812,
      "timestamp": "2021-05-17T19:38:35Z",
      "version": 9,
      "changeset": 104846040,
      "user": "Badojo",
      "uid": 8189075,
      "tags": {
        "name": "Kožino",
        "place": "village",
        "population": "815",
        "population:date": "2011-03-31",
        "source:population": "DZS 2011",
        "wikidata": "Q6435693",
        "wikipedia": "hr:Kožino"
      }
    },
    {
      "type": "node",
      "id": 455574089,
      "lat": 44.3007308,
      "lon": 15.2888806,
      "timestamp": "2022-02-16T19:39:21Z",
      "version": 6,
      "changeset": 117491087,
      "user": "vojtechzaboril",
      "uid": 8971394,
      "tags": {
        "name": "Rtina",
        "place": "village",
        "population": "452",
        "population:date": "2011-03-31",
        "source:population": "DZS 2011",
        "wikidata": "Q7375594",
        "wikipedia": "hr:Rtina"
      }
    },
    {
      "type": "node",
      "id": 472290791,
      "lat": 44.2499532,
      "lon": 14.8118399,
      "timestamp": "2021-04-07T14:09:03Z",
      "version": 7,
      "changeset": 102489281,
      "user": "Badojo",
      "uid": 8189075,
      "tags": {
        "name": "Zapuntel",
        "place": "village",
        "population": "42",
        "population:date": "2011-03-31",
        "source:population": "DZS 2011",
        "wikidata": "Q12806476",
        "wikipedia": "hr:Zapuntel"
      }
    },
    {
      "type": "node",
      "id": 472290792,
      "lat": 44.2258255,
      "lon": 14.8513392,
      "timestamp": "2021-06-06T20:32:09Z",
      "version": 7,
      "changeset": 105932281,
      "user": "Ramying",
      "uid": 668137,
      "tags": {
        "name": "Brgulje",
        "name:it": "Berguglie",
        "place": "village",
        "population": "48",
        "population:date": "2011-03-31",
        "source:population": "DZS 2011",
        "wikidata": "Q12786460",
        "wikipedia": "hr:Brgulje"
      }
    },
    {
      "type": "node",
      "id": 472290793,
      "lat": 44.2136129,
      "lon": 14.8792284,
      "timestamp": "2021-04-18T15:22:34Z",
      "version": 7,
      "changeset": 103142594,
      "user": "Badojo",
      "uid": 8189075,
      "tags": {
        "name": "Molat",
        "name:ru": "Молат",
        "place": "village",
        "population": "107",
        "population:date": "2011-03-31",
        "source:population": "DZS 2011",
        "wikidata": "Q12796986",
        "wikipedia": "hr:Molat (Zadar)"
      }
    },
    {
      "type": "node",
      "id": 472297038,
      "lat": 44.1126308,
      "lon": 14.9326374,
      "timestamp": "2021-04-09T10:50:20Z",
      "version": 5,
      "changeset": 102635555,
      "user": "Badojo",
      "uid": 8189075,
      "tags": {
        "name": "Dragove",
        "place": "village",
        "population": "36",
        "population:date": "2011-03-31",
        "source:population": "DZS 2011",
        "wikidata": "Q5305495",
        "wikipedia": "hr:Dragove"
      }
    },
    {
      "type": "node",
      "id": 497381707,
      "lat": 44.2577467,
      "lon": 15.160737,
      "timestamp": "2021-05-12T17:26:04Z",
      "version": 6,
      "changeset": 104587855,
      "user": "Badojo",
      "uid": 8189075,
      "tags": {
        "name": "Sabunike",
        "place": "hamlet",
        "wikidata": "Q12641573",
        "wikipedia": "hr:Sabunike"
      }
    },
    {
      "type": "node",
      "id": 498384259,
      "lat": 44.4084348,
      "lon": 15.3188452,
      "timestamp": "2021-09-29T09:50:17Z",
      "version": 12,
      "changeset": 111857024,
      "user": "debeli75",
      "uid": 730886,
      "tags": {
        "capacity": "10",
        "ele": "860",
        "fee": "no",
        "fireplace": "yes",
        "mattress": "no",
        "name": "Planinarsko sklonište Tatekova koliba",
        "operator": "Planinarsko društvo Paklenica",
        "reservation": "no",
        "shower": "no",
        "toilets": "no",
        "tourism": "wilderness_hut"
      }
    },
    {
      "type": "node",
      "id": 498407068,
      "lat": 44.5493111,
      "lon": 15.1946149,
      "timestamp": "2017-10-29T21:54:38Z",
      "version": 7,
      "changeset": 53353343,
      "user": "sperlingskauz",
      "uid": 1858485,
      "tags": {
        "ele": "1124",
        "name": "Kuća Sveti Josip",
        "tourism": "wilderness_hut"
      }
    },
    {
      "type": "node",
      "id": 523231036,
      "lat": 44.1617198,
      "lon": 14.9152069,
      "timestamp": "2021-04-09T10:35:38Z",
      "version": 4,
      "changeset": 102634314,
      "user": "Badojo",
      "uid": 8189075,
      "tags": {
        "name": "Zverinac",
        "place": "village",
        "population": "43",
        "population:date": "2011-03-31",
        "source:population": "DZS 2011",
        "wikidata": "Q12645845",
        "wikipedia": "hr:Zverinac (Sali)"
      }
    },
    {
      "type": "node",
      "id": 536521890,
      "lat": 44.1311769,
      "lon": 15.1044975,
      "timestamp": "2021-04-12T18:37:37Z",
      "version": 10,
      "changeset": 102822319,
      "user": "Badojo",
      "uid": 8189075,
      "tags": {
        "name": "Ugljan",
        "name:ru": "Углян",
        "place": "village",
        "population": "1278",
        "population:date": "2011-03-31",
        "source:population": "DZS 2011",
        "wikidata": "Q478792",
        "wikipedia": "hr:Ugljan (Preko)"
      }
    },
    {
      "type": "node",
      "id": 549267536,
      "lat": 44.5464046,
      "lon": 15.375421,
      "timestamp": "2021-07-13T16:33:24Z",
      "version": 24,
      "changeset": 107923511,
      "user": "Badojo",
      "uid": 8189075,
      "tags": {
        "capital": "6",
        "name": "Gospić",
        "name:de": "Gospitsch",
        "name:hu": "Goszpics",
        "name:lt": "Gospičius",
        "name:mk": "Госпиќ",
        "name:ru": "Госпич",
        "name:sr": "Госпић",
        "place": "town",
        "population": "6575",
        "population:date": "2011-03-31",
        "source:population": "DZS 2011",
        "wikidata": "Q319276",
        "wikipedia": "hr:Gospić"
      }
    },
    {
      "type": "node",
      "id": 549364944,
      "lat": 44.5068941,
      "lon": 15.010438,
      "timestamp": "2022-02-15T19:52:03Z",
      "version": 7,
      "changeset": 117449465,
      "user": "vojtechzaboril",
      "uid": 8971394,
      "tags": {
        "name": "Metajna",
        "name:it": "Barbato Inferiore",
        "place": "village",
        "population": "236",
        "population:date": "2011-03-31",
        "source:population": "DZS 2011",
        "wikidata": "Q844721",
        "wikipedia": "hr:Metajna"
      }
    },
    {
      "type": "node",
      "id": 549367792,
      "lat": 44.5809972,
      "lon": 14.8873102,
      "timestamp": "2020-07-09T20:55:52Z",
      "version": 9,
      "changeset": 87783963,
      "user": "Badojo",
      "uid": 8189075,
      "tags": {
        "name": "Stara Novalja",
        "name:it": "Novaglia Vecchia",
        "place": "village",
        "population": "286",
        "population:date": "2011-03-31",
        "source:population": "DZS 2011",
        "wikidata": "Q3513285",
        "wikipedia": "hr:Stara Novalja"
      }
    },
    {
      "type": "node",
      "id": 559636562,
      "lat": 44.5529598,
      "lon": 15.3751922,
      "timestamp": "2009-11-08T18:06:13Z",
      "version": 1,
      "changeset": 3066609,
      "user": "Walter Schlögl",
      "uid": 78656,
      "tags": {
        "name": "Gospic",
        "shop": "supermarket"
      }
    },
    {
      "type": "node",
      "id": 687927920,
      "lat": 44.1370419,
      "lon": 15.0722908,
      "timestamp": "2021-04-12T18:37:37Z",
      "version": 7,
      "changeset": 102822319,
      "user": "Badojo",
      "uid": 8189075,
      "tags": {
        "name": "Muline",
        "place": "hamlet",
        "wikidata": "Q12797127"
      }
    },
    {
      "type": "node",
      "id": 687927921,
      "lat": 44.1428236,
      "lon": 15.0758258,
      "timestamp": "2021-04-12T18:37:37Z",
      "version": 5,
      "changeset": 102822319,
      "user": "Badojo",
      "uid": 8189075,
      "tags": {
        "name": "Gornje Selo",
        "place": "hamlet"
      }
    },
    {
      "type": "node",
      "id": 687956267,
      "lat": 44.1374378,
      "lon": 15.0971484,
      "timestamp": "2021-04-12T18:37:37Z",
      "version": 6,
      "changeset": 102822319,
      "user": "Badojo",
      "uid": 8189075,
      "tags": {
        "name": "Batalaža",
        "place": "hamlet"
      }
    },
    {
      "type": "node",
      "id": 687958550,
      "lat": 44.1423812,
      "lon": 15.0856993,
      "timestamp": "2021-04-12T18:37:37Z",
      "version": 4,
      "changeset": 102822319,
      "user": "Badojo",
      "uid": 8189075,
      "tags": {
        "name": "Sušica",
        "place": "hamlet"
      }
    },
    {
      "type": "node",
      "id": 687990056,
      "lat": 44.1291088,
      "lon": 15.0793287,
      "timestamp": "2021-04-12T18:37:37Z",
      "version": 5,
      "changeset": 102822319,
      "user": "Badojo",
      "uid": 8189075,
      "tags": {
        "name": "Guduće",
        "place": "hamlet"
      }
    },
    {
      "type": "node",
      "id": 689154221,
      "lat": 44.124616,
      "lon": 15.1175976,
      "timestamp": "2021-04-12T18:37:37Z",
      "version": 6,
      "changeset": 102822319,
      "user": "Badojo",
      "uid": 8189075,
      "tags": {
        "name": "Čeprljanda",
        "place": "hamlet"
      }
    },
    {
      "type": "node",
      "id": 702255603,
      "lat": 44.4296275,
      "lon": 15.3714342,
      "timestamp": "2019-11-22T09:49:08Z",
      "version": 2,
      "changeset": 77417853,
      "user": "a_2019",
      "uid": 10303321,
      "tags": {
        "ele": "1619",
        "name": "Visočica",
        "natural": "peak",
        "wikidata": "Q12644741",
        "wikipedia": "hr:Visočica (Velebit)"
      }
    },
    {
      "type": "node",
      "id": 769125375,
      "lat": 44.1023209,
      "lon": 15.1529407,
      "timestamp": "2021-05-07T20:10:58Z",
      "version": 9,
      "changeset": 104339452,
      "user": "Badojo",
      "uid": 8189075,
      "tags": {
        "name": "Lukoran",
        "place": "village",
        "population": "503",
        "population:date": "2011-03-31",
        "source:population": "DZS 2011",
        "wikidata": "Q477996",
        "wikipedia": "hr:Lukoran"
      }
    },
    {
      "type": "node",
      "id": 801882781,
      "lat": 44.2720223,
      "lon": 15.2236205,
      "timestamp": "2020-07-19T10:23:28Z",
      "version": 3,
      "changeset": 88196422,
      "user": "Fidulka",
      "uid": 6753395,
      "tags": {
        "amenity": "drinking_water",
        "name": "Vrsi izvor",
        "name:hu": "Forrás Vrsi",
        "natural": "spring"
      }
    },
    {
      "type": "node",
      "id": 807725644,
      "lat": 44.1468808,
      "lon": 15.3224743,
      "timestamp": "2022-02-16T19:39:21Z",
      "version": 7,
      "changeset": 117491087,
      "user": "vojtechzaboril",
      "uid": 8971394,
      "tags": {
        "name": "Murvica",
        "name:it": "Murvizza",
        "place": "village",
        "population": "701",
        "population:date": "2011-03-31",
        "source:population": "DZS 2011",
        "wikidata": "Q12755824",
        "wikipedia": "hr:Murvica (Poličnik)"
      }
    },
    {
      "type": "node",
      "id": 807725645,
      "lat": 44.1642493,
      "lon": 15.305898,
      "timestamp": "2022-02-16T19:39:21Z",
      "version": 5,
      "changeset": 117491087,
      "user": "vojtechzaboril",
      "uid": 8971394,
      "tags": {
        "name": "Briševo",
        "place": "village",
        "population": "657",
        "population:date": "2011-03-31",
        "source:population": "DZS 2011",
        "wikidata": "Q11689144",
        "wikipedia": "hr:Briševo (Poličnik)"
      }
    },
    {
      "type": "node",
      "id": 807725646,
      "lat": 44.2033374,
      "lon": 15.2539619,
      "timestamp": "2021-05-12T16:07:56Z",
      "version": 5,
      "changeset": 104584825,
      "user": "Badojo",
      "uid": 8189075,
      "tags": {
        "name": "Žerava",
        "place": "village",
        "population": "208",
        "population:date": "2011-03-31",
        "source:population": "DZS 2011",
        "wikidata": "Q16116962",
        "wikipedia": "hr:Žerava"
      }
    },
    {
      "type": "node",
      "id": 807725647,
      "lat": 44.201126,
      "lon": 15.2921284,
      "timestamp": "2021-05-12T15:26:21Z",
      "version": 6,
      "changeset": 104583055,
      "user": "Badojo",
      "uid": 8189075,
      "tags": {
        "name": "Poljica-Brig",
        "place": "village",
        "population": "276",
        "population:date": "2011-03-31",
        "source:population": "DZS 2011",
        "wikidata": "Q12757679",
        "wikipedia": "hr:Poljica-Brig"
      }
    },
    {
      "type": "node",
      "id": 807725648,
      "lat": 44.1982793,
      "lon": 15.3113617,
      "timestamp": "2021-05-12T15:26:21Z",
      "version": 5,
      "changeset": 104583055,
      "user": "Badojo",
      "uid": 8189075,
      "tags": {
        "name": "Dračevac Ninski",
        "place": "village",
        "population": "280",
        "population:date": "2011-03-31",
        "source:population": "DZS 2011"
      }
    },
    {
      "type": "node",
      "id": 807725649,
      "lat": 44.1743038,
      "lon": 15.3784633,
      "timestamp": "2017-12-03T18:55:18Z",
      "version": 4,
      "changeset": 54305888,
      "user": "antal",
      "uid": 98294,
      "tags": {
        "name": "Poličnik",
        "name:it": "Polisano",
        "place": "village",
        "population": "1035",
        "population:date": "2011-03-31",
        "source:population": "DZS 2011"
      }
    },
    {
      "type": "node",
      "id": 807725650,
      "lat": 44.1895904,
      "lon": 15.3992984,
      "timestamp": "2022-02-16T19:39:21Z",
      "version": 4,
      "changeset": 117491087,
      "user": "vojtechzaboril",
      "uid": 8971394,
      "tags": {
        "name": "Gornji Poličnik",
        "place": "village",
        "population": "140",
        "population:date": "2011-03-31",
        "source:population": "DZS 2011",
        "wikidata": "Q12631685",
        "wikipedia": "hr:Gornji Poličnik"
      }
    },
    {
      "type": "node",
      "id": 807725651,
      "lat": 44.1835662,
      "lon": 15.4129786,
      "timestamp": "2022-02-16T19:39:21Z",
      "version": 5,
      "changeset": 117491087,
      "user": "vojtechzaboril",
      "uid": 8971394,
      "tags": {
        "name": "Rupalj",
        "place": "village",
        "population": "245",
        "population:date": "2011-03-31",
        "source:population": "DZS 2011",
        "wikidata": "Q12800591",
        "wikipedia": "hr:Rupalj"
      }
    },
    {
      "type": "node",
      "id": 807725652,
      "lat": 44.1561777,
      "lon": 15.4044262,
      "timestamp": "2022-02-16T19:39:21Z",
      "version": 6,
      "changeset": 117491087,
      "user": "vojtechzaboril",
      "uid": 8971394,
      "tags": {
        "name": "Suhovare",
        "place": "village",
        "population": "508",
        "population:date": "2011-03-31",
        "source:population": "DZS 2011",
        "wikidata": "Q10793905",
        "wikipedia": "hr:Suhovare"
      }
    },
    {
      "type": "node",
      "id": 807725653,
      "lat": 44.1272119,
      "lon": 15.3496224,
      "timestamp": "2022-02-16T19:39:21Z",
      "version": 6,
      "changeset": 117491087,
      "user": "vojtechzaboril",
      "uid": 8971394,
      "tags": {
        "name": "Smoković",
        "place": "village",
        "population": "110",
        "population:date": "2011-03-31",
        "source:population": "DZS 2011",
        "wikidata": "Q12759008",
        "wikipedia": "hr:Smoković"
      }
    },
    {
      "type": "node",
      "id": 807725654,
      "lat": 44.2404246,
      "lon": 15.212477,
      "timestamp": "2021-05-12T15:26:21Z",
      "version": 6,
      "changeset": 104583055,
      "user": "Badojo",
      "uid": 8189075,
      "tags": {
        "name": "Grbe",
        "place": "village",
        "population": "190",
        "population:date": "2011-03-31",
        "source:population": "DZS 2011",
        "wikidata": "Q12631829",
        "wikipedia": "hr:Grbe (Nin)"
      }
    },
    {
      "type": "node",
      "id": 807725655,
      "lat": 44.263476,
      "lon": 15.2106504,
      "timestamp": "2021-05-12T17:26:04Z",
      "version": 3,
      "changeset": 104587855,
      "user": "Badojo",
      "uid": 8189075,
      "tags": {
        "name": "Mulo",
        "place": "hamlet"
      }
    },
    {
      "type": "node",
      "id": 807727854,
      "lat": 44.2611782,
      "lon": 15.1191161,
      "timestamp": "2021-05-12T16:07:56Z",
      "version": 4,
      "changeset": 104584825,
      "user": "Badojo",
      "uid": 8189075,
      "tags": {
        "name": "Privlaka",
        "place": "village",
        "population": "2253",
        "population:date": "2011-03-31",
        "source:population": "DZS 2011",
        "wikidata": "Q1018714",
        "wikipedia": "hr:Privlaka (Zadarska županija)"
      }
    },
    {
      "type": "node",
      "id": 828588447,
      "lat": 44.5453168,
      "lon": 14.8940511,
      "timestamp": "2020-07-10T12:45:20Z",
      "version": 5,
      "changeset": 87818086,
      "user": "Badojo",
      "uid": 8189075,
      "tags": {
        "brand": "Konzum",
        "brand:wikidata": "Q518563",
        "brand:wikipedia": "hr:Konzum",
        "name": "Konzum",
        "ref:vatin": "HR29955634590",
        "shop": "supermarket",
        "wheelchair": "yes"
      }
    },
    {
      "type": "node",
      "id": 848495377,
      "lat": 44.0978144,
      "lon": 15.164465,
      "timestamp": "2021-04-12T18:37:37Z",
      "version": 5,
      "changeset": 102822319,
      "user": "Badojo",
      "uid": 8189075,
      "tags": {
        "name": "Lukoran Mali",
        "place": "hamlet"
      }
    },
    {
      "type": "node",
      "id": 848495378,
      "lat": 44.0949364,
      "lon": 15.1736558,
      "timestamp": "2021-05-08T09:17:16Z",
      "version": 8,
      "changeset": 104356271,
      "user": "Badojo",
      "uid": 8189075,
      "tags": {
        "name": "Sutomišćica",
        "place": "village",
        "population": "336",
        "population:date": "2011-03-31",
        "source:population": "DZS 2011",
        "wikidata": "Q998978",
        "wikipedia": "hr:Sutomišćica"
      }
    },
    {
      "type": "node",
      "id": 848506543,
      "lat": 44.0917953,
      "lon": 15.182839,
      "timestamp": "2021-05-08T09:17:16Z",
      "version": 7,
      "changeset": 104356271,
      "user": "Badojo",
      "uid": 8189075,
      "tags": {
        "name": "Poljana",
        "place": "village",
        "population": "294",
        "population:date": "2011-03-31",
        "source:population": "DZS 2011",
        "wikidata": "Q231914",
        "wikipedia": "hr:Poljana"
      }
    },
    {
      "type": "node",
      "id": 877612564,
      "lat": 44.0999378,
      "lon": 15.2600487,
      "timestamp": "2015-07-31T21:54:50Z",
      "version": 2,
      "changeset": 33020345,
      "user": "Ivanż",
      "uid": 511916,
      "tags": {
        "name": "Tornado",
        "shop": "supermarket"
      }
    },
    {
      "type": "node",
      "id": 919016451,
      "lat": 44.2490764,
      "lon": 15.1324198,
      "timestamp": "2012-09-09T16:11:41Z",
      "version": 2,
      "changeset": 13046293,
      "user": "mmeusel",
      "uid": 13006,
      "tags": {
        "name": "Nina",
        "tourism": "camp_site"
      }
    },
    {
      "type": "node",
      "id": 931556311,
      "lat": 44.3596646,
      "lon": 15.1866895,
      "timestamp": "2018-10-27T11:33:51Z",
      "version": 4,
      "changeset": 63925630,
      "user": "Nikola-R",
      "uid": 1531419,
      "tags": {
        "name": "Auto kamp Pere Dinjiška",
        "tourism": "camp_site",
        "wheelchair": "yes"
      }
    },
    {
      "type": "node",
      "id": 932710283,
      "lat": 44.1863959,
      "lon": 15.2756,
      "timestamp": "2012-03-28T22:10:54Z",
      "version": 2,
      "changeset": 11131929,
      "user": "riccie",
      "uid": 329695,
      "tags": {
        "name": "Sonik",
        "shop": "supermarket"
      }
    },
    {
      "type": "node",
      "id": 944083876,
      "lat": 44.1833117,
      "lon": 15.1619008,
      "timestamp": "2013-03-01T22:13:12Z",
      "version": 4,
      "changeset": 15215524,
      "user": "Janjko",
      "uid": 244754,
      "tags": {
        "name": "Konzum",
        "ref:vatin": "HR29955634590",
        "shop": "supermarket"
      }
    },
    {
      "type": "node",
      "id": 1097059174,
      "lat": 44.2410869,
      "lon": 15.4468631,
      "timestamp": "2022-02-16T19:39:21Z",
      "version": 6,
      "changeset": 117491087,
      "user": "vojtechzaboril",
      "uid": 8971394,
      "tags": {
        "name": "Slivnica",
        "place": "village",
        "population": "834",
        "population:date": "2011-03-31",
        "source:population": "DZS 2011",
        "wikidata": "Q7541015",
        "wikipedia": "hr:Slivnica"
      }
    },
    {
      "type": "node",
      "id": 1194750972,
      "lat": 44.3624894,
      "lon": 15.4519533,
      "timestamp": "2021-06-09T10:42:30Z",
      "version": 5,
      "changeset": 106088257,
      "user": "debeli75",
      "uid": 730886,
      "tags": {
        "ele": "1130",
        "name": "Stražbenica",
        "natural": "saddle"
      }
    },
    {
      "type": "node",
      "id": 1196661103,
      "lat": 44.3490248,
      "lon": 15.4131806,
      "timestamp": "2020-12-19T22:41:54Z",
      "version": 2,
      "changeset": 96123999,
      "user": "kdkeller",
      "uid": 43207,
      "tags": {
        "ele": "1110",
        "name": "Bojin Kuk",
        "natural": "peak",
        "wikidata": "Q26224722"
      }
    },
    {
      "type": "node",
      "id": 1196667252,
      "lat": 44.4912464,
      "lon": 15.3038659,
      "timestamp": "2022-04-10T09:40:57Z",
      "version": 7,
      "changeset": 119528698,
      "user": "Arisuaq",
      "uid": 8660990,
      "tags": {
        "name": "Rizvanuša",
        "place": "village",
        "population": "29",
        "population:date": "2011-03-31",
        "source:population": "DZS 2011",
        "wikidata": "Q3511521",
        "wikipedia": "hr:Rizvanuša"
      }
    },
    {
      "type": "node",
      "id": 1196968891,
      "lat": 44.5793864,
      "lon": 15.0961539,
      "timestamp": "2016-03-16T12:44:30Z",
      "version": 6,
      "changeset": 37870630,
      "user": "Janjko",
      "uid": 244754,
      "tags": {
        "alt_name": "Samogred",
        "ele": "1304",
        "name": "Bačić kuk",
        "natural": "peak",
        "wikidata": "Q12627714",
        "wikipedia": "hr:Bačić kuk"
      }
    },
    {
      "type": "node",
      "id": 1197033930,
      "lat": 44.5390303,
      "lon": 15.1644814,
      "timestamp": "2011-03-11T18:02:57Z",
      "version": 1,
      "changeset": 7525061,
      "user": "Janjko",
      "uid": 244754,
      "tags": {
        "name": "Stupačinovo",
        "place": "hamlet"
      }
    },
    {
      "type": "node",
      "id": 1197046519,
      "lat": 44.5826639,
      "lon": 15.0736779,
      "timestamp": "2021-06-09T10:10:44Z",
      "version": 3,
      "changeset": 106086169,
      "user": "Janjko",
      "uid": 244754,
      "tags": {
        "ele": "1317",
        "name": "Budakovo brdo",
        "natural": "peak",
        "wikidata": "Q25299629"
      }
    },
    {
      "type": "node",
      "id": 1197196269,
      "lat": 44.5553021,
      "lon": 15.085083,
      "timestamp": "2013-02-22T17:22:02Z",
      "version": 2,
      "changeset": 15126219,
      "user": "Janjko",
      "uid": 244754,
      "tags": {
        "name": "Budaci",
        "place": "hamlet"
      }
    },
    {
      "type": "node",
      "id": 1197205187,
      "lat": 44.5484662,
      "lon": 15.1599514,
      "timestamp": "2017-07-09T21:40:04Z",
      "version": 3,
      "changeset": 50162246,
      "user": "Janjko",
      "uid": 244754,
      "tags": {
        "ele": "1274",
        "name": "Kiza",
        "natural": "peak",
        "wikidata": "Q15440958",
        "wikipedia": "hr:Kiza"
      }
    },
    {
      "type": "node",
      "id": 1197356245,
      "lat": 44.4330226,
      "lon": 15.1986951,
      "timestamp": "2020-07-30T20:06:45Z",
      "version": 8,
      "changeset": 88750606,
      "user": "idelac",
      "uid": 183676,
      "tags": {
        "name": "Lukovo Šugarje",
        "name:ru": "Луково Шугарье",
        "place": "village",
        "population": "68",
        "population:date": "2011-03-31",
        "source:population": "DZS 2011",
        "wikidata": "Q2378927"
      }
    },
    {
      "type": "node",
      "id": 1197422043,
      "lat": 44.5492998,
      "lon": 15.1551514,
      "timestamp": "2020-12-19T14:49:36Z",
      "version": 2,
      "changeset": 96111042,
      "user": "kdkeller",
      "uid": 43207,
      "tags": {
        "ele": "1180",
        "name": "Žuti kuk",
        "natural": "peak",
        "wikidata": "Q26224634"
      }
    },
    {
      "type": "node",
      "id": 1201752543,
      "lat": 44.5205628,
      "lon": 15.1888577,
      "timestamp": "2021-07-31T16:18:25Z",
      "version": 3,
      "changeset": 108949613,
      "user": "rjaksic",
      "uid": 6774109,
      "tags": {
        "name": "Takalice",
        "natural": "saddle"
      }
    },
    {
      "type": "node",
      "id": 1201752560,
      "lat": 44.5061359,
      "lon": 15.1842418,
      "timestamp": "2019-11-23T14:25:34Z",
      "version": 3,
      "changeset": 77460250,
      "user": "a_2019",
      "uid": 10303321,
      "tags": {
        "ele": "1286",
        "name": "Veliki Sadikovac",
        "natural": "peak",
        "wikidata": "Q12644513",
        "wikipedia": "hr:Veliki Sadikovac"
      }
    },
    {
      "type": "node",
      "id": 1312816555,
      "lat": 44.3056734,
      "lon": 15.4555833,
      "timestamp": "2021-03-25T15:51:57Z",
      "version": 4,
      "changeset": 101731396,
      "user": "debeli75",
      "uid": 730886,
      "tags": {
        "name": "Tomići",
        "place": "hamlet"
      }
    },
    {
      "type": "node",
      "id": 1367019159,
      "lat": 44.1283731,
      "lon": 15.1034685,
      "timestamp": "2011-08-01T13:31:51Z",
      "version": 2,
      "changeset": 8890875,
      "user": "goranT",
      "uid": 217969,
      "tags": {
        "name": "Bure",
        "shop": "supermarket"
      }
    },
    {
      "type": "node",
      "id": 1367019168,
      "lat": 44.1358814,
      "lon": 15.0765134,
      "timestamp": "2011-09-25T19:55:39Z",
      "version": 2,
      "changeset": 9396375,
      "user": "b-seif",
      "uid": 494863,
      "tags": {
        "name": "Sonik Market",
        "shop": "convenience"
      }
    },
    {
      "type": "node",
      "id": 1367043368,
      "lat": 44.1298712,
      "lon": 15.1052104,
      "timestamp": "2011-07-29T14:09:30Z",
      "version": 2,
      "changeset": 8863719,
      "user": "goranT",
      "uid": 217969,
      "tags": {
        "name": "Sonik Market",
        "shop": "supermarket"
      }
    },
    {
      "type": "node",
      "id": 1367043377,
      "lat": 44.1301734,
      "lon": 15.1056852,
      "timestamp": "2013-03-01T22:13:12Z",
      "version": 2,
      "changeset": 15215524,
      "user": "Janjko",
      "uid": 244754,
      "tags": {
        "name": "Konzum",
        "ref:vatin": "HR29955634590",
        "shop": "supermarket"
      }
    },
    {
      "type": "node",
      "id": 1370174515,
      "lat": 44.1273368,
      "lon": 15.1102463,
      "timestamp": "2011-10-08T19:34:52Z",
      "version": 3,
      "changeset": 9505767,
      "user": "b-seif",
      "uid": 494863,
      "tags": {
        "name": "Stipanić",
        "tourism": "camp_site"
      }
    },
    {
      "type": "node",
      "id": 1371223321,
      "lat": 44.2733012,
      "lon": 14.7664859,
      "timestamp": "2021-06-06T20:32:09Z",
      "version": 6,
      "changeset": 105932281,
      "user": "Ramying",
      "uid": 668137,
      "tags": {
        "name": "Ist",
        "name:it": "Isto",
        "name:ru": "Ист",
        "place": "village",
        "population": "182",
        "population:date": "2011-03-31",
        "source:population": "DZS 2011",
        "wikidata": "Q12791476",
        "wikipedia": "hr:Ist (Zadar)"
      }
    },
    {
      "type": "node",
      "id": 1392022392,
      "lat": 44.3495073,
      "lon": 15.1040402,
      "timestamp": "2013-07-17T08:21:58Z",
      "version": 4,
      "changeset": 16983777,
      "user": "markiol",
      "uid": 573041,
      "tags": {
        "amenity": "marketplace",
        "name": "Sonik",
        "shop": "convenience"
      }
    },
    {
      "type": "node",
      "id": 1406268169,
      "lat": 44.1170412,
      "lon": 15.2248729,
      "timestamp": "2022-01-01T21:51:11Z",
      "version": 7,
      "changeset": 115652367,
      "user": "APneunzehn74",
      "uid": 12180500,
      "tags": {
        "branch": "T402",
        "brand": "Studenac",
        "brand:wikidata": "Q65156084",
        "brand:wikipedia": "hr:Studenac",
        "name": "Studenac",
        "opening_hours": "Mo-Sa 07:00-21:00, Su 07:00-20:00",
        "shop": "convenience"
      }
    },
    {
      "type": "node",
      "id": 1406341883,
      "lat": 44.1122574,
      "lon": 15.2285008,
      "timestamp": "2022-01-02T07:23:19Z",
      "version": 5,
      "changeset": 115659389,
      "user": "APneunzehn74",
      "uid": 12180500,
      "tags": {
        "addr:city": "Zadar",
        "addr:housenumber": "1",
        "addr:postcode": "23000",
        "addr:street": "Trg pet bunara",
        "brand": "Tommy",
        "brand:wikidata": "Q12643718",
        "brand:wikipedia": "hr:Tommy",
        "name": "Tommy",
        "opening_hours": "Mo-Sa 07:00-21:00; Su 08:00-20:00",
        "phone": "+385 23 233 662",
        "shop": "convenience",
        "website": "http://tommy.hr/"
      }
    },
    {
      "type": "node",
      "id": 1406476647,
      "lat": 44.1081128,
      "lon": 15.2444822,
      "timestamp": "2015-10-03T15:35:48Z",
      "version": 2,
      "changeset": 34409966,
      "user": "Ivanż",
      "uid": 511916,
      "tags": {
        "name": "Studenac",
        "shop": "convenience"
      }
    },
    {
      "type": "node",
      "id": 1409803529,
      "lat": 44.2961666,
      "lon": 15.1045607,
      "timestamp": "2011-08-23T12:12:33Z",
      "version": 1,
      "changeset": 9103023,
      "user": "xlord",
      "uid": 397328,
      "tags": {
        "name": "CAMP LUKA",
        "tourism": "camp_site"
      }
    },
    {
      "type": "node",
      "id": 1415362588,
      "lat": 44.2883089,
      "lon": 15.4465638,
      "timestamp": "2018-08-18T10:08:59Z",
      "version": 7,
      "changeset": 61766507,
      "user": "Girolamo",
      "uid": 908743,
      "tags": {
        "name": "Tommy",
        "shop": "convenience"
      }
    },
    {
      "type": "node",
      "id": 1449613334,
      "lat": 44.1168385,
      "lon": 15.2324111,
      "timestamp": "2016-10-02T22:30:09Z",
      "version": 7,
      "changeset": 42592977,
      "user": "Vadiм",
      "uid": 326091,
      "tags": {
        "addr:city": "Zadar",
        "addr:country": "HR",
        "addr:housenumber": "8",
        "addr:postcode": "23000",
        "addr:street": "Ulica Josipa Jurja Strossmayera",
        "name": "Konzum",
        "opening_hours": "Mo-Su 07:00-21:00; Su 07:00-21:00",
        "phone": "0800 400 000",
        "ref:vatin": "HR29955634590",
        "shop": "supermarket",
        "website": "https://www.konzum.hr/Prodavaonice",
        "wheelchair": "yes"
      }
    },
    {
      "type": "node",
      "id": 1452428525,
      "lat": 44.5153477,
      "lon": 15.4209346,
      "timestamp": "2022-03-23T15:27:26Z",
      "version": 4,
      "changeset": 118826589,
      "user": "vojtechzaboril",
      "uid": 8971394,
      "tags": {
        "name": "Novoselo Bilajsko",
        "place": "village",
        "population": "112",
        "population:date": "2011-03-31",
        "source:population": "DZS 2011",
        "wikidata": "Q1976653",
        "wikipedia": "hr:Novoselo Bilajsko"
      }
    },
    {
      "type": "node",
      "id": 1454008887,
      "lat": 44.1258234,
      "lon": 15.1198004,
      "timestamp": "2011-10-08T19:34:52Z",
      "version": 2,
      "changeset": 9505767,
      "user": "b-seif",
      "uid": 494863,
      "tags": {
        "name": "Marijo",
        "tourism": "camp_site"
      }
    },
    {
      "type": "node",
      "id": 1456282912,
      "lat": 44.1066601,
      "lon": 15.1548612,
      "timestamp": "2011-10-05T20:52:28Z",
      "version": 1,
      "changeset": 9481616,
      "user": "b-seif",
      "uid": 494863,
      "tags": {
        "name": "Novi Kamp",
        "tourism": "camp_site"
      }
    },
    {
      "type": "node",
      "id": 1457146081,
      "lat": 44.0953345,
      "lon": 15.1733393,
      "timestamp": "2011-10-06T19:54:46Z",
      "version": 1,
      "changeset": 9488791,
      "user": "b-seif",
      "uid": 494863,
      "tags": {
        "name": "Bure",
        "shop": "supermarket"
      }
    },
    {
      "type": "node",
      "id": 1461322514,
      "lat": 44.1354982,
      "lon": 15.0769109,
      "timestamp": "2021-04-12T18:37:37Z",
      "version": 3,
      "changeset": 102822319,
      "user": "Badojo",
      "uid": 8189075,
      "tags": {
        "name": "Donje Selo",
        "place": "hamlet"
      }
    },
    {
      "type": "node",
      "id": 1461322521,
      "lat": 44.1320632,
      "lon": 15.0904361,
      "timestamp": "2015-08-27T00:46:52Z",
      "version": 3,
      "changeset": 33610389,
      "user": "riccie",
      "uid": 329695,
      "tags": {
        "name": "Šegić",
        "place": "hamlet"
      }
    },
    {
      "type": "node",
      "id": 1461343409,
      "lat": 44.1213047,
      "lon": 15.101071,
      "timestamp": "2011-10-11T17:45:34Z",
      "version": 2,
      "changeset": 9532585,
      "user": "b-seif",
      "uid": 494863,
      "tags": {
        "name": "Fortošćina",
        "place": "hamlet"
      }
    },
    {
      "type": "node",
      "id": 1461343410,
      "lat": 44.1269226,
      "lon": 15.0819575,
      "timestamp": "2021-04-12T18:37:37Z",
      "version": 3,
      "changeset": 102822319,
      "user": "Badojo",
      "uid": 8189075,
      "tags": {
        "name": "Funčići",
        "place": "hamlet"
      }
    },
    {
      "type": "node",
      "id": 1461343411,
      "lat": 44.1181561,
      "lon": 15.1066356,
      "timestamp": "2015-08-27T00:46:52Z",
      "version": 3,
      "changeset": 33610389,
      "user": "riccie",
      "uid": 329695,
      "tags": {
        "name": "Ivanac",
        "place": "hamlet"
      }
    },
    {
      "type": "node",
      "id": 1461343412,
      "lat": 44.1236033,
      "lon": 15.086216,
      "timestamp": "2021-04-12T18:37:37Z",
      "version": 3,
      "changeset": 102822319,
      "user": "Badojo",
      "uid": 8189075,
      "tags": {
        "name": "Ljokine",
        "place": "hamlet"
      }
    },
    {
      "type": "node",
      "id": 1461343413,
      "lat": 44.1275495,
      "lon": 15.1057614,
      "timestamp": "2015-09-04T17:53:46Z",
      "version": 2,
      "changeset": 33799993,
      "user": "riccie",
      "uid": 329695,
      "tags": {
        "name": "Stipanići",
        "place": "hamlet"
      }
    },
    {
      "type": "node",
      "id": 1461343414,
      "lat": 44.1221447,
      "lon": 15.1076026,
      "timestamp": "2015-09-04T17:53:46Z",
      "version": 3,
      "changeset": 33799993,
      "user": "riccie",
      "uid": 329695,
      "tags": {
        "name": "Strihine",
        "place": "hamlet"
      }
    },
    {
      "type": "node",
      "id": 1461345377,
      "lat": 44.1188091,
      "lon": 15.1152628,
      "timestamp": "2015-09-04T17:53:46Z",
      "version": 3,
      "changeset": 33799993,
      "user": "riccie",
      "uid": 329695,
      "tags": {
        "name": "Sarage",
        "place": "hamlet"
      }
    },
    {
      "type": "node",
      "id": 1474875935,
      "lat": 44.3613983,
      "lon": 15.3761567,
      "timestamp": "2021-05-17T16:57:17Z",
      "version": 3,
      "changeset": 104839447,
      "user": "debeli75",
      "uid": 730886,
      "tags": {
        "amenity": "drinking_water"
      }
    },
    {
      "type": "node",
      "id": 1488808436,
      "lat": 44.1832223,
      "lon": 15.1620387,
      "timestamp": "2019-08-20T16:23:38Z",
      "version": 4,
      "changeset": 73547953,
      "user": "polar707",
      "uid": 8350268,
      "tags": {
        "name": "Market bakmaz",
        "shop": "supermarket"
      }
    },
    {
      "type": "node",
      "id": 1587133525,
      "lat": 44.2876991,
      "lon": 15.448113,
      "timestamp": "2013-02-15T11:38:56Z",
      "version": 2,
      "changeset": 15038535,
      "user": "Janjko",
      "uid": 244754,
      "tags": {
        "name": "Market",
        "shop": "convenience"
      }
    },
    {
      "type": "node",
      "id": 1589531598,
      "lat": 44.4652806,
      "lon": 14.9673819,
      "timestamp": "2019-08-09T20:01:24Z",
      "version": 6,
      "changeset": 73206471,
      "user": "fahrnwol",
      "uid": 411661,
      "tags": {
        "camp_site": "reception",
        "name": "Camping Simuni",
        "name:nl": "Camping Village Simuni",
        "source_ref": "http://www.camping-simuni.hr/",
        "toilets:wheelchair": "yes",
        "tourism": "camp_site",
        "wheelchair": "limited"
      }
    },
    {
      "type": "node",
      "id": 1589531599,
      "lat": 44.3599607,
      "lon": 15.1862156,
      "timestamp": "2022-02-15T19:52:03Z",
      "version": 9,
      "changeset": 117449465,
      "user": "vojtechzaboril",
      "uid": 8971394,
      "tags": {
        "name": "Dinjiška",
        "name:it": "Dignisca",
        "place": "village",
        "population": "137",
        "population:date": "2011-03-31",
        "source:population": "DZS 2011",
        "wikidata": "Q5278353",
        "wikipedia": "hr:Dinjiška"
      }
    },
    {
      "type": "node",
      "id": 1593357649,
      "lat": 44.2922221,
      "lon": 15.4440046,
      "timestamp": "2020-02-09T20:58:30Z",
      "version": 10,
      "changeset": 80764061,
      "user": "Badojo",
      "uid": 8189075,
      "tags": {
        "addr:postcode": "23244",
        "name": "Starigrad Paklenica",
        "name:it": "Ortopula",
        "place": "village",
        "short_name": "Starigrad",
        "website": "https://www.opcina-starigrad.hr/",
        "wikidata": "Q856390",
        "wikipedia": "hr:Starigrad"
      }
    },
    {
      "type": "node",
      "id": 1593362509,
      "lat": 44.2870472,
      "lon": 15.4472695,
      "timestamp": "2021-08-10T06:06:28Z",
      "version": 8,
      "changeset": 109440529,
      "user": "Matyjace",
      "uid": 10988408,
      "tags": {
        "addr:city": "Starigrad-Paklenica",
        "addr:housenumber": "14",
        "addr:street": "Dr. Franje Tuđmana",
        "name": "Bluesun Camp Paklenica",
        "tourism": "camp_site",
        "website": "https://www.bluesuncamping.com/"
      }
    },
    {
      "type": "node",
      "id": 1593362513,
      "lat": 44.2884709,
      "lon": 15.4457485,
      "timestamp": "2018-05-20T19:53:15Z",
      "version": 4,
      "changeset": 59132024,
      "user": "Girolamo",
      "uid": 908743,
      "tags": {
        "name": "Paklenica National Park",
        "tourism": "camp_site",
        "website": "www.paklenica.hr/en/index.php/park/tourist-facilities/camp-nacionalni-park"
      }
    },
    {
      "type": "node",
      "id": 1598928451,
      "lat": 44.4437608,
      "lon": 15.0545217,
      "timestamp": "2020-05-01T11:01:17Z",
      "version": 13,
      "changeset": 84466569,
      "user": "Badojo",
      "uid": 8189075,
      "tags": {
        "name": "Pag",
        "name:it": "Pago",
        "name:ru": "Паг",
        "name:sr": "Паг",
        "place": "town",
        "population": "2849",
        "population:date": "2011-03-31",
        "source:population": "DZS 2011",
        "wikidata": "Q837468",
        "wikipedia": "hr:Pag (grad)"
      }
    },
    {
      "type": "node",
      "id": 1658411223,
      "lat": 44.5309997,
      "lon": 14.8965465,
      "timestamp": "2020-07-15T19:12:54Z",
      "version": 7,
      "changeset": 88048123,
      "user": "Badojo",
      "uid": 8189075,
      "tags": {
        "alt_name:it": "Porto Castello",
        "name": "Gajac",
        "name:it": "Gaja",
        "place": "village",
        "population": "84",
        "population:date": "2011-03-31",
        "source:population": "DZS 2011",
        "wikidata": "Q3440567",
        "wikipedia": "hr:Gajac"
      }
    },
    {
      "type": "node",
      "id": 1694578380,
      "lat": 44.1674117,
      "lon": 15.1860217,
      "timestamp": "2021-04-18T15:22:34Z",
      "version": 6,
      "changeset": 103142594,
      "user": "Badojo",
      "uid": 8189075,
      "tags": {
        "name": "Primorje",
        "place": "hamlet"
      }
    },
    {
      "type": "node",
      "id": 1784003601,
      "lat": 44.0910318,
      "lon": 15.4526013,
      "timestamp": "2020-03-23T14:39:47Z",
      "version": 4,
      "changeset": 82527911,
      "user": "Badojo",
      "uid": 8189075,
      "tags": {
        "name": "Škabrnja",
        "place": "village",
        "population": "1413",
        "population:date": "2011-03-31",
        "source:population": "DZS 2011",
        "wikidata": "Q391782",
        "wikipedia": "hr:Škabrnja"
      }
    },
    {
      "type": "node",
      "id": 1793775403,
      "lat": 44.4938821,
      "lon": 14.9612564,
      "timestamp": "2021-05-14T16:03:24Z",
      "version": 8,
      "changeset": 104695412,
      "user": "Badojo",
      "uid": 8189075,
      "tags": {
        "name": "Kolan",
        "place": "village",
        "population": "379",
        "population:date": "2011-03-31",
        "source:population": "DZS 2011",
        "website": "http://www.kolan.hr/",
        "wikidata": "Q1285637",
        "wikipedia": "hr:Kolan"
      }
    },
    {
      "type": "node",
      "id": 1793775404,
      "lat": 44.4779682,
      "lon": 14.9205232,
      "timestamp": "2020-04-12T14:09:15Z",
      "version": 5,
      "changeset": 83428772,
      "user": "Ramying",
      "uid": 668137,
      "tags": {
        "name": "Mandre",
        "name:it": "Mandrie",
        "place": "village",
        "population": "395",
        "population:date": "2011-03-31",
        "source:population": "DZS 2011",
        "wikidata": "Q12035194"
      }
    },
    {
      "type": "node",
      "id": 1832917478,
      "lat": 44.1168594,
      "lon": 15.2353257,
      "timestamp": "2021-07-24T15:51:37Z",
      "version": 31,
      "changeset": 108537642,
      "user": "Aranc",
      "uid": 9475258,
      "tags": {
        "admin_level": "6",
        "capital": "6",
        "is_in:continent": "Europe",
        "is_in:country": "Croatia",
        "name": "Zadar",
        "name:hu": "Zára",
        "name:it": "Zara",
        "name:la": "Iadera",
        "name:lt": "Zadaras",
        "name:ru": "Задар",
        "name:sr": "Задар",
        "old_name": "Iader",
        "place": "city",
        "population": "71471",
        "population:date": "2011-03-31",
        "source:population": "DZS 2011",
        "wikidata": "Q3370",
        "wikipedia": "hr:Zadar"
      }
    },
    {
      "type": "node",
      "id": 1835672627,
      "lat": 44.1405227,
      "lon": 14.904966,
      "timestamp": "2021-05-06T20:57:04Z",
      "version": 6,
      "changeset": 104274545,
      "user": "Badojo",
      "uid": 8189075,
      "tags": {
        "name": "Božava",
        "place": "village",
        "population": "116",
        "population:date": "2011-03-31",
        "source:population": "DZS 2011",
        "wikidata": "Q12786285",
        "wikipedia": "hr:Božava"
      }
    },
    {
      "type": "node",
      "id": 1841140166,
      "lat": 44.5646468,
      "lon": 15.0210133,
      "timestamp": "2022-03-23T15:27:26Z",
      "version": 5,
      "changeset": 118826589,
      "user": "vojtechzaboril",
      "uid": 8971394,
      "tags": {
        "name": "Cesarica",
        "place": "village",
        "population": "123",
        "population:date": "2011-03-31",
        "source:population": "DZS 2011",
        "wikidata": "Q12628848",
        "wikipedia": "hr:Cesarica"
      }
    },
    {
      "type": "node",
      "id": 1864745430,
      "lat": 44.5379372,
      "lon": 14.8841486,
      "timestamp": "2021-09-11T09:36:03Z",
      "version": 4,
      "changeset": 111054917,
      "user": "vice",
      "uid": 151346,
      "tags": {
        "cash_withdrawal:foreign_cards": "yes",
        "level": "0",
        "name": "Market by Strasko",
        "opening_hours": "Mo-Su 07:00-22:00",
        "ref:vatin": "HR29955634590",
        "shop": "supermarket",
        "wheelchair": "yes"
      }
    },
    {
      "type": "node",
      "id": 1884318102,
      "lat": 44.1136501,
      "lon": 15.2251615,
      "timestamp": "2015-11-14T10:14:31Z",
      "version": 3,
      "changeset": 35302918,
      "user": "Ivanż",
      "uid": 511916,
      "tags": {
        "name": "Sonik",
        "shop": "convenience",
        "wheelchair": "yes"
      }
    },
    {
      "type": "node",
      "id": 1892843847,
      "lat": 44.5494448,
      "lon": 15.3770824,
      "timestamp": "2021-04-23T13:30:52Z",
      "version": 6,
      "changeset": 103485556,
      "user": "Janjko",
      "uid": 244754,
      "tags": {
        "brand": "Lidl",
        "brand:wikidata": "Q151954",
        "brand:wikipedia": "en:Lidl",
        "name": "Lidl",
        "opening_hours": "Mo-Sa 08:00-21:00, Su 08:00-18:00",
        "ref:vatin": "HR66089976432",
        "shop": "supermarket",
        "wheelchair": "yes"
      }
    },
    {
      "type": "node",
      "id": 1896515291,
      "lat": 44.3177787,
      "lon": 15.4104626,
      "timestamp": "2013-05-01T18:42:35Z",
      "version": 3,
      "changeset": 15937436,
      "user": "idelac",
      "uid": 183676,
      "tags": {
        "name": "Milovci",
        "place": "hamlet"
      }
    },
    {
      "type": "node",
      "id": 1896516552,
      "lat": 44.3217318,
      "lon": 15.3988644,
      "timestamp": "2022-01-09T20:21:26Z",
      "version": 3,
      "changeset": 115956668,
      "user": "Aranc",
      "uid": 9475258,
      "tags": {
        "name": "Lađin Porat",
        "place": "hamlet",
        "wikidata": "Q16110123",
        "wikipedia": "hr:Lađin porat"
      }
    },
    {
      "type": "node",
      "id": 1896535729,
      "lat": 44.3469186,
      "lon": 15.3252846,
      "timestamp": "2012-09-03T16:18:23Z",
      "version": 1,
      "changeset": 12969475,
      "user": "metaroll",
      "uid": 72719,
      "tags": {
        "name": "Kopovine",
        "place": "hamlet"
      }
    },
    {
      "type": "node",
      "id": 1896537113,
      "lat": 44.3773779,
      "lon": 15.2667856,
      "timestamp": "2022-03-23T15:27:26Z",
      "version": 8,
      "changeset": 118826589,
      "user": "vojtechzaboril",
      "uid": 8971394,
      "tags": {
        "name": "Barić Draga",
        "place": "village",
        "population": "125",
        "population:date": "2011-03-31",
        "source:population": "DZS 2011",
        "wikidata": "Q6616390",
        "wikipedia": "hr:Barić Draga"
      }
    },
    {
      "type": "node",
      "id": 1896542798,
      "lat": 44.3717788,
      "lon": 15.2730466,
      "timestamp": "2022-04-10T11:58:10Z",
      "version": 4,
      "changeset": 119532861,
      "user": "Arisuaq",
      "uid": 8660990,
      "tags": {
        "name": "Bili Brigovi",
        "place": "hamlet"
      }
    },
    {
      "type": "node",
      "id": 1896546701,
      "lat": 44.3636824,
      "lon": 15.2900633,
      "timestamp": "2022-04-10T11:58:10Z",
      "version": 5,
      "changeset": 119532861,
      "user": "Arisuaq",
      "uid": 8660990,
      "tags": {
        "name": "Tribanj Sveta Marija Magdalena",
        "place": "hamlet",
        "wikipedia": "hr:Tribanj Sveta Marija Magdalena"
      }
    },
    {
      "type": "node",
      "id": 1896552526,
      "lat": 44.3618169,
      "lon": 15.2956124,
      "timestamp": "2019-08-30T16:48:57Z",
      "version": 2,
      "changeset": 73931897,
      "user": "Badojo",
      "uid": 8189075,
      "tags": {
        "name": "Tribanj Lisarica",
        "place": "hamlet"
      }
    },
    {
      "type": "node",
      "id": 1896557115,
      "lat": 44.3574249,
      "lon": 15.3068536,
      "timestamp": "2012-09-03T16:43:00Z",
      "version": 1,
      "changeset": 12969475,
      "user": "metaroll",
      "uid": 72719,
      "tags": {
        "name": "Običaj",
        "place": "hamlet"
      }
    },
    {
      "type": "node",
      "id": 1896573248,
      "lat": 44.3441596,
      "lon": 15.3288635,
      "timestamp": "2012-09-03T16:55:37Z",
      "version": 2,
      "changeset": 12969475,
      "user": "metaroll",
      "uid": 72719,
      "tags": {
        "name": "Autocamp",
        "tourism": "camp_site"
      }
    },
    {
      "type": "node",
      "id": 1896574451,
      "lat": 44.3390148,
      "lon": 15.3394588,
      "timestamp": "2022-03-23T15:27:26Z",
      "version": 4,
      "changeset": 118826589,
      "user": "vojtechzaboril",
      "uid": 8971394,
      "tags": {
        "name": "Tribanj Šibuljna",
        "place": "hamlet",
        "wikipedia": "hr:Tribanj Šibuljine"
      }
    },
    {
      "type": "node",
      "id": 1898639773,
      "lat": 44.3318146,
      "lon": 15.3603328,
      "timestamp": "2013-12-23T21:01:21Z",
      "version": 2,
      "changeset": 19607631,
      "user": "idelac",
      "uid": 183676,
      "tags": {
        "name": "Kozjača",
        "place": "hamlet"
      }
    },
    {
      "type": "node",
      "id": 1898640175,
      "lat": 44.3251555,
      "lon": 15.386835,
      "timestamp": "2013-12-23T21:01:22Z",
      "version": 2,
      "changeset": 19607631,
      "user": "idelac",
      "uid": 183676,
      "tags": {
        "name": "Šilježetarica",
        "place": "hamlet"
      }
    },
    {
      "type": "node",
      "id": 1898691324,
      "lat": 44.2890563,
      "lon": 15.4643316,
      "timestamp": "2019-11-26T07:30:17Z",
      "version": 2,
      "changeset": 77557277,
      "user": "a_2019",
      "uid": 10303321,
      "tags": {
        "name": "Škiljići",
        "place": "hamlet"
      }
    },
    {
      "type": "node",
      "id": 1900314250,
      "lat": 44.3775032,
      "lon": 15.2652182,
      "timestamp": "2012-09-05T12:16:05Z",
      "version": 2,
      "changeset": 12995295,
      "user": "metaroll",
      "uid": 72719,
      "tags": {
        "name": "Market Zaneta",
        "shop": "supermarket"
      }
    },
    {
      "type": "node",
      "id": 1900616033,
      "lat": 44.3382092,
      "lon": 15.3403349,
      "timestamp": "2019-08-18T18:38:44Z",
      "version": 5,
      "changeset": 73470812,
      "user": "duncanturk",
      "uid": 9329448,
      "tags": {
        "name": "Tommy Market",
        "opening_hours": "Su 07:00-21:00; Mo-Sa 07:00-22:00",
        "shop": "supermarket"
      }
    },
    {
      "type": "node",
      "id": 1900616907,
      "lat": 44.3445207,
      "lon": 15.3285578,
      "timestamp": "2012-09-05T15:19:32Z",
      "version": 1,
      "changeset": 12997449,
      "user": "metaroll",
      "uid": 72719,
      "tags": {
        "name": "Ante Camp",
        "tourism": "camp_site"
      }
    },
    {
      "type": "node",
      "id": 1900617993,
      "lat": 44.3499087,
      "lon": 15.3156831,
      "timestamp": "2021-06-14T14:53:51Z",
      "version": 3,
      "changeset": 106344020,
      "user": "Janjko",
      "uid": 244754,
      "tags": {
        "brand": "Bakmaz",
        "brand:wikidata": "Q65132948",
        "brand:wikipedia": "hr:Bakmaz",
        "name": "Bakmaz",
        "shop": "convenience"
      }
    },
    {
      "type": "node",
      "id": 1906025824,
      "lat": 44.2924473,
      "lon": 15.4551823,
      "timestamp": "2014-07-13T18:38:44Z",
      "version": 2,
      "changeset": 24126696,
      "user": "Chrisss Gü",
      "uid": 577766,
      "tags": {
        "name": "Marasovići",
        "place": "hamlet"
      }
    },
    {
      "type": "node",
      "id": 1906821313,
      "lat": 44.2978515,
      "lon": 15.4354691,
      "timestamp": "2014-01-26T15:51:01Z",
      "version": 3,
      "changeset": 20211475,
      "user": "pyriusz",
      "uid": 1237475,
      "tags": {
        "name": "Sonic",
        "shop": "supermarket"
      }
    },
    {
      "type": "node",
      "id": 1906842520,
      "lat": 44.2931227,
      "lon": 15.450738,
      "timestamp": "2012-09-09T13:37:20Z",
      "version": 1,
      "changeset": 13044493,
      "user": "metaroll",
      "uid": 72719,
      "tags": {
        "name": "Sikići",
        "place": "hamlet"
      }
    },
    {
      "type": "node",
      "id": 1906863923,
      "lat": 44.2871081,
      "lon": 15.4521065,
      "timestamp": "2012-09-09T13:53:43Z",
      "version": 1,
      "changeset": 13044681,
      "user": "metaroll",
      "uid": 72719,
      "tags": {
        "tourism": "camp_site"
      }
    },
    {
      "type": "node",
      "id": 1907087333,
      "lat": 44.3488706,
      "lon": 15.4141051,
      "timestamp": "2018-10-11T00:00:35Z",
      "version": 3,
      "changeset": 63397858,
      "user": "Janjko",
      "uid": 244754,
      "tags": {
        "mapillary": "sTgb45S87di5AgbURwPmBA",
        "name": "Sklonište Pećina",
        "natural": "cave_entrance"
      }
    },
    {
      "type": "node",
      "id": 1907087339,
      "lat": 44.3557381,
      "lon": 15.4242329,
      "timestamp": "2012-09-09T16:11:10Z",
      "version": 1,
      "changeset": 13046293,
      "user": "mmeusel",
      "uid": 13006,
      "tags": {
        "amenity": "drinking_water",
        "man_made": "water_well"
      }
    },
    {
      "type": "node",
      "id": 1907087431,
      "lat": 44.3495295,
      "lon": 15.408995,
      "timestamp": "2019-12-02T11:58:25Z",
      "version": 2,
      "changeset": 77818273,
      "user": "a_2019",
      "uid": 10303321,
      "tags": {
        "amenity": "drinking_water",
        "operator": "Piskavac"
      }
    },
    {
      "type": "node",
      "id": 1958685889,
      "lat": 44.337465,
      "lon": 15.2289292,
      "timestamp": "2022-01-19T14:23:41Z",
      "version": 9,
      "changeset": 116344918,
      "user": "vojtechzaboril",
      "uid": 8971394,
      "tags": {
        "name": "Miškovići",
        "name:it": "Miscovizzi",
        "place": "village",
        "wikidata": "Q2521521",
        "wikipedia": "hr:Miškovići (Pag)"
      }
    },
    {
      "type": "node",
      "id": 1973527223,
      "lat": 44.3993201,
      "lon": 15.0765662,
      "timestamp": "2022-02-15T19:52:03Z",
      "version": 10,
      "changeset": 117449465,
      "user": "vojtechzaboril",
      "uid": 8971394,
      "tags": {
        "name": "Košljun",
        "name:it": "Val Cassione",
        "place": "village",
        "population": "47",
        "population:date": "2011-03-31",
        "source:population": "DZS 2011",
        "wikidata": "Q13580873",
        "wikipedia": "hr:Košljun (Pag)"
      }
    },
    {
      "type": "node",
      "id": 2041182673,
      "lat": 44.33687,
      "lon": 15.3943617,
      "timestamp": "2017-12-03T20:41:59Z",
      "version": 4,
      "changeset": 54309027,
      "user": "antal",
      "uid": 98294,
      "tags": {
        "name": "Jovići",
        "place": "hamlet",
        "population": "344",
        "population:date": "2011-03-31",
        "source:population": "DZS 2011"
      }
    },
    {
      "type": "node",
      "id": 2098005906,
      "lat": 44.1084152,
      "lon": 15.238108,
      "timestamp": "2015-08-01T08:54:02Z",
      "version": 3,
      "changeset": 33025867,
      "user": "Ivanż",
      "uid": 511916,
      "tags": {
        "addr:housenumber": "20C",
        "addr:postcode": "23000",
        "addr:street": "Zrinsko-Frankopanska",
        "name": "Bakmaz",
        "shop": "convenience"
      }
    },
    {
      "type": "node",
      "id": 2129444969,
      "lat": 44.2298685,
      "lon": 15.1714579,
      "timestamp": "2019-08-19T05:52:06Z",
      "version": 2,
      "changeset": 73479938,
      "user": "aceman444",
      "uid": 1617449,
      "tags": {
        "addr:city": "Zaton/Nin",
        "addr:housenumber": "14",
        "addr:street": "Put Petra Zoranića",
        "name": "Autocamp Peros",
        "phone": "+38523265830",
        "tourism": "camp_site",
        "website": "http://www.autocamp-peros.hr"
      }
    },
    {
      "type": "node",
      "id": 2153825685,
      "lat": 44.2563846,
      "lon": 15.4646887,
      "timestamp": "2022-02-16T19:39:21Z",
      "version": 4,
      "changeset": 117491087,
      "user": "vojtechzaboril",
      "uid": 8971394,
      "tags": {
        "name": "Vinjerac",
        "place": "village",
        "population": "189",
        "population:date": "2011-03-31",
        "source:population": "DZS 2011",
        "wikidata": "Q851593",
        "wikipedia": "hr:Vinjerac"
      }
    },
    {
      "type": "node",
      "id": 2162616662,
      "lat": 44.1176572,
      "lon": 15.2707462,
      "timestamp": "2017-05-27T09:55:47Z",
      "version": 5,
      "changeset": 49020636,
      "user": "Fiki",
      "uid": 493209,
      "tags": {
        "addr:city": "Zadar",
        "addr:country": "HR",
        "addr:housenumber": "1",
        "addr:postcode": "23000",
        "addr:street": "Ulica akcije Maslenica",
        "level": "0",
        "name": "Spar",
        "opening_hours": "Mo-Su 08:00-21:00",
        "payment:american_express": "yes",
        "payment:cash": "yes",
        "payment:diners_club": "yes",
        "payment:maestro": "yes",
        "payment:mastercard": "yes",
        "payment:visa": "yes",
        "payment:visa_debit": "yes",
        "payment:visa_electron": "yes",
        "phone": "+385 23 400 160",
        "ref:vatin": "HR46108893754",
        "shop": "convenience"
      }
    },
    {
      "type": "node",
      "id": 2167048270,
      "lat": 44.2617887,
      "lon": 15.1188087,
      "timestamp": "2017-01-19T16:28:51Z",
      "version": 4,
      "changeset": 45301747,
      "user": "valentina123",
      "uid": 4808666,
      "tags": {
        "addr:city": "Privlaka",
        "addr:postcode": "23233",
        "addr:street": "Ivana Pavla II",
        "name": "Tommy",
        "shop": "supermarket"
      }
    },
    {
      "type": "node",
      "id": 2167057658,
      "lat": 44.5866893,
      "lon": 15.0384261,
      "timestamp": "2013-02-22T15:03:04Z",
      "version": 1,
      "changeset": 15124610,
      "user": "Janjko",
      "uid": 244754,
      "tags": {
        "name": "Pejakuša",
        "place": "hamlet"
      }
    },
    {
      "type": "node",
      "id": 2168917443,
      "lat": 44.2594739,
      "lon": 15.1227581,
      "timestamp": "2017-01-17T21:06:28Z",
      "version": 2,
      "changeset": 45254706,
      "user": "valentina123",
      "uid": 4808666,
      "tags": {
        "name": "Konzum",
        "shop": "convenience"
      }
    },
    {
      "type": "node",
      "id": 2169734248,
      "lat": 44.3896937,
      "lon": 15.4680031,
      "timestamp": "2016-03-16T12:43:10Z",
      "version": 3,
      "changeset": 37870603,
      "user": "Janjko",
      "uid": 244754,
      "tags": {
        "ele": "1637",
        "name": "Badanj",
        "natural": "peak",
        "wikidata": "Q16112865"
      }
    },
    {
      "type": "node",
      "id": 2169859760,
      "lat": 44.3614135,
      "lon": 15.3760379,
      "timestamp": "2021-05-17T16:57:17Z",
      "version": 5,
      "changeset": 104839447,
      "user": "debeli75",
      "uid": 730886,
      "tags": {
        "ele": "780",
        "fee": "no",
        "fireplace": "yes",
        "name": "Planinarsko sklonište Zavrata",
        "tourism": "wilderness_hut"
      }
    },
    {
      "type": "node",
      "id": 2171008083,
      "lat": 44.3217499,
      "lon": 15.4090465,
      "timestamp": "2013-02-24T10:54:18Z",
      "version": 1,
      "changeset": 15146148,
      "user": "Janjko",
      "uid": 244754,
      "tags": {
        "name": "Čavići",
        "place": "hamlet"
      }
    },
    {
      "type": "node",
      "id": 2171098260,
      "lat": 44.3692383,
      "lon": 15.3237069,
      "timestamp": "2013-07-02T15:31:49Z",
      "version": 2,
      "changeset": 16793307,
      "user": "Janjko",
      "uid": 244754,
      "tags": {
        "name": "Ljubotić",
        "place": "hamlet"
      }
    },
    {
      "type": "node",
      "id": 2171136850,
      "lat": 44.5022219,
      "lon": 15.267894,
      "timestamp": "2022-03-23T15:27:26Z",
      "version": 3,
      "changeset": 118826589,
      "user": "vojtechzaboril",
      "uid": 8971394,
      "tags": {
        "name": "Brušane",
        "place": "village",
        "population": "134",
        "population:date": "2011-03-31",
        "source:population": "DZS 2011",
        "wikidata": "Q2732535",
        "wikipedia": "hr:Brušane"
      }
    },
    {
      "type": "node",
      "id": 2172435732,
      "lat": 44.5145552,
      "lon": 15.1726671,
      "timestamp": "2020-12-19T14:49:36Z",
      "version": 2,
      "changeset": 96111042,
      "user": "kdkeller",
      "uid": 43207,
      "tags": {
        "ele": "1241",
        "name": "Sladovačko brdo",
        "natural": "peak",
        "source": "http://gps-planine.com",
        "wikidata": "Q26224636"
      }
    },
    {
      "type": "node",
      "id": 2172462224,
      "lat": 44.5129873,
      "lon": 15.1431123,
      "timestamp": "2022-03-27T21:00:08Z",
      "version": 6,
      "changeset": 118996242,
      "user": "Arisuaq",
      "uid": 8660990,
      "tags": {
        "name": "Konjsko",
        "place": "village",
        "population:date": "2011-03-31",
        "source:population": "DZS 2011",
        "wikidata": "Q2793599",
        "wikipedia": "hr:Konjsko (Karlobag)"
      }
    },
    {
      "type": "node",
      "id": 2172525690,
      "lat": 44.5239711,
      "lon": 15.2386696,
      "timestamp": "2020-12-19T14:49:36Z",
      "version": 2,
      "changeset": 96111042,
      "user": "kdkeller",
      "uid": 43207,
      "tags": {
        "ele": "1168",
        "name": "Oštri Kozjak",
        "natural": "peak",
        "wikidata": "Q25328956"
      }
    },
    {
      "type": "node",
      "id": 2172645414,
      "lat": 44.555528,
      "lon": 15.1997235,
      "timestamp": "2020-12-19T14:49:35Z",
      "version": 2,
      "changeset": 96111042,
      "user": "kdkeller",
      "uid": 43207,
      "tags": {
        "ele": "1274",
        "name": "Jadićevac",
        "natural": "peak",
        "wikidata": "Q25328941"
      }
    },
    {
      "type": "node",
      "id": 2173120361,
      "lat": 44.5257773,
      "lon": 15.2128631,
      "timestamp": "2020-12-19T14:49:34Z",
      "version": 3,
      "changeset": 96111042,
      "user": "kdkeller",
      "uid": 43207,
      "tags": {
        "ele": "1197",
        "name": "Crni vrh",
        "natural": "peak",
        "wikidata": "Q25328509"
      }
    },
    {
      "type": "node",
      "id": 2173336109,
      "lat": 44.5544152,
      "lon": 15.1287877,
      "timestamp": "2020-12-19T14:48:51Z",
      "version": 2,
      "changeset": 96111042,
      "user": "kdkeller",
      "uid": 43207,
      "tags": {
        "ele": "1127",
        "name": "Butinovača",
        "natural": "peak",
        "source": "http://gps-planine.com",
        "wikidata": "Q25311519"
      }
    },
    {
      "type": "node",
      "id": 2173346978,
      "lat": 44.5676119,
      "lon": 15.0993675,
      "timestamp": "2015-12-21T10:34:36Z",
      "version": 3,
      "changeset": 36082296,
      "user": "Janjko",
      "uid": 244754,
      "tags": {
        "name": "Bačić kosa",
        "natural": "saddle"
      }
    },
    {
      "type": "node",
      "id": 2173352825,
      "lat": 44.5764418,
      "lon": 15.0928474,
      "timestamp": "2015-12-21T10:36:00Z",
      "version": 2,
      "changeset": 36082321,
      "user": "Janjko",
      "uid": 244754,
      "tags": {
        "name": "Ripinovac",
        "natural": "saddle"
      }
    },
    {
      "type": "node",
      "id": 2173359972,
      "lat": 44.579084,
      "lon": 15.0820166,
      "timestamp": "2015-12-21T10:23:58Z",
      "version": 3,
      "changeset": 36082127,
      "user": "Janjko",
      "uid": 244754,
      "tags": {
        "ele": "1264",
        "name": "Soline",
        "natural": "saddle"
      }
    },
    {
      "type": "node",
      "id": 2173362288,
      "lat": 44.5739791,
      "lon": 15.0886365,
      "timestamp": "2020-12-19T14:48:54Z",
      "version": 3,
      "changeset": 96111042,
      "user": "kdkeller",
      "uid": 43207,
      "tags": {
        "ele": "1265",
        "name": "Prikinuto brdo",
        "natural": "peak",
        "wikidata": "Q25311715"
      }
    },
    {
      "type": "node",
      "id": 2174039934,
      "lat": 44.5828771,
      "lon": 15.0050245,
      "timestamp": "2013-02-25T21:42:09Z",
      "version": 1,
      "changeset": 15167120,
      "user": "Janjko",
      "uid": 244754,
      "tags": {
        "name": "Čačići",
        "place": "hamlet"
      }
    },
    {
      "type": "node",
      "id": 2181405792,
      "lat": 44.5218669,
      "lon": 15.2708641,
      "timestamp": "2013-03-02T15:35:39Z",
      "version": 3,
      "changeset": 15222638,
      "user": "TonicGeek",
      "uid": 946565,
      "tags": {
        "name": "Brkljačići",
        "place": "hamlet"
      }
    },
    {
      "type": "node",
      "id": 2181448700,
      "lat": 44.5269405,
      "lon": 15.2753356,
      "timestamp": "2022-03-23T15:27:26Z",
      "version": 3,
      "changeset": 118826589,
      "user": "vojtechzaboril",
      "uid": 8971394,
      "tags": {
        "name": "Trnovac",
        "place": "village",
        "population": "96",
        "population:date": "2011-03-31",
        "source:population": "DZS 2011",
        "wikidata": "Q4845742",
        "wikipedia": "hr:Trnovac (Gospić)"
      }
    },
    {
      "type": "node",
      "id": 2228441251,
      "lat": 44.3765421,
      "lon": 14.7807668,
      "timestamp": "2021-06-06T20:32:09Z",
      "version": 7,
      "changeset": 105932281,
      "user": "Ramying",
      "uid": 668137,
      "tags": {
        "name": "Olib",
        "name:de": "Lüb",
        "name:it": "Ulbo",
        "name:ru": "Олиб",
        "place": "village",
        "population": "140",
        "population:date": "2011-03-31",
        "source:population": "DZS 2011",
        "wikidata": "Q11290515",
        "wikipedia": "hr:Olib (Zadar)"
      }
    },
    {
      "type": "node",
      "id": 2255625368,
      "lat": 44.5303883,
      "lon": 15.3584353,
      "timestamp": "2022-03-23T15:27:26Z",
      "version": 3,
      "changeset": 118826589,
      "user": "vojtechzaboril",
      "uid": 8971394,
      "tags": {
        "name": "Žabica",
        "place": "village",
        "population": "163",
        "population:date": "2011-03-31",
        "source:population": "DZS 2011",
        "wikidata": "Q2587818",
        "wikipedia": "hr:Žabica (Gospić)"
      }
    },
    {
      "type": "node",
      "id": 2255628104,
      "lat": 44.5413986,
      "lon": 15.3497439,
      "timestamp": "2022-03-23T15:27:26Z",
      "version": 3,
      "changeset": 118826589,
      "user": "vojtechzaboril",
      "uid": 8971394,
      "tags": {
        "name": "Kaniža Gospićka",
        "place": "village",
        "population": "401",
        "population:date": "2011-03-31",
        "source:population": "DZS 2011",
        "wikidata": "Q1821407",
        "wikipedia": "hr:Kaniža Gospićka"
      }
    },
    {
      "type": "node",
      "id": 2255654191,
      "lat": 44.5617506,
      "lon": 15.3213967,
      "timestamp": "2019-10-28T15:10:45Z",
      "version": 6,
      "changeset": 76304470,
      "user": "starwars425",
      "uid": 5531147,
      "tags": {
        "name": "Smiljan",
        "name:sr": "Смиљан",
        "name:sr-Latn": "Smiljan",
        "place": "village",
        "population": "418",
        "population:date": "2011-03-31",
        "source:population": "DZS 2011",
        "wikidata": "Q367211"
      }
    },
    {
      "type": "node",
      "id": 2266324985,
      "lat": 44.3431907,
      "lon": 15.3849362,
      "timestamp": "2015-11-02T17:09:13Z",
      "version": 4,
      "changeset": 35038703,
      "user": "Ivan Katanović",
      "uid": 292615,
      "tags": {
        "name": "Adžići",
        "place": "hamlet"
      }
    },
    {
      "type": "node",
      "id": 2282783297,
      "lat": 44.2436396,
      "lon": 15.3953273,
      "timestamp": "2022-02-16T19:39:21Z",
      "version": 7,
      "changeset": 117491087,
      "user": "vojtechzaboril",
      "uid": 8971394,
      "tags": {
        "name": "Jovići",
        "place": "village",
        "population": "344",
        "population:date": "2011-03-31",
        "source:population": "DZS 2011",
        "wikidata": "Q12633818",
        "wikipedia": "hr:Jovići"
      }
    },
    {
      "type": "node",
      "id": 2282783298,
      "lat": 44.2555431,
      "lon": 15.3763747,
      "timestamp": "2013-04-27T05:56:59Z",
      "version": 1,
      "changeset": 15879622,
      "user": "idelac",
      "uid": 183676,
      "tags": {
        "name": "Baraći",
        "place": "hamlet"
      }
    },
    {
      "type": "node",
      "id": 2282783299,
      "lat": 44.2579713,
      "lon": 15.3695512,
      "timestamp": "2013-04-27T05:56:59Z",
      "version": 1,
      "changeset": 15879622,
      "user": "idelac",
      "uid": 183676,
      "tags": {
        "name": "Vulete",
        "place": "hamlet"
      }
    },
    {
      "type": "node",
      "id": 2282783300,
      "lat": 44.2661158,
      "lon": 15.3528786,
      "timestamp": "2013-04-27T05:56:59Z",
      "version": 1,
      "changeset": 15879622,
      "user": "idelac",
      "uid": 183676,
      "tags": {
        "name": "Garići",
        "place": "hamlet"
      }
    },
    {
      "type": "node",
      "id": 2282783301,
      "lat": 44.269865,
      "lon": 15.3460229,
      "timestamp": "2015-12-31T12:24:33Z",
      "version": 2,
      "changeset": 36281483,
      "user": "Ivanż",
      "uid": 511916,
      "tags": {
        "name": "Rudići",
        "place": "hamlet"
      }
    },
    {
      "type": "node",
      "id": 2282783305,
      "lat": 44.2564255,
      "lon": 15.226337,
      "timestamp": "2016-09-13T10:26:20Z",
      "version": 3,
      "changeset": 42118046,
      "user": "wheelmap_visitor",
      "uid": 290680,
      "tags": {
        "name": "Bakmaz",
        "shop": "convenience",
        "wheelchair": "yes"
      }
    },
    {
      "type": "node",
      "id": 2282783306,
      "lat": 44.2407334,
      "lon": 15.2124596,
      "timestamp": "2013-04-27T05:57:01Z",
      "version": 1,
      "changeset": 15879622,
      "user": "idelac",
      "uid": 183676,
      "tags": {
        "name": "Sonik",
        "shop": "convenience"
      }
    },
    {
      "type": "node",
      "id": 2282783308,
      "lat": 44.2405105,
      "lon": 15.1746297,
      "timestamp": "2013-04-27T05:57:01Z",
      "version": 1,
      "changeset": 15879622,
      "user": "idelac",
      "uid": 183676,
      "tags": {
        "name": "Studenac",
        "shop": "convenience"
      }
    },
    {
      "type": "node",
      "id": 2285907649,
      "lat": 44.2315243,
      "lon": 15.4484716,
      "timestamp": "2013-04-29T17:26:31Z",
      "version": 1,
      "changeset": 15911190,
      "user": "idelac",
      "uid": 183676,
      "tags": {
        "alt_name": "Kalac",
        "name": "Kalaci",
        "place": "hamlet"
      }
    },
    {
      "type": "node",
      "id": 2288326113,
      "lat": 44.2589764,
      "lon": 15.317344,
      "timestamp": "2013-05-01T18:22:47Z",
      "version": 1,
      "changeset": 15937196,
      "user": "idelac",
      "uid": 183676,
      "tags": {
        "name": "Jordani",
        "place": "hamlet"
      }
    },
    {
      "type": "node",
      "id": 2288326115,
      "lat": 44.2649392,
      "lon": 15.3083815,
      "timestamp": "2013-05-01T18:22:47Z",
      "version": 1,
      "changeset": 15937196,
      "user": "idelac",
      "uid": 183676,
      "tags": {
        "name": "Stojići",
        "place": "hamlet"
      }
    },
    {
      "type": "node",
      "id": 2289677422,
      "lat": 44.2336552,
      "lon": 15.3708784,
      "timestamp": "2022-02-16T19:39:21Z",
      "version": 4,
      "changeset": 117491087,
      "user": "vojtechzaboril",
      "uid": 8971394,
      "tags": {
        "name": "Radovin",
        "place": "village",
        "population": "549",
        "population:date": "2011-03-31",
        "source:population": "DZS 2011",
        "wikidata": "Q7281674",
        "wikipedia": "hr:Radovin"
      }
    },
    {
      "type": "node",
      "id": 2289681657,
      "lat": 44.1135839,
      "lon": 15.2900526,
      "timestamp": "2022-02-16T19:39:21Z",
      "version": 5,
      "changeset": 117491087,
      "user": "vojtechzaboril",
      "uid": 8971394,
      "tags": {
        "name": "Crno",
        "place": "village",
        "population": "537",
        "population:date": "2011-03-31",
        "source:population": "DZS 2011",
        "wikidata": "Q12761125",
        "wikipedia": "hr:Crno (Zadar)"
      }
    },
    {
      "type": "node",
      "id": 2289705108,
      "lat": 44.1095798,
      "lon": 15.4312483,
      "timestamp": "2022-02-16T19:39:21Z",
      "version": 4,
      "changeset": 117491087,
      "user": "vojtechzaboril",
      "uid": 8971394,
      "tags": {
        "name": "Zemunik Gornji",
        "place": "village",
        "population": "410",
        "population:date": "2011-03-31",
        "source:population": "DZS 2011",
        "wikidata": "Q8068923",
        "wikipedia": "hr:Zemunik Gornji"
      }
    },
    {
      "type": "node",
      "id": 2289714470,
      "lat": 44.2052929,
      "lon": 15.3462101,
      "timestamp": "2017-12-03T18:42:52Z",
      "version": 2,
      "changeset": 54305497,
      "user": "antal",
      "uid": 98294,
      "tags": {
        "name": "Visočane",
        "place": "village",
        "population": "372",
        "population:date": "2011-03-31",
        "source:population": "DZS 2011"
      }
    },
    {
      "type": "node",
      "id": 2289755497,
      "lat": 44.1838515,
      "lon": 15.4461047,
      "timestamp": "2022-02-16T19:39:21Z",
      "version": 4,
      "changeset": 117491087,
      "user": "vojtechzaboril",
      "uid": 8971394,
      "tags": {
        "name": "Islam Latinski",
        "place": "village",
        "population": "284",
        "population:date": "2011-03-31",
        "source:population": "DZS 2011",
        "wikidata": "Q4132117",
        "wikipedia": "hr:Islam Latinski"
      }
    },
    {
      "type": "node",
      "id": 2289759269,
      "lat": 44.2047773,
      "lon": 15.3740789,
      "timestamp": "2020-12-19T22:40:53Z",
      "version": 4,
      "changeset": 96123999,
      "user": "kdkeller",
      "uid": 43207,
      "tags": {
        "name": "Lovinac",
        "place": "village",
        "population": "278",
        "population:date": "2011-03-31",
        "source:population": "DZS 2011",
        "wikidata": "Q12635788"
      }
    },
    {
      "type": "node",
      "id": 2335899780,
      "lat": 44.2887819,
      "lon": 15.0719286,
      "timestamp": "2018-10-26T10:44:49Z",
      "version": 2,
      "changeset": 63895889,
      "user": "Badojo",
      "uid": 8189075,
      "tags": {
        "name": "Kozjak",
        "place": "hamlet"
      }
    },
    {
      "type": "node",
      "id": 2371739847,
      "lat": 44.5470203,
      "lon": 15.1694004,
      "timestamp": "2016-06-10T10:46:46Z",
      "version": 3,
      "changeset": 39927222,
      "user": "Janjko",
      "uid": 244754,
      "tags": {
        "mountain_pass": "yes",
        "name": "Prijevoj Alaginac",
        "natural": "saddle"
      }
    },
    {
      "type": "node",
      "id": 2371739849,
      "lat": 44.5447715,
      "lon": 15.1662252,
      "timestamp": "2020-11-02T21:49:27Z",
      "version": 2,
      "changeset": 93442219,
      "user": "debeli75",
      "uid": 730886,
      "tags": {
        "name": "Kamenica",
        "natural": "spring"
      }
    },
    {
      "type": "node",
      "id": 2371790005,
      "lat": 44.4083366,
      "lon": 15.3193453,
      "timestamp": "2019-09-24T13:48:05Z",
      "version": 3,
      "changeset": 74859636,
      "user": "mterman",
      "uid": 9554492,
      "tags": {
        "amenity": "drinking_water",
        "fee": "no",
        "name": "Voda Stap",
        "wheelchair": "no"
      }
    },
    {
      "type": "node",
      "id": 2374314710,
      "lat": 44.486862,
      "lon": 15.4515606,
      "timestamp": "2022-03-23T15:27:26Z",
      "version": 3,
      "changeset": 118826589,
      "user": "vojtechzaboril",
      "uid": 8971394,
      "tags": {
        "name": "Lički Ribnik",
        "place": "village",
        "population": "93",
        "population:date": "2011-03-31",
        "source:population": "DZS 2011",
        "wikidata": "Q3511462",
        "wikipedia": "hr:Lički Ribnik"
      }
    },
    {
      "type": "node",
      "id": 2377449380,
      "lat": 44.141444,
      "lon": 14.8354373,
      "timestamp": "2013-07-07T21:54:21Z",
      "version": 1,
      "changeset": 16866670,
      "user": "Girolamo",
      "uid": 908743,
      "tags": {
        "natural": "cave_entrance"
      }
    },
    {
      "type": "node",
      "id": 2378138716,
      "lat": 44.1334115,
      "lon": 14.8693493,
      "timestamp": "2013-07-08T16:40:38Z",
      "version": 1,
      "changeset": 16875991,
      "user": "Girolamo",
      "uid": 908743,
      "tags": {
        "name": "Blato",
        "natural": "spring"
      }
    },
    {
      "type": "node",
      "id": 2378138720,
      "lat": 44.1427289,
      "lon": 14.8803827,
      "timestamp": "2017-08-21T12:37:05Z",
      "version": 2,
      "changeset": 51304124,
      "user": "joskorad",
      "uid": 825446,
      "tags": {
        "name": "Burnji Kraj",
        "place": "hamlet"
      }
    },
    {
      "type": "node",
      "id": 2378138729,
      "lat": 44.1380415,
      "lon": 14.8805635,
      "timestamp": "2013-07-26T11:12:27Z",
      "version": 2,
      "changeset": 17100250,
      "user": "Janjko",
      "uid": 244754,
      "tags": {
        "name": "Japršnji Kraj",
        "place": "hamlet"
      }
    },
    {
      "type": "node",
      "id": 2378138773,
      "lat": 44.1329657,
      "lon": 14.8624479,
      "timestamp": "2016-06-29T05:03:29Z",
      "version": 2,
      "changeset": 40357633,
      "user": "BáthoryPéter",
      "uid": 408450,
      "tags": {
        "natural": "spring"
      }
    },
    {
      "type": "node",
      "id": 2378138834,
      "lat": 44.1462164,
      "lon": 14.8612594,
      "timestamp": "2013-07-08T16:40:40Z",
      "version": 1,
      "changeset": 16875991,
      "user": "Girolamo",
      "uid": 908743,
      "tags": {
        "natural": "cave_entrance"
      }
    },
    {
      "type": "node",
      "id": 2378138849,
      "lat": 44.1431894,
      "lon": 14.8569804,
      "timestamp": "2022-02-16T07:52:42Z",
      "version": 6,
      "changeset": 117464032,
      "user": "vojtechzaboril",
      "uid": 8971394,
      "tags": {
        "name": "Verunić",
        "place": "village",
        "population": "40",
        "population:date": "2011-03-31",
        "source:population": "DZS 2011",
        "wikidata": "Q12644578",
        "wikipedia": "hr:Verunić"
      }
    },
    {
      "type": "node",
      "id": 2378262637,
      "lat": 44.1425841,
      "lon": 14.9007965,
      "timestamp": "2013-07-08T19:00:47Z",
      "version": 1,
      "changeset": 16877842,
      "user": "Girolamo",
      "uid": 908743,
      "tags": {
        "name": "Arvanj",
        "natural": "spring"
      }
    },
    {
      "type": "node",
      "id": 2378262638,
      "lat": 44.1417589,
      "lon": 14.8935083,
      "timestamp": "2013-07-08T19:00:47Z",
      "version": 1,
      "changeset": 16877842,
      "user": "Girolamo",
      "uid": 908743,
      "tags": {
        "name": "Jurjeva b.",
        "natural": "spring"
      }
    },
    {
      "type": "node",
      "id": 2379179949,
      "lat": 44.1399327,
      "lon": 14.9075318,
      "timestamp": "2013-07-09T15:20:21Z",
      "version": 1,
      "changeset": 16888419,
      "user": "Girolamo",
      "uid": 908743,
      "tags": {
        "name": "Veli Kamik",
        "shop": "convenience"
      }
    },
    {
      "type": "node",
      "id": 2382526758,
      "lat": 44.5089359,
      "lon": 15.009993,
      "timestamp": "2018-07-13T08:41:25Z",
      "version": 3,
      "changeset": 60678996,
      "user": "AlesKubr",
      "uid": 2125262,
      "tags": {
        "addr:city": "Metajna",
        "addr:postcode": "53296",
        "name": "Bakmaz",
        "opening_hours": "Mo-Sa 06:30-22:00; Su 07:00-22:00",
        "operator": "Bakmaz d.o.o.",
        "ref": "096",
        "shop": "convenience"
      }
    },
    {
      "type": "node",
      "id": 2382526759,
      "lat": 44.5091464,
      "lon": 15.00844,
      "timestamp": "2013-07-20T10:57:17Z",
      "version": 2,
      "changeset": 17021915,
      "user": "Pavel Karmelita",
      "uid": 1196374,
      "tags": {
        "name": "Market",
        "shop": "convenience"
      }
    },
    {
      "type": "node",
      "id": 2389836713,
      "lat": 44.4467403,
      "lon": 15.0531721,
      "timestamp": "2020-03-09T17:42:03Z",
      "version": 5,
      "changeset": 81976131,
      "user": "Vedran V",
      "uid": 158601,
      "tags": {
        "addr:city": "Pag",
        "addr:housenumber": "23",
        "addr:street": "Golija",
        "name": "Lorenco",
        "operator": "Lorenco d.o.o",
        "shop": "convenience",
        "source": "survey"
      }
    },
    {
      "type": "node",
      "id": 2389914660,
      "lat": 44.4423134,
      "lon": 15.0508607,
      "timestamp": "2021-06-10T14:13:43Z",
      "version": 8,
      "changeset": 106161270,
      "user": "APneunzehn74",
      "uid": 12180500,
      "tags": {
        "addr:city": "Pag",
        "addr:housenumber": "5",
        "addr:postcode": "23250",
        "addr:street": "Prosika",
        "check_date:opening_hours": "2021-06-10",
        "name": "Konzum",
        "opening_hours": "Mo-Sa 07:00-21:00; Su 07:00-21:00; PH 07:00-21:00",
        "operator": "Konzum",
        "shop": "convenience",
        "source": "survey"
      }
    },
    {
      "type": "node",
      "id": 2390319051,
      "lat": 44.4434768,
      "lon": 15.0547157,
      "timestamp": "2020-02-27T15:04:21Z",
      "version": 6,
      "changeset": 81553129,
      "user": "Vedran V",
      "uid": 158601,
      "tags": {
        "addr:city": "Pag",
        "addr:street": "Trg Petra Krešimira IV",
        "name": "Konzum",
        "operator": "Konzum",
        "shop": "convenience",
        "source": "survey"
      }
    },
    {
      "type": "node",
      "id": 2390448084,
      "lat": 44.5090944,
      "lon": 15.0103247,
      "timestamp": "2020-03-01T16:57:21Z",
      "version": 3,
      "changeset": 81648933,
      "user": "Vedran V",
      "uid": 158601,
      "tags": {
        "amenity": "drinking_water"
      }
    },
    {
      "type": "node",
      "id": 2411001867,
      "lat": 44.3068078,
      "lon": 15.0879046,
      "timestamp": "2017-08-11T19:25:02Z",
      "version": 6,
      "changeset": 51041487,
      "user": "Honet_",
      "uid": 1304908,
      "tags": {
        "name": "Gavranovic Market",
        "opening_hours": "Mo-Su 06:30-22:00",
        "shop": "convenience"
      }
    },
    {
      "type": "node",
      "id": 2418992340,
      "lat": 44.1148455,
      "lon": 15.2277008,
      "timestamp": "2015-07-31T11:27:01Z",
      "version": 2,
      "changeset": 33003428,
      "user": "Ivanż",
      "uid": 511916,
      "tags": {
        "name": "Sonik",
        "shop": "convenience"
      }
    },
    {
      "type": "node",
      "id": 2427721771,
      "lat": 44.4784256,
      "lon": 14.9200034,
      "timestamp": "2017-09-07T23:44:42Z",
      "version": 3,
      "changeset": 51828830,
      "user": "Janjko",
      "uid": 244754,
      "tags": {
        "name": "Konzum",
        "opening_hours": "Mo-Sa 07:00-22:00",
        "operator": "Konzum",
        "shop": "supermarket"
      }
    },
    {
      "type": "node",
      "id": 2429570669,
      "lat": 44.5134602,
      "lon": 14.9597373,
      "timestamp": "2018-07-14T05:57:25Z",
      "version": 2,
      "changeset": 60705242,
      "user": "AlesKubr",
      "uid": 2125262,
      "tags": {
        "internet_access": "no",
        "name": "Kamp Sveti Duh",
        "tourism": "camp_site"
      }
    },
    {
      "type": "node",
      "id": 2464753307,
      "lat": 44.1209705,
      "lon": 15.2557604,
      "timestamp": "2013-09-19T22:58:59Z",
      "version": 1,
      "changeset": 17931638,
      "user": "ipuzek",
      "uid": 408924,
      "tags": {
        "name": "Konzum",
        "opening_hours": "Mo-Sa 07:00-21:00; Su 07:00-12:00",
        "shop": "convenience"
      }
    },
    {
      "type": "node",
      "id": 2465271874,
      "lat": 44.1191433,
      "lon": 15.2537976,
      "timestamp": "2013-09-20T11:21:02Z",
      "version": 1,
      "changeset": 17938374,
      "user": "ipuzek",
      "uid": 408924,
      "tags": {
        "name": "Bakmaz",
        "shop": "convenience"
      }
    },