{
  "osm3s": {
    "timestamp_osm_date": "2021-09-20T23:59:59Z",
    "timestamp_osm_base": "2021-09-21T02:57:16Z",
    "copyright": "The data included in this document is from www.openstreetmap.org. The data is made available under ODbL."
  },
  "elements": [
    {
      "type": "node",
      "id": 96909012,
      "lat": 37.6432525,
      "lon": -118.9668509,
      "timestamp": "2017-09-24T21:07:20Z",
      "version": 7,
      "changeset": 52339423,
      "user": "nyuriks",
      "uid": 339581,
      "tags": {
        "ele": "2400",
        "is_in": "California, USA",
        "name": "Mammoth Lakes",
        "place": "town",
        "population": "8234",
        "wikidata": "Q983604",
        "wikipedia": "en:Mammoth Lakes"
      }
    },
    {
      "type": "node",
      "id": 150933702,
      "lat": 37.2310582,
      "lon": -119.4943019,
      "timestamp": "2008-12-06T13:34:14Z",
      "version": 2,
      "changeset": 145015,
      "user": "davidearl",
      "uid": 3582,
      "tags": {
        "ele": "808",
        "gnis:Class": "Populated Place",
        "gnis:County": "Madera",
        "gnis:County_num": "039",
        "gnis:ST_alpha": "CA",
        "gnis:ST_num": "06",
        "gnis:id": "1656321",
        "import_uuid": "bb7269ee-502a-5391-8056-e3ce0e66489c",
        "is_in": "Madera,California,Calif.,CA,USA",
        "name": "South Fork",
        "place": "hamlet"
      }
    },
    {
      "type": "node",
      "id": 150935761,
      "lat": 37.2521504,
      "lon": -119.1737399,
      "timestamp": "2021-09-01T19:58:56Z",
      "version": 6,
      "changeset": 110583523,
      "user": "OddlyAngled",
      "uid": 11607814,
      "tags": {
        "ele": "2132",
        "gnis:County": "Fresno",
        "gnis:County_num": "019",
        "gnis:ST_alpha": "CA",
        "gnis:ST_num": "06",
        "gnis:id": "1658931",
        "name": "Lakeshore",
        "place": "hamlet",
        "wikidata": "Q6479012"
      }
    },
    {
      "type": "node",
      "id": 150939163,
      "lat": 37.1905014,
      "lon": -119.2598456,
      "timestamp": "2021-09-01T19:58:56Z",
      "version": 4,
      "changeset": 110583523,
      "user": "OddlyAngled",
      "uid": 11607814,
      "tags": {
        "ele": "1382",
        "gnis:County": "Fresno",
        "gnis:County_num": "019",
        "gnis:ST_alpha": "CA",
        "gnis:ST_num": "06",
        "gnis:id": "1658203",
        "name": "Camp Sierra",
        "place": "hamlet",
        "wikidata": "Q5027589"
      }
    },
    {
      "type": "node",
      "id": 150940317,
      "lat": 37.349388,
      "lon": -119.4837491,
      "timestamp": "2017-06-01T08:50:57Z",
      "version": 3,
      "changeset": 49158080,
      "user": "nmixter",
      "uid": 55774,
      "tags": {
        "access": "private",
        "ele": "1651",
        "gnis:Class": "Populated Place",
        "gnis:County": "Madera",
        "gnis:County_num": "039",
        "gnis:ST_alpha": "CA",
        "gnis:ST_num": "06",
        "gnis:id": "1658252",
        "import_uuid": "bb7269ee-502a-5391-8056-e3ce0e66489c",
        "is_in": "Madera,California,Calif.,CA,USA",
        "name": "Central Camp",
        "place": "hamlet"
      }
    },
    {
      "type": "node",
      "id": 150957252,
      "lat": 37.2671666,
      "lon": -119.1262305,
      "timestamp": "2021-09-01T19:58:56Z",
      "version": 4,
      "changeset": 110583523,
      "user": "OddlyAngled",
      "uid": 11607814,
      "tags": {
        "ele": "2429",
        "gnis:County": "Fresno",
        "gnis:County_num": "019",
        "gnis:ST_alpha": "CA",
        "gnis:ST_num": "06",
        "gnis:id": "1659803",
        "name": "Snow Bend",
        "place": "hamlet",
        "wikidata": "Q7548177"
      }
    },
    {
      "type": "node",
      "id": 150965090,
      "lat": 37.2296694,
      "lon": -119.5095807,
      "timestamp": "2008-12-06T13:40:03Z",
      "version": 2,
      "changeset": 145015,
      "user": "davidearl",
      "uid": 3582,
      "tags": {
        "ele": "804",
        "gnis:Class": "Populated Place",
        "gnis:County": "Madera",
        "gnis:County_num": "039",
        "gnis:ST_alpha": "CA",
        "gnis:ST_num": "06",
        "gnis:id": "1659768",
        "import_uuid": "bb7269ee-502a-5391-8056-e3ce0e66489c",
        "is_in": "Madera,California,Calif.,CA,USA",
        "name": "North Fork",
        "place": "hamlet"
      }
    },
    {
      "type": "node",
      "id": 150965224,
      "lat": 37.2049456,
      "lon": -119.2459561,
      "timestamp": "2021-09-01T19:58:56Z",
      "version": 4,
      "changeset": 110583523,
      "user": "OddlyAngled",
      "uid": 11607814,
      "tags": {
        "ele": "1519",
        "gnis:County": "Fresno",
        "gnis:County_num": "019",
        "gnis:ST_alpha": "CA",
        "gnis:ST_num": "06",
        "gnis:id": "1659696",
        "name": "Big Creek",
        "place": "hamlet",
        "wikidata": "Q2472425"
      }
    },
    {
      "type": "node",
      "id": 150969823,
      "lat": 37.2317408,
      "lon": -119.2356881,
      "timestamp": "2021-09-01T19:58:56Z",
      "version": 6,
      "changeset": 110583523,
      "user": "OddlyAngled",
      "uid": 11607814,
      "tags": {
        "ele": "2142",
        "gnis:County": "Fresno",
        "gnis:County_num": "019",
        "gnis:ST_alpha": "CA",
        "gnis:ST_num": "06",
        "gnis:id": "1658802",
        "name": "Huntington Lake",
        "place": "hamlet",
        "wikidata": "Q5945396"
      }
    },
    {
      "type": "node",
      "id": 150970810,
      "lat": 37.2305024,
      "lon": -119.4551334,
      "timestamp": "2008-12-06T13:41:03Z",
      "version": 2,
      "changeset": 145015,
      "user": "davidearl",
      "uid": 3582,
      "tags": {
        "ele": "1112",
        "gnis:Class": "Populated Place",
        "gnis:County": "Madera",
        "gnis:County_num": "039",
        "gnis:ST_alpha": "CA",
        "gnis:ST_num": "06",
        "gnis:id": "1667436",
        "import_uuid": "bb7269ee-502a-5391-8056-e3ce0e66489c",
        "is_in": "Madera,California,Calif.,CA,USA",
        "name": "Cascadel Woods",
        "place": "hamlet"
      }
    },
    {
      "type": "node",
      "id": 150971566,
      "lat": 37.2466536,
      "lon": -119.1921794,
      "timestamp": "2021-09-01T19:58:56Z",
      "version": 7,
      "changeset": 110583523,
      "user": "OddlyAngled",
      "uid": 11607814,
      "tags": {
        "ele": "2157",
        "gnis:County": "Fresno",
        "gnis:County_num": "019",
        "gnis:ST_alpha": "CA",
        "gnis:ST_num": "06",
        "gnis:id": "276229",
        "name": "Cedar Crest",
        "place": "hamlet",
        "wikidata": "Q5056655"
      }
    },
    {
      "type": "node",
      "id": 150978998,
      "lat": 37.5990811,
      "lon": -118.9985362,
      "timestamp": "2018-04-23T13:37:43Z",
      "version": 4,
      "changeset": 58339534,
      "user": "Edward",
      "uid": 364,
      "tags": {
        "created_by": "Potlatch 0.10f",
        "ele": "2733",
        "gnis:Class": "Populated Place",
        "gnis:County": "Mono",
        "gnis:County_num": "051",
        "gnis:ST_alpha": "CA",
        "gnis:ST_num": "06",
        "gnis:id": "252300",
        "import_uuid": "bb7269ee-502a-5391-8056-e3ce0e66489c",
        "is_in": "Mono,California,Calif.,CA,USA",
        "name": "Lake Mary",
        "place": "hamlet",
        "wikidata": "Q3826217"
      }
    },
    {
      "type": "node",
      "id": 358770817,
      "lat": 37.6618792,
      "lon": -119.1781938,
      "timestamp": "2021-04-28T15:26:30Z",
      "version": 3,
      "changeset": 103787141,
      "user": "OddlyAngled",
      "uid": 11607814,
      "tags": {
        "ele": "3654",
        "fixme": "determine if this should this be a group or a ridge",
        "gnis:county_id": "039",
        "gnis:created": "01/19/1981",
        "gnis:feature_id": "228781",
        "gnis:state_id": "06",
        "name": "Minarets",
        "natural": "peak",
        "wikidata": "Q2412852"
      }
    },
    {
      "type": "node",
      "id": 358795277,
      "lat": 37.5964838,
      "lon": -119.4935497,
      "timestamp": "2021-04-20T15:31:50Z",
      "version": 3,
      "changeset": 103281182,
      "user": "OddlyAngled",
      "uid": 11607814,
      "tags": {
        "ele": "2964",
        "gnis:county_id": "039",
        "gnis:created": "08/01/1989",
        "gnis:feature_id": "252498",
        "gnis:state_id": "06",
        "name": "Mount Bruce",
        "natural": "peak",
        "wikidata": "Q20714875"
      }
    },
    {
      "type": "node",
      "id": 358795537,
      "lat": 37.634895,
      "lon": -119.39457,
      "timestamp": "2021-05-16T03:48:24Z",
      "version": 4,
      "changeset": 104753727,
      "user": "Stoaty Marmot",
      "uid": 13159520,
      "tags": {
        "ele": "3567",
        "gnis:county_id": "039",
        "gnis:created": "01/19/1981",
        "gnis:feature_id": "253545",
        "gnis:state_id": "06",
        "name": "Merced Peak",
        "natural": "peak",
        "wikidata": "Q6818076"
      }
    },
    {
      "type": "node",
      "id": 358795713,
      "lat": 37.7027053,
      "lon": -119.5176583,
      "timestamp": "2017-09-09T14:56:21Z",
      "version": 2,
      "changeset": 51882349,
      "user": "Edward",
      "uid": 364,
      "tags": {
        "ele": "2767",
        "gnis:county_id": "043",
        "gnis:created": "01/19/1981",
        "gnis:feature_id": "253928",
        "gnis:state_id": "06",
        "name": "Mount Starr King",
        "natural": "peak",
        "wikidata": "Q6923841"
      }
    },
    {
      "type": "node",
      "id": 358796070,
      "lat": 37.6963183,
      "lon": -119.4284859,
      "timestamp": "2017-09-09T14:56:06Z",
      "version": 3,
      "changeset": 51882349,
      "user": "Edward",
      "uid": 364,
      "tags": {
        "ele": "3512",
        "gnis:county_id": "043",
        "gnis:created": "01/19/1981",
        "gnis:feature_id": "254748",
        "gnis:state_id": "06",
        "name": "Mount Clark",
        "name:zh": "克拉克峰",
        "natural": "peak",
        "wikidata": "Q3321760"
      }
    },
    {
      "type": "node",
      "id": 358796748,
      "lat": 37.69657,
      "lon": -119.19466,
      "timestamp": "2021-05-19T21:53:52Z",
      "version": 4,
      "changeset": 104986193,
      "user": "Stoaty Marmot",
      "uid": 13159520,
      "tags": {
        "ele": "3940",
        "gnis:county_id": "039",
        "gnis:created": "01/19/1981",
        "gnis:feature_id": "256500",
        "gnis:state_id": "06",
        "name": "Banner Peak",
        "natural": "peak",
        "wikidata": "Q4856923"
      }
    },
    {
      "type": "node",
      "id": 358796959,
      "lat": 37.5604916,
      "lon": -118.9070722,
      "timestamp": "2018-04-23T13:37:54Z",
      "version": 2,
      "changeset": 58339534,
      "user": "Edward",
      "uid": 364,
      "tags": {
        "ele": "3825",
        "gnis:county_id": "051",
        "gnis:created": "01/19/1981",
        "gnis:feature_id": "257211",
        "gnis:state_id": "06",
        "name": "Bloody Mountain",
        "natural": "peak",
        "wikidata": "Q14681615"
      }
    },
    {
      "type": "node",
      "id": 358797280,
      "lat": 37.2188339,
      "lon": -119.1567865,
      "timestamp": "2018-03-01T21:51:21Z",
      "version": 2,
      "changeset": 56801817,
      "user": "Edward",
      "uid": 364,
      "tags": {
        "ele": "2599",
        "gnis:county_id": "019",
        "gnis:created": "01/19/1981",
        "gnis:feature_id": "258322",
        "gnis:state_id": "06",
        "name": "Chinese Peak",
        "natural": "peak",
        "wikidata": "Q19864525"
      }
    },
    {
      "type": "node",
      "id": 358797499,
      "lat": 37.714943,
      "lon": -119.219604,
      "timestamp": "2021-05-19T21:56:10Z",
      "version": 4,
      "changeset": 104986281,
      "user": "Stoaty Marmot",
      "uid": 13159520,
      "tags": {
        "ele": "3740",
        "gnis:county_id": "039",
        "gnis:created": "01/19/1981",
        "gnis:feature_id": "259099",
        "gnis:state_id": "06",
        "name": "Mount Davis",
        "natural": "peak",
        "wikidata": "Q6920375"
      }
    },
    {
      "type": "node",
      "id": 358797693,
      "lat": 37.705082,
      "lon": -119.26025,
      "timestamp": "2021-05-24T14:01:57Z",
      "version": 4,
      "changeset": 105232070,
      "user": "OddlyAngled",
      "uid": 11607814,
      "tags": {
        "ele": "3792",
        "gnis:county_id": "039",
        "gnis:created": "01/19/1981",
        "gnis:feature_id": "259833",
        "gnis:state_id": "06",
        "name": "Electra Peak",
        "natural": "peak",
        "wikidata": "Q49027520",
        "wikipedia": "en:Electra Peak"
      }
    },
    {
      "type": "node",
      "id": 358797821,
      "lat": 37.689945,
      "lon": -119.29082,
      "timestamp": "2021-05-24T14:01:57Z",
      "version": 3,
      "changeset": 105232070,
      "user": "OddlyAngled",
      "uid": 11607814,
      "tags": {
        "ele": "3670",
        "gnis:county_id": "039",
        "gnis:created": "01/19/1981",
        "gnis:feature_id": "260227",
        "gnis:state_id": "06",
        "name": "Foerster Peak",
        "natural": "peak",
        "wikidata": "Q49029862",
        "wikipedia": "en:Foerster Peak"
      }
    },
    {
      "type": "node",
      "id": 358798464,
      "lat": 37.5802599,
      "lon": -118.8914384,
      "timestamp": "2021-06-17T14:27:26Z",
      "version": 3,
      "changeset": 106536127,
      "user": "OddlyAngled",
      "uid": 11607814,
      "tags": {
        "ele": "3604",
        "gnis:county_id": "051",
        "gnis:created": "01/19/1981",
        "gnis:feature_id": "262357",
        "gnis:state_id": "06",
        "name": "Laurel Mountain",
        "natural": "peak",
        "wikidata": "Q6499918"
      }
    },
    {
      "type": "node",
      "id": 358798697,
      "lat": 37.6307692,
      "lon": -119.032634,
      "timestamp": "2020-10-13T20:29:42Z",
      "version": 6,
      "changeset": 92437643,
      "user": "Fluffy89502",
      "uid": 10165657,
      "tags": {
        "ele": "3355",
        "gnis:county_id": "051",
        "gnis:created": "01/19/1981",
        "gnis:feature_id": "263144",
        "gnis:state_id": "06",
        "name": "Mammoth Mountain",
        "natural": "volcano",
        "wikidata": "Q953984",
        "wikipedia": "en:Mammoth Mountain"
      }
    },
    {
      "type": "node",
      "id": 358798894,
      "lat": 37.5613238,
      "lon": -118.8584611,
      "timestamp": "2018-04-23T13:37:38Z",
      "version": 2,
      "changeset": 58339534,
      "user": "Edward",
      "uid": 364,
      "tags": {
        "ele": "3731",
        "gnis:county_id": "051",
        "gnis:created": "01/19/1981",
        "gnis:feature_id": "263848",
        "gnis:state_id": "06",
        "name": "Mount Morrison",
        "natural": "peak",
        "wikidata": "Q163232"
      }
    },
    {
      "type": "node",
      "id": 358799334,
      "lat": 37.5876931,
      "lon": -119.0587632,
      "timestamp": "2021-05-18T13:50:43Z",
      "version": 3,
      "changeset": 104895919,
      "user": "Stoaty Marmot",
      "uid": 13159520,
      "tags": {
        "ele": "2746",
        "gnis:county_id": "039",
        "gnis:created": "01/19/1981",
        "gnis:feature_id": "265263",
        "gnis:state_id": "06",
        "name": "Red Cones",
        "natural": "peak",
        "wikidata": "Q7303931"
      }
    },
    {
      "type": "node",
      "id": 358799391,
      "lat": 37.507436,
      "lon": -118.8692918,
      "timestamp": "2018-04-23T13:37:40Z",
      "version": 2,
      "changeset": 58339534,
      "user": "Edward",
      "uid": 364,
      "tags": {
        "ele": "4005",
        "gnis:county_id": "051",
        "gnis:created": "01/19/1981",
        "gnis:feature_id": "265332",
        "gnis:state_id": "06",
        "name": "Red Slate Mountain",
        "natural": "peak",
        "wikidata": "Q1405920"
      }
    },
    {
      "type": "node",
      "id": 358800424,
      "lat": 37.631718,
      "lon": -119.37026,
      "timestamp": "2020-09-22T16:37:58Z",
      "version": 3,
      "changeset": 91309911,
      "user": "OddlyAngled",
      "uid": 11607814,
      "tags": {
        "ele": "3533",
        "gnis:county_id": "039",
        "gnis:created": "01/19/1981",
        "gnis:feature_id": "268414",
        "gnis:state_id": "06",
        "name": "Triple Divide Peak",
        "natural": "peak",
        "wikidata": "Q7843381"
      }
    },
    {
      "type": "node",
      "id": 358802498,
      "lat": 37.6979664,
      "lon": -119.281586,
      "timestamp": "2021-05-24T14:01:57Z",
      "version": 5,
      "changeset": 105232070,
      "user": "OddlyAngled",
      "uid": 11607814,
      "tags": {
        "ele": "3584",
        "gnis:county_id": "039",
        "gnis:created": "05/01/1989",
        "gnis:feature_id": "274668",
        "gnis:state_id": "06",
        "name": "Mount Ansel Adams",
        "natural": "peak",
        "wikidata": "Q6919416",
        "wikipedia": "en:Mount Ansel Adams"
      }
    },
    {
      "type": "node",
      "id": 358807186,
      "lat": 37.689056,
      "lon": -119.199554,
      "timestamp": "2021-04-30T22:12:43Z",
      "version": 4,
      "changeset": 103937288,
      "user": "Stoaty Marmot",
      "uid": 13159520,
      "tags": {
        "ele": "4007",
        "gnis:county_id": "039",
        "gnis:created": "01/19/1981",
        "gnis:feature_id": "1659516",
        "gnis:state_id": "06",
        "name": "Mount Ritter",
        "natural": "peak",
        "wikidata": "Q841110"
      }
    },
    {
      "type": "node",
      "id": 358807250,
      "lat": 37.4804963,
      "lon": -119.0267892,
      "timestamp": "2018-03-01T21:51:06Z",
      "version": 2,
      "changeset": 56801817,
      "user": "Edward",
      "uid": 364,
      "tags": {
        "ele": "3551",
        "gnis:county_id": "019",
        "gnis:created": "01/19/1981",
        "gnis:feature_id": "1659632",
        "gnis:state_id": "06",
        "name": "Sharktooth Peak",
        "natural": "peak",
        "wikidata": "Q7489872"
      }
    },
    {
      "type": "node",
      "id": 370333563,
      "lat": 37.661748,
      "lon": -119.1581487,
      "timestamp": "2021-08-21T17:41:15Z",
      "version": 3,
      "changeset": 110037003,
      "user": "OddlyAngled",
      "uid": 11607814,
      "tags": {
        "backcountry": "yes",
        "tourism": "camp_site"
      }
    },
    {
      "type": "node",
      "id": 621780387,
      "lat": 37.5011156,
      "lon": -118.860549,
      "timestamp": "2021-04-27T23:25:31Z",
      "version": 4,
      "changeset": 103734960,
      "user": "Stoaty Marmot",
      "uid": 13159520,
      "tags": {
        "ele": "3620",
        "gnis:feature_id": "263358",
        "mountain_pass": "yes",
        "name": "McGee Pass",
        "natural": "saddle"
      }
    },
    {
      "type": "node",
      "id": 621780973,
      "lat": 37.5350765,
      "lon": -118.904779,
      "timestamp": "2021-06-13T23:21:58Z",
      "version": 2,
      "changeset": 106300010,
      "user": "grasshappa",
      "uid": 13554486,
      "tags": {
        "name": "Bunny Pass",
        "natural": "saddle"
      }
    },
    {
      "type": "node",
      "id": 621780991,
      "lat": 37.5453444,
      "lon": -118.913252,
      "timestamp": "2021-06-13T23:21:58Z",
      "version": 2,
      "changeset": 106300010,
      "user": "grasshappa",
      "uid": 13554486,
      "tags": {
        "name": "Ram Pass",
        "natural": "saddle"
      }
    },
    {
      "type": "node",
      "id": 621784842,
      "lat": 37.689587,
      "lon": -119.0716541,
      "timestamp": "2021-05-18T14:52:58Z",
      "version": 3,
      "changeset": 104898988,
      "user": "OddlyAngled",
      "uid": 11607814,
      "tags": {
        "ele": "3045",
        "fixme": "confirm location; maps and GNIS put it further south",
        "gnis:feature_id": "1658383",
        "mountain_pass": "yes",
        "name": "Deadman Pass",
        "natural": "saddle",
        "source": "USGS topos"
      }
    },
    {
      "type": "node",
      "id": 762008590,
      "lat": 37.558757,
      "lon": -118.96256,
      "timestamp": "2021-04-29T17:43:00Z",
      "version": 6,
      "changeset": 103862139,
      "user": "Stoaty Marmot",
      "uid": 13159520,
      "tags": {
        "ele": "3292",
        "mountain_pass": "yes",
        "name": "Duck Pass",
        "natural": "saddle"
      }
    },
    {
      "type": "node",
      "id": 853857314,
      "lat": 37.6023682,
      "lon": -119.048569,
      "timestamp": "2010-08-10T22:10:44Z",
      "version": 1,
      "changeset": 5458288,
      "user": "Erik Burrows",
      "uid": 191585,
      "tags": {
        "natural": "spring"
      }
    },
    {
      "type": "node",
      "id": 853857899,
      "lat": 37.5184584,
      "lon": -118.9619222,
      "timestamp": "2010-08-10T22:10:57Z",
      "version": 1,
      "changeset": 5458288,
      "user": "Erik Burrows",
      "uid": 191585,
      "tags": {
        "natural": "spring"
      }
    },
    {
      "type": "node",
      "id": 853860601,
      "lat": 37.6085541,
      "lon": -119.033796,
      "timestamp": "2021-04-28T20:24:52Z",
      "version": 5,
      "changeset": 103800269,
      "user": "Stoaty Marmot",
      "uid": 13159520,
      "tags": {
        "ele": "2860",
        "gnis:feature_id": "263146",
        "mountain_pass": "yes",
        "name": "Mammoth Pass",
        "natural": "saddle",
        "source": "USGS topos"
      }
    },
    {
      "type": "node",
      "id": 853861242,
      "lat": 37.5648649,
      "lon": -119.0079228,
      "timestamp": "2010-08-10T22:12:02Z",
      "version": 1,
      "changeset": 5458288,
      "user": "Erik Burrows",
      "uid": 191585,
      "tags": {
        "natural": "spring"
      }
    },
    {
      "type": "node",
      "id": 853862317,
      "lat": 37.5637073,
      "lon": -119.0410815,
      "timestamp": "2010-08-10T22:12:20Z",
      "version": 1,
      "changeset": 5458288,
      "user": "Erik Burrows",
      "uid": 191585,
      "tags": {
        "natural": "spring"
      }
    },
    {
      "type": "node",
      "id": 855155134,
      "lat": 37.5978484,
      "lon": -119.0659355,
      "timestamp": "2010-08-11T19:09:59Z",
      "version": 1,
      "changeset": 5465937,
      "user": "USWilderness",
      "uid": 323496,
      "tags": {
        "natural": "spring"
      }
    },
    {
      "type": "node",
      "id": 855156693,
      "lat": 37.6024921,
      "lon": -119.0650933,
      "timestamp": "2010-08-11T19:10:32Z",
      "version": 1,
      "changeset": 5465937,
      "user": "USWilderness",
      "uid": 323496,
      "tags": {
        "natural": "spring"
      }
    },
    {
      "type": "node",
      "id": 855157759,
      "lat": 37.6021134,
      "lon": -119.0648657,
      "timestamp": "2010-08-11T19:10:56Z",
      "version": 1,
      "changeset": 5465937,
      "user": "USWilderness",
      "uid": 323496,
      "tags": {
        "natural": "spring"
      }
    },
    {
      "type": "node",
      "id": 855161716,
      "lat": 37.601374,
      "lon": -119.0642283,
      "timestamp": "2010-08-11T19:12:24Z",
      "version": 1,
      "changeset": 5465937,
      "user": "USWilderness",
      "uid": 323496,
      "tags": {
        "natural": "spring"
      }
    },
    {
      "type": "node",
      "id": 859495064,
      "lat": 37.6072909,
      "lon": -119.1757886,
      "timestamp": "2010-08-13T22:08:56Z",
      "version": 1,
      "changeset": 5486373,
      "user": "Erik Burrows",
      "uid": 191585,
      "tags": {
        "natural": "spring"
      }
    },
    {
      "type": "node",
      "id": 870986588,
      "lat": 37.6378081,
      "lon": -118.8623179,
      "timestamp": "2010-08-20T20:27:00Z",
      "version": 1,
      "changeset": 5546981,
      "user": "Erik Burrows",
      "uid": 191585,
      "tags": {
        "natural": "spring",
        "source": "USGS Topo"
      }
    },
    {
      "type": "node",
      "id": 870987143,
      "lat": 37.6387536,
      "lon": -118.8561883,
      "timestamp": "2010-08-20T20:27:12Z",
      "version": 1,
      "changeset": 5546981,
      "user": "Erik Burrows",
      "uid": 191585,
      "tags": {
        "natural": "spring",
        "source": "USGS Topo"
      }
    },
    {
      "type": "node",
      "id": 877590511,
      "lat": 37.4637289,
      "lon": -119.0526605,
      "timestamp": "2021-08-21T17:41:15Z",
      "version": 2,
      "changeset": 110037003,
      "user": "OddlyAngled",
      "uid": 11607814,
      "tags": {
        "backcountry": "yes",
        "source": "USGS Topo",
        "tourism": "camp_site"
      }
    },
    {
      "type": "node",
      "id": 877590762,
      "lat": 37.5332052,
      "lon": -119.0209127,
      "timestamp": "2010-09-18T04:57:15Z",
      "version": 3,
      "changeset": 5808711,
      "user": "nmixter",
      "uid": 55774,
      "tags": {
        "name": "Iva Bell Hot Springs",
        "natural": "spring",
        "source": "USGS Topo"
      }
    },
    {
      "type": "node",
      "id": 877590895,
      "lat": 37.5320916,
      "lon": -119.1196135,
      "timestamp": "2010-08-24T19:06:21Z",
      "version": 1,
      "changeset": 5582873,
      "user": "Erik Burrows",
      "uid": 191585,
      "tags": {
        "natural": "spring",
        "source": "USGS Topo"
      }
    },
    {
      "type": "node",
      "id": 877591848,
      "lat": 37.5304355,
      "lon": -119.1149258,
      "timestamp": "2010-08-24T19:07:39Z",
      "version": 1,
      "changeset": 5582873,
      "user": "Erik Burrows",
      "uid": 191585,
      "tags": {
        "natural": "spring",
        "source": "USGS Topo"
      }
    },
    {
      "type": "node",
      "id": 877592397,
      "lat": 37.5304333,
      "lon": -119.0320777,
      "timestamp": "2010-08-24T19:08:09Z",
      "version": 1,
      "changeset": 5582873,
      "user": "Erik Burrows",
      "uid": 191585,
      "tags": {
        "natural": "spring",
        "source": "USGS Topo"
      }
    },
    {
      "type": "node",
      "id": 877593155,
      "lat": 37.4946391,
      "lon": -119.1115712,
      "timestamp": "2021-08-21T17:41:15Z",
      "version": 2,
      "changeset": 110037003,
      "user": "OddlyAngled",
      "uid": 11607814,
      "tags": {
        "backcountry": "yes",
        "source": "USGS Topo",
        "tourism": "camp_site"
      }
    },
    {
      "type": "node",
      "id": 877593724,
      "lat": 37.457926,
      "lon": -119.060476,
      "timestamp": "2021-08-21T17:41:15Z",
      "version": 2,
      "changeset": 110037003,
      "user": "OddlyAngled",
      "uid": 11607814,
      "tags": {
        "backcountry": "yes",
        "source": "USGS Topo",
        "tourism": "camp_site"
      }
    },
    {
      "type": "node",
      "id": 877593751,
      "lat": 37.530299,
      "lon": -119.0329707,
      "timestamp": "2010-08-24T19:08:55Z",
      "version": 1,
      "changeset": 5582873,
      "user": "Erik Burrows",
      "uid": 191585,
      "tags": {
        "natural": "spring",
        "source": "USGS Topo"
      }
    },
    {
      "type": "node",
      "id": 877594751,
      "lat": 37.4704978,
      "lon": -119.0345904,
      "timestamp": "2021-08-21T17:41:15Z",
      "version": 2,
      "changeset": 110037003,
      "user": "OddlyAngled",
      "uid": 11607814,
      "tags": {
        "backcountry": "yes",
        "source": "USGS Topo",
        "tourism": "camp_site"
      }
    },
    {
      "type": "node",
      "id": 877594766,
      "lat": 37.5318151,
      "lon": -119.0195208,
      "timestamp": "2010-08-24T19:09:57Z",
      "version": 1,
      "changeset": 5582873,
      "user": "Erik Burrows",
      "uid": 191585,
      "tags": {
        "name": "Iva Bell Hot Springs",
        "natural": "spring",
        "source": "USGS Topo"
      }
    },
    {
      "type": "node",
      "id": 877594982,
      "lat": 37.4697024,
      "lon": -119.0800956,
      "timestamp": "2021-08-21T17:41:15Z",
      "version": 2,
      "changeset": 110037003,
      "user": "OddlyAngled",
      "uid": 11607814,
      "tags": {
        "backcountry": "yes",
        "source": "USGS Topo",
        "tourism": "camp_site"
      }
    },
    {
      "type": "node",
      "id": 877595307,
      "lat": 37.4733971,
      "lon": -119.0403268,
      "timestamp": "2021-08-21T17:41:15Z",
      "version": 2,
      "changeset": 110037003,
      "user": "OddlyAngled",
      "uid": 11607814,
      "tags": {
        "backcountry": "yes",
        "source": "USGS Topo",
        "tourism": "camp_site"
      }
    },
    {
      "type": "node",
      "id": 877595642,
      "lat": 37.4620812,
      "lon": -119.0351771,
      "timestamp": "2021-08-21T17:41:15Z",
      "version": 2,
      "changeset": 110037003,
      "user": "OddlyAngled",
      "uid": 11607814,
      "tags": {
        "backcountry": "yes",
        "source": "USGS Topo",
        "tourism": "camp_site"
      }
    },
    {
      "type": "node",
      "id": 877595670,
      "lat": 37.5336124,
      "lon": -119.0222676,
      "timestamp": "2010-08-24T19:10:57Z",
      "version": 1,
      "changeset": 5582873,
      "user": "Erik Burrows",
      "uid": 191585,
      "tags": {
        "name": "Iva Bell Hot Springs",
        "natural": "spring",
        "source": "USGS Topo"
      }
    },
    {
      "type": "node",
      "id": 901392104,
      "lat": 37.5375688,
      "lon": -119.0723285,
      "timestamp": "2020-01-16T18:27:01Z",
      "version": 2,
      "changeset": 79661368,
      "user": "kylebarron",
      "uid": 8122137,
      "tags": {
        "natural": "spring"
      }
    },
    {
      "type": "node",
      "id": 902018294,
      "lat": 37.5866655,
      "lon": -119.062381,
      "timestamp": "2020-10-27T03:18:11Z",
      "version": 2,
      "changeset": 93088014,
      "user": "BryanOSullivan",
      "uid": 10729167,
      "tags": {
        "natural": "spring"
      }
    },
    {
      "type": "node",
      "id": 902021122,
      "lat": 37.5454692,
      "lon": -119.0911272,
      "timestamp": "2021-06-05T16:15:26Z",
      "version": 2,
      "changeset": 105888845,
      "user": "OddlyAngled",
      "uid": 11607814,
      "tags": {
        "natural": "spring"
      }
    },
    {
      "type": "node",
      "id": 902827614,
      "lat": 37.5452219,
      "lon": -119.0918996,
      "timestamp": "2021-06-05T16:15:26Z",
      "version": 2,
      "changeset": 105888845,
      "user": "OddlyAngled",
      "uid": 11607814,
      "tags": {
        "natural": "spring"
      }
    },
    {
      "type": "node",
      "id": 905405900,
      "lat": 37.3144283,
      "lon": -119.5121038,
      "timestamp": "2021-06-10T15:15:47Z",
      "version": 2,
      "changeset": 106164076,
      "user": "OddlyAngled",
      "uid": 11607814,
      "tags": {
        "natural": "spring"
      }
    },
    {
      "type": "node",
      "id": 909904910,
      "lat": 37.4971211,
      "lon": -119.1164633,
      "timestamp": "2020-01-16T18:23:03Z",
      "version": 2,
      "changeset": 79661243,
      "user": "kylebarron",
      "uid": 8122137,
      "tags": {
        "natural": "spring"
      }
    },
    {
      "type": "node",
      "id": 966584047,
      "lat": 37.3788217,
      "lon": -118.9052736,
      "timestamp": "2021-08-27T20:28:18Z",
      "version": 3,
      "changeset": 110358301,
      "user": "OddlyAngled",
      "uid": 11607814,
      "tags": {
        "backcountry": "yes",
        "tourism": "camp_site"
      }
    },
    {
      "type": "node",
      "id": 966591752,
      "lat": 37.4677083,
      "lon": -118.923131,
      "timestamp": "2021-04-27T23:17:35Z",
      "version": 3,
      "changeset": 103734853,
      "user": "Stoaty Marmot",
      "uid": 13159520,
      "tags": {
        "ele": "3275",
        "gnis:feature_id": "266199",
        "name": "Silver Pass",
        "natural": "saddle"
      }
    },
    {
      "type": "node",
      "id": 966598650,
      "lat": 37.2899492,
      "lon": -118.872925,
      "timestamp": "2021-05-05T20:44:35Z",
      "version": 3,
      "changeset": 104207201,
      "user": "Stoaty Marmot",
      "uid": 13159520,
      "tags": {
        "ele": "3318",
        "gnis:feature_id": "265989",
        "mountain_pass": "yes",
        "name": "Selden Pass",
        "natural": "saddle"
      }
    },
    {
      "type": "node",
      "id": 1343514148,
      "lat": 37.4800452,
      "lon": -118.84487,
      "timestamp": "2021-04-28T14:31:04Z",
      "version": 4,
      "changeset": 103783959,
      "user": "Stoaty Marmot",
      "uid": 13159520,
      "tags": {
        "ele": "3487",
        "gnis:feature_id": "225569",
        "mountain_pass": "yes",
        "name": "Hopkins Pass",
        "natural": "saddle",
        "source": "USGS topos"
      }
    },
    {
      "type": "node",
      "id": 1416525584,
      "lat": 37.4064928,
      "lon": -118.9416074,
      "timestamp": "2020-10-01T21:15:57Z",
      "version": 5,
      "changeset": 91846662,
      "user": "OddlyAngled",
      "uid": 11607814,
      "tags": {
        "backcountry": "yes",
        "bear_box": "yes",
        "name": "Edison Ferry Pickup",
        "operator": "USFS",
        "source:pkey": "LE02",
        "tourism": "camp_site",
        "website": "http://climber.org/data/BearBoxes/LE02.html"
      }
    },
    {
      "type": "node",
      "id": 1424880118,
      "lat": 37.5729332,
      "lon": -119.266451,
      "timestamp": "2021-05-07T00:34:42Z",
      "version": 4,
      "changeset": 104279119,
      "user": "Stoaty Marmot",
      "uid": 13159520,
      "tags": {
        "ele": "2425",
        "gnis:feature_id": "252469",
        "mountain_pass": "yes",
        "name": "The Niche",
        "natural": "saddle"
      }
    },
    {
      "type": "node",
      "id": 1755686389,
      "lat": 37.600249,
      "lon": -119.50971,
      "timestamp": "2021-04-20T15:31:50Z",
      "version": 3,
      "changeset": 103281182,
      "user": "OddlyAngled",
      "uid": 11607814,
      "tags": {
        "mountain_pass": "yes",
        "name": "Buena Vista Pass",
        "natural": "saddle"
      }
    },
    {
      "type": "node",
      "id": 1755688165,
      "lat": 37.6165354,
      "lon": -119.443089,
      "timestamp": "2021-05-24T04:41:36Z",
      "version": 7,
      "changeset": 105193410,
      "user": "OddlyAngled",
      "uid": 11607814,
      "tags": {
        "ele": "2841",
        "gnis:feature_id": "228514",
        "mountain_pass": "yes",
        "name": "Merced Pass",
        "natural": "saddle"
      }
    },
    {
      "type": "node",
      "id": 1755689074,
      "lat": 37.6307466,
      "lon": -119.328343,
      "timestamp": "2021-04-28T18:58:12Z",
      "version": 5,
      "changeset": 103796991,
      "user": "Stoaty Marmot",
      "uid": 13159520,
      "tags": {
        "ele": "3274",
        "gnis:feature_id": "264989",
        "mountain_pass": "yes",
        "name": "Post Peak Pass",
        "natural": "saddle"
      }
    },
    {
      "type": "node",
      "id": 1755691015,
      "lat": 37.6445635,
      "lon": -119.326535,
      "timestamp": "2021-04-28T18:57:10Z",
      "version": 5,
      "changeset": 103796962,
      "user": "Stoaty Marmot",
      "uid": 13159520,
      "tags": {
        "ele": "3209",
        "gnis:feature_id": "261824",
        "mountain_pass": "yes",
        "name": "Isberg Pass",
        "natural": "saddle"
      }
    },
    {
      "type": "node",
      "id": 1755691870,
      "lat": 37.6504977,
      "lon": -119.404506,
      "timestamp": "2021-04-28T20:24:06Z",
      "version": 4,
      "changeset": 103800239,
      "user": "Stoaty Marmot",
      "uid": 13159520,
      "tags": {
        "ele": "3401",
        "gnis:feature_id": "252482",
        "mountain_pass": "yes",
        "name": "Red Peak Pass",
        "natural": "saddle"
      }
    },
    {
      "type": "node",
      "id": 2130151489,
      "lat": 37.4636776,
      "lon": -118.940552,
      "timestamp": "2021-04-27T23:20:22Z",
      "version": 3,
      "changeset": 103734884,
      "user": "Stoaty Marmot",
      "uid": 13159520,
      "tags": {
        "ele": "3353",
        "gnis:feature_id": "260696",
        "mountain_pass": "yes",
        "name": "Goodale Pass",
        "natural": "saddle"
      }
    },
    {
      "type": "node",
      "id": 2332493728,
      "lat": 37.2766977,
      "lon": -118.9635847,
      "timestamp": "2013-06-05T00:02:07Z",
      "version": 1,
      "changeset": 16426322,
      "user": "sonora",
      "uid": 462277,
      "tags": {
        "name": "Jackass Meadow Campground",
        "operator": "USFS",
        "source": "www.fs.usda.gov",
        "tourism": "camp_site",
        "uuid": "sonora_20130605"
      }
    },
    {
      "type": "node",
      "id": 2428394843,
      "lat": 37.5027188,
      "lon": -119.4098052,
      "timestamp": "2021-06-08T15:15:45Z",
      "version": 2,
      "changeset": 106043697,
      "user": "OddlyAngled",
      "uid": 11607814,
      "tags": {
        "capacity": "20",
        "name": "Upper Chiquito Campground",
        "reservation": "no",
        "tourism": "camp_site",
        "website": "https://www.fs.usda.gov/recarea/sierra/recarea/?recid=45536"
      }
    },
    {
      "type": "node",
      "id": 2428406471,
      "lat": 37.5389026,
      "lon": -119.44167,
      "timestamp": "2021-04-28T19:00:49Z",
      "version": 6,
      "changeset": 103797117,
      "user": "Stoaty Marmot",
      "uid": 13159520,
      "tags": {
        "ele": "2457",
        "gnis:feature_id": "254742",
        "mountain_pass": "yes",
        "name": "Chiquito Pass",
        "natural": "saddle"
      }
    },
    {
      "type": "node",
      "id": 2428498456,
      "lat": 37.5612748,
      "lon": -119.4905978,
      "timestamp": "2013-08-22T19:56:25Z",
      "version": 1,
      "changeset": 17461121,
      "user": "flemay",
      "uid": 1244865,
      "tags": {
        "natural": "spring"
      }
    },
    {
      "type": "node",
      "id": 2429329690,
      "lat": 37.6375549,
      "lon": -119.3287821,
      "timestamp": "2013-09-27T11:22:34Z",
      "version": 2,
      "changeset": 18059432,
      "user": "flemay",
      "uid": 1244865,
      "tags": {
        "natural": "spring"
      }
    },
    {
      "type": "node",
      "id": 2429364342,
      "lat": 37.6496988,
      "lon": -119.3136559,
      "timestamp": "2013-08-23T17:43:28Z",
      "version": 1,
      "changeset": 17472346,
      "user": "flemay",
      "uid": 1244865,
      "tags": {
        "natural": "spring"
      }
    },
    {
      "type": "node",
      "id": 2429453280,
      "lat": 37.53465,
      "lon": -119.4404511,
      "timestamp": "2013-08-23T19:58:53Z",
      "version": 1,
      "changeset": 17472346,
      "user": "flemay",
      "uid": 1244865,
      "tags": {
        "natural": "spring"
      }
    },
    {
      "type": "node",
      "id": 2475344789,
      "lat": 37.586649,
      "lon": -119.385229,
      "timestamp": "2021-04-28T18:59:36Z",
      "version": 4,
      "changeset": 103797060,
      "user": "Stoaty Marmot",
      "uid": 13159520,
      "tags": {
        "ele": "3103",
        "gnis:feature_id": "233872",
        "mountain_pass": "yes",
        "name": "Fernandez Pass",
        "natural": "saddle"
      }
    },
    {
      "type": "node",
      "id": 2928870904,
      "lat": 37.5091825,
      "lon": -119.3279769,
      "timestamp": "2014-06-23T07:53:29Z",
      "version": 1,
      "changeset": 23095469,
      "user": "nmixter",
      "uid": 55774,
      "tags": {
        "name": "Bowler Group Camp",
        "tourism": "camp_site"
      }
    },
    {
      "type": "node",
      "id": 2928870905,
      "lat": 37.5279617,
      "lon": -119.3463601,
      "timestamp": "2021-08-27T20:21:02Z",
      "version": 2,
      "changeset": 110358128,
      "user": "OddlyAngled",
      "uid": 11607814,
      "tags": {
        "backcountry": "yes",
        "name": "Lower Jackass Lake Campground",
        "tourism": "camp_site"
      }
    },
    {
      "type": "node",
      "id": 2928870906,
      "lat": 37.530588,
      "lon": -119.3599603,
      "timestamp": "2021-08-27T20:21:02Z",
      "version": 3,
      "changeset": 110358128,
      "user": "OddlyAngled",
      "uid": 11607814,
      "tags": {
        "backcountry": "yes",
        "name": "Upper Jackass Lake Campground",
        "tourism": "camp_site"
      }
    },
    {
      "type": "node",
      "id": 2952034581,
      "lat": 37.3601641,
      "lon": -118.987195,
      "timestamp": "2014-07-07T06:53:46Z",
      "version": 1,
      "changeset": 23997989,
      "user": "nmixter",
      "uid": 55774,
      "tags": {
        "name": "Mono Creek Overflow Campground",
        "tourism": "camp_site"
      }
    },
    {
      "type": "node",
      "id": 3056897303,
      "lat": 37.6461868,
      "lon": -118.9656907,
      "timestamp": "2014-09-03T07:05:31Z",
      "version": 1,
      "changeset": 25197380,
      "user": "Alegria",
      "uid": 246452,
      "tags": {
        "name": "Food Mart",
        "shop": "convenience"
      }
    },
    {
      "type": "node",
      "id": 3626480803,
      "lat": 37.2368667,
      "lon": -119.171044,
      "timestamp": "2018-09-22T18:28:11Z",
      "version": 2,
      "changeset": 62833313,
      "user": "flockfinder",
      "uid": 1616228,
      "tags": {
        "name": "Camp Mirimichi",
        "tourism": "camp_site"
      }
    },
    {
      "type": "node",
      "id": 3626480804,
      "lat": 37.2355207,
      "lon": -119.178965,
      "timestamp": "2018-09-22T18:25:55Z",
      "version": 4,
      "changeset": 62833262,
      "user": "flockfinder",
      "uid": 1616228,
      "tags": {
        "name": "Camp Oljato",
        "tourism": "camp_site"
      }
    },
    {
      "type": "node",
      "id": 3626480809,
      "lat": 37.2548386,
      "lon": -119.156896,
      "timestamp": "2015-06-30T07:44:15Z",
      "version": 1,
      "changeset": 32301529,
      "user": "nmixter",
      "uid": 55774,
      "tags": {
        "name": "Kokanee Work Center",
        "tourism": "camp_site"
      }
    },
    {
      "type": "node",
      "id": 3626480810,
      "lat": 37.2504891,
      "lon": -119.1631033,
      "timestamp": "2015-06-30T07:44:15Z",
      "version": 1,
      "changeset": 32301529,
      "user": "nmixter",
      "uid": 55774,
      "tags": {
        "amenity": "shelter",
        "name": "Rancheria Amphetheater"
      }
    },
    {
      "type": "node",
      "id": 3626480821,
      "lat": 37.2375951,
      "lon": -119.2285674,
      "timestamp": "2021-08-20T18:34:32Z",
      "version": 2,
      "changeset": 110001224,
      "user": "OddlyAngled",
      "uid": 11607814,
      "tags": {
        "capacity": "15",
        "fee": "yes",
        "name": "Billy Creek Lower Campground",
        "reservation": "recommended",
        "tourism": "camp_site",
        "website": "https://www.fs.usda.gov/recarea/sierra/recarea/?recid=45512"
      }
    },
    {
      "type": "node",
      "id": 3690597350,
      "lat": 37.3265435,
      "lon": -119.0172288,
      "timestamp": "2018-03-01T21:50:49Z",
      "version": 2,
      "changeset": 56801817,
      "user": "Edward",
      "uid": 364,
      "tags": {
        "ele": "2000",
        "gnis:Class": "Populated Place",
        "gnis:County": "Fresno",
        "gnis:County_num": "019",
        "gnis:ST_alpha": "CA",
        "gnis:ST_num": "06",
        "gnis:id": "1659156",
        "import_uuid": "bb7269ee-502a-5391-8056-e3ce0e66489c",
        "is_in": "Fresno,California,Calif.,CA,USA",
        "name": "Mono Hot Springs",
        "place": "hamlet",
        "wikidata": "Q6901268"
      }
    },
    {
      "type": "node",
      "id": 3842011748,
      "lat": 37.2914076,
      "lon": -119.102279,
      "timestamp": "2020-09-28T17:11:53Z",
      "version": 2,
      "changeset": 91657968,
      "user": "OddlyAngled",
      "uid": 11607814,
      "tags": {
        "ele": "2797",
        "mountain_pass": "yes",
        "name": "Kaiser Pass",
        "natural": "saddle"
      }
    },
    {
      "type": "node",
      "id": 3847881841,
      "lat": 37.2872009,
      "lon": -119.1405873,
      "timestamp": "2020-09-28T19:02:59Z",
      "version": 2,
      "changeset": 91662640,
      "user": "OddlyAngled",
      "uid": 11607814,
      "tags": {
        "name": "Potter Pass",
        "natural": "saddle"
      }
    },
    {
      "type": "node",
      "id": 4353271952,
      "lat": 37.6820827,
      "lon": -119.1695609,
      "timestamp": "2021-08-21T17:41:15Z",
      "version": 2,
      "changeset": 110037003,
      "user": "OddlyAngled",
      "uid": 11607814,
      "tags": {
        "backcountry": "yes",
        "tourism": "camp_site"
      }
    },
    {
      "type": "node",
      "id": 4368255434,
      "lat": 37.6920514,
      "lon": -119.1462712,
      "timestamp": "2021-08-21T17:41:15Z",
      "version": 2,
      "changeset": 110037003,
      "user": "OddlyAngled",
      "uid": 11607814,
      "tags": {
        "backcountry": "yes",
        "tourism": "camp_site"
      }
    },
    {
      "type": "node",
      "id": 4430055208,
      "lat": 37.6452609,
      "lon": -118.96748,
      "timestamp": "2016-10-04T01:23:29Z",
      "version": 1,
      "changeset": 42618438,
      "user": "JessAk71",
      "uid": 381909,
      "tags": {
        "amenity": "fast_food",
        "name": "Latin Market",
        "shop": "convenience"
      }
    },
    {
      "type": "node",
      "id": 4976303446,
      "lat": 37.166185,
      "lon": -119.1922434,
      "timestamp": "2017-07-17T23:22:10Z",
      "version": 1,
      "changeset": 50365562,
      "user": "flockfinder",
      "uid": 1616228,
      "tags": {
        "natural": "spring",
        "source": "traced during site visit",
        "source_note": "visited 20170717"
      }
    },
    {
      "type": "node",
      "id": 5015777839,
      "lat": 37.4914116,
      "lon": -119.3415449,
      "timestamp": "2017-08-05T04:59:12Z",
      "version": 1,
      "changeset": 50854505,
      "user": "flockfinder",
      "uid": 1616228,
      "tags": {
        "natural": "spring"
      }
    },
    {
      "type": "node",
      "id": 5393429423,
      "lat": 37.61728,
      "lon": -118.89583,
      "timestamp": "2020-04-21T03:36:58Z",
      "version": 2,
      "changeset": 83850016,
      "user": "randomdude411",
      "uid": 10951395,
      "tags": {
        "name": "Sherwin Creek",
        "tourism": "camp_site"
      }
    },
    {
      "type": "node",
      "id": 5750080322,
      "lat": 37.2276565,
      "lon": -118.8664983,
      "timestamp": "2020-01-05T22:23:36Z",
      "version": 3,
      "changeset": 79224808,
      "user": "kylebarron",
      "uid": 8122137,
      "tags": {
        "backcountry": "yes",
        "tourism": "camp_site"
      }
    },
    {
      "type": "node",
      "id": 5750080325,
      "lat": 37.2233347,
      "lon": -118.8302244,
      "timestamp": "2020-01-05T22:23:36Z",
      "version": 3,
      "changeset": 79224808,
      "user": "kylebarron",
      "uid": 8122137,
      "tags": {
        "backcountry": "yes",
        "tourism": "camp_site"
      }
    },
    {
      "type": "node",
      "id": 5750080326,
      "lat": 37.2246048,
      "lon": -118.8326208,
      "timestamp": "2020-01-05T22:23:36Z",
      "version": 3,
      "changeset": 79224808,
      "user": "kylebarron",
      "uid": 8122137,
      "tags": {
        "backcountry": "yes",
        "tourism": "camp_site"
      }
    },
    {
      "type": "node",
      "id": 5750084727,
      "lat": 37.2338762,
      "lon": -118.8809603,
      "timestamp": "2021-08-21T17:41:15Z",
      "version": 3,
      "changeset": 110037003,
      "user": "OddlyAngled",
      "uid": 11607814,
      "tags": {
        "access": "yes",
        "backcountry": "yes",
        "tents": "yes",
        "tourism": "camp_site"
      }
    },
    {
      "type": "node",
      "id": 5750084728,
      "lat": 37.3102903,
      "lon": -119.0206955,
      "timestamp": "2021-08-20T20:01:24Z",
      "version": 2,
      "changeset": 110004571,
      "user": "OddlyAngled",
      "uid": 11607814,
      "tags": {
        "tourism": "camp_site"
      }
    },
    {
      "type": "node",
      "id": 5891055330,
      "lat": 37.2594878,
      "lon": -119.1511025,
      "timestamp": "2018-09-07T14:43:38Z",
      "version": 1,
      "changeset": 62378293,
      "user": "flockfinder",
      "uid": 1616228,
      "tags": {
        "natural": "spring"
      }
    },
    {
      "type": "node",
      "id": 5891082656,
      "lat": 37.2596643,
      "lon": -119.1488178,
      "timestamp": "2018-09-07T14:50:58Z",
      "version": 1,
      "changeset": 62378478,
      "user": "flockfinder",
      "uid": 1616228,
      "tags": {
        "natural": "spring"
      }
    },
    {
      "type": "node",
      "id": 5891109518,
      "lat": 37.2593372,
      "lon": -119.1492164,
      "timestamp": "2018-09-07T14:57:01Z",
      "version": 1,
      "changeset": 62378648,
      "user": "flockfinder",
      "uid": 1616228,
      "tags": {
        "natural": "spring",
        "note": "issues from pipe; suspect outlet of french drain from under Kaiser Pass Road"
      }
    },
    {
      "type": "node",
      "id": 5896489821,
      "lat": 37.261346,
      "lon": -119.1410852,
      "timestamp": "2018-09-10T15:38:47Z",
      "version": 2,
      "changeset": 62458514,
      "user": "flockfinder",
      "uid": 1616228,
      "tags": {
        "natural": "spring"
      }
    },
    {
      "type": "node",
      "id": 5896492226,
      "lat": 37.2626866,
      "lon": -119.14066,
      "timestamp": "2018-09-12T10:58:39Z",
      "version": 3,
      "changeset": 62516376,
      "user": "mueschel",
      "uid": 616774,
      "tags": {
        "natural": "spring",
        "source": "site visit",
        "source:date": "20180910"
      }
    },
    {
      "type": "node",
      "id": 5896492227,
      "lat": 37.2622339,
      "lon": -119.140244,
      "timestamp": "2018-09-12T10:58:39Z",
      "version": 4,
      "changeset": 62516376,
      "user": "mueschel",
      "uid": 616774,
      "tags": {
        "natural": "spring",
        "source": "site visit",
        "source:date": "20180910"
      }
    },
    {
      "type": "node",
      "id": 5897046815,
      "lat": 37.2619581,
      "lon": -119.1378415,
      "timestamp": "2018-09-12T10:58:39Z",
      "version": 2,
      "changeset": 62516376,
      "user": "mueschel",
      "uid": 616774,
      "tags": {
        "natural": "spring",
        "source": "site visit",
        "source:date": "20180910"
      }
    },
    {
      "type": "node",
      "id": 5916786519,
      "lat": 37.2369025,
      "lon": -119.1671293,
      "timestamp": "2018-09-22T17:51:54Z",
      "version": 2,
      "changeset": 62832542,
      "user": "mueschel",
      "uid": 616774,
      "tags": {
        "natural": "spring",
        "source": "site visit 20180910"
      }
    },
    {
      "type": "node",
      "id": 5916804157,
      "lat": 37.2345749,
      "lon": -119.1616779,
      "timestamp": "2018-09-19T20:04:54Z",
      "version": 1,
      "changeset": 62742346,
      "user": "flockfinder",
      "uid": 1616228,
      "tags": {
        "name": "Gold Arrow Camp",
        "tourism": "camp_site"
      }
    },
    {
      "type": "node",
      "id": 6014087087,
      "lat": 37.2379199,
      "lon": -119.1879032,
      "timestamp": "2018-10-26T17:49:49Z",
      "version": 3,
      "changeset": 63908980,
      "user": "flockfinder",
      "uid": 1616228,
      "tags": {
        "name": "Camp Kern BSA",
        "tourism": "camp_site",
        "website": "http://www.sscbsa.org/CampKern"
      }
    },
    {
      "type": "node",
      "id": 6228066256,
      "lat": 37.2275015,
      "lon": -118.830127,
      "timestamp": "2020-01-14T20:43:18Z",
      "version": 2,
      "changeset": 79581835,
      "user": "kylebarron",
      "uid": 8122137,
      "tags": {
        "backcountry": "yes",
        "tourism": "camp_site"
      }
    },
    {
      "type": "node",
      "id": 6435991250,
      "lat": 37.5635193,
      "lon": -118.852547,
      "timestamp": "2021-05-05T23:01:14Z",
      "version": 3,
      "changeset": 104210709,
      "user": "Stoaty Marmot",
      "uid": 13159520,
      "tags": {
        "ele": "3324",
        "name": "Morrison Col",
        "natural": "saddle"
      }
    },
    {
      "type": "node",
      "id": 6435991895,
      "lat": 37.594165,
      "lon": -118.8511335,
      "timestamp": "2019-04-29T12:13:46Z",
      "version": 1,
      "changeset": 69693472,
      "user": "datamongers",
      "uid": 1462409,
      "tags": {
        "amenity": "drinking_water"
      }
    },
    {
      "type": "node",
      "id": 6636011693,
      "lat": 37.2378709,
      "lon": -118.8811818,
      "timestamp": "2020-10-19T18:10:32Z",
      "version": 3,
      "changeset": 92723893,
      "user": "OddlyAngled",
      "uid": 11607814,
      "tags": {
        "access": "customers",
        "name": "Muir Trail Ranch",
        "opening_hours": "Mo-Su 08:00-17:00",
        "phone": "+1 209-966-3195",
        "toilets:access": "private",
        "tourism": "alpine_hut",
        "website": "http://www.muirtrailranch.com/"
      }
    },
    {
      "type": "node",
      "id": 6734171086,
      "lat": 37.6458146,
      "lon": -118.9657139,
      "timestamp": "2020-02-07T14:12:34Z",
      "version": 2,
      "changeset": 80695496,
      "user": "mapman44",
      "uid": 2888253,
      "tags": {
        "brand": "Grocery Outlet",
        "brand:wikidata": "Q5609934",
        "brand:wikipedia": "en:Grocery Outlet",
        "name": "Grocery Outlet",
        "official_name": "Grocery Outlet Bargain Market",
        "shop": "supermarket"
      }
    },
    {
      "type": "node",
      "id": 6784294185,
      "lat": 37.7107001,
      "lon": -119.1526804,
      "timestamp": "2021-08-21T17:41:15Z",
      "version": 2,
      "changeset": 110037003,
      "user": "OddlyAngled",
      "uid": 11607814,
      "tags": {
        "backcountry": "yes",
        "tourism": "camp_site"
      }
    },
    {
      "type": "node",
      "id": 6806361496,
      "lat": 37.4900707,
      "lon": -118.8396883,
      "timestamp": "2019-09-18T18:30:38Z",
      "version": 1,
      "changeset": 74641460,
      "user": "timmmichaud",
      "uid": 4213591,
      "tags": {
        "backcountry": "yes",
        "tourism": "camp_site"
      }
    },
    {
      "type": "node",
      "id": 6818626686,
      "lat": 37.5389144,
      "lon": -118.9704685,
      "timestamp": "2021-08-21T17:41:15Z",
      "version": 2,
      "changeset": 110037003,
      "user": "OddlyAngled",
      "uid": 11607814,
      "tags": {
        "backcountry": "yes",
        "tourism": "camp_site"
      }
    },
    {
      "type": "node",
      "id": 6818626687,
      "lat": 37.270311,
      "lon": -118.8766777,
      "timestamp": "2021-08-21T17:41:15Z",
      "version": 2,
      "changeset": 110037003,
      "user": "OddlyAngled",
      "uid": 11607814,
      "tags": {
        "backcountry": "yes",
        "tourism": "camp_site"
      }
    },
    {
      "type": "node",
      "id": 6818626688,
      "lat": 37.236953,
      "lon": -118.8796353,
      "timestamp": "2021-08-27T20:28:18Z",
      "version": 2,
      "changeset": 110358301,
      "user": "OddlyAngled",
      "uid": 11607814,
      "tags": {
        "backcountry": "yes",
        "tourism": "camp_site"
      }
    },
    {
      "type": "node",
      "id": 6818634585,
      "lat": 37.6313486,
      "lon": -119.0849011,
      "timestamp": "2019-09-24T01:42:54Z",
      "version": 1,
      "changeset": 74830386,
      "user": "Mochilão Sabático",
      "uid": 7640196,
      "tags": {
        "tourism": "camp_site"
      }
    },
    {
      "type": "node",
      "id": 7022745116,
      "lat": 37.2351059,
      "lon": -118.880461,
      "timestamp": "2021-08-21T17:41:15Z",
      "version": 2,
      "changeset": 110037003,
      "user": "OddlyAngled",
      "uid": 11607814,
      "tags": {
        "access": "yes",
        "backcountry": "yes",
        "tents": "yes",
        "tourism": "camp_site"
      }
    },
    {
      "type": "node",
      "id": 7137314289,
      "lat": 37.5040458,
      "lon": -118.9237545,
      "timestamp": "2020-01-16T18:08:45Z",
      "version": 1,
      "changeset": 79660808,
      "user": "kylebarron",
      "uid": 8122137,
      "tags": {
        "natural": "spring"
      }
    },
    {
      "type": "node",
      "id": 7137314290,
      "lat": 37.5051438,
      "lon": -118.9233253,
      "timestamp": "2020-01-16T18:08:45Z",
      "version": 1,
      "changeset": 79660808,
      "user": "kylebarron",
      "uid": 8122137,
      "tags": {
        "natural": "spring"
      }
    },
    {
      "type": "node",
      "id": 7137314291,
      "lat": 37.5050672,
      "lon": -118.9214799,
      "timestamp": "2020-01-16T18:08:45Z",
      "version": 1,
      "changeset": 79660808,
      "user": "kylebarron",
      "uid": 8122137,
      "tags": {
        "natural": "spring"
      }
    },
    {
      "type": "node",
      "id": 7137314295,
      "lat": 37.5263773,
      "lon": -118.9545267,
      "timestamp": "2020-01-16T18:08:45Z",
      "version": 1,
      "changeset": 79660808,
      "user": "kylebarron",
      "uid": 8122137,
      "tags": {
        "natural": "spring"
      }
    },
    {
      "type": "node",
      "id": 7137331127,
      "lat": 37.4976886,
      "lon": -119.1166485,
      "timestamp": "2020-01-16T18:23:03Z",
      "version": 1,
      "changeset": 79661243,
      "user": "kylebarron",
      "uid": 8122137,
      "tags": {
        "natural": "spring"
      }
    },
    {
      "type": "node",
      "id": 7732470869,
      "lat": 37.5974716,
      "lon": -119.0613769,
      "timestamp": "2021-08-21T17:41:15Z",
      "version": 2,
      "changeset": 110037003,
      "user": "OddlyAngled",
      "uid": 11607814,
      "tags": {
        "backcountry": "yes",
        "tourism": "camp_site"
      }
    },
    {
      "type": "node",
      "id": 7732544322,
      "lat": 37.5909423,
      "lon": -119.0581921,
      "timestamp": "2021-08-21T17:41:15Z",
      "version": 2,
      "changeset": 110037003,
      "user": "OddlyAngled",
      "uid": 11607814,
      "tags": {
        "backcountry": "yes",
        "tourism": "camp_site"
      }
    },
    {
      "type": "node",
      "id": 7732545415,
      "lat": 37.4720581,
      "lon": -118.9274855,
      "timestamp": "2021-08-21T17:41:15Z",
      "version": 2,
      "changeset": 110037003,
      "user": "OddlyAngled",
      "uid": 11607814,
      "tags": {
        "backcountry": "yes",
        "tourism": "camp_site"
      }
    },
    {
      "type": "node",
      "id": 7833590612,
      "lat": 37.6213706,
      "lon": -119.0105476,
      "timestamp": "2020-08-21T20:50:51Z",
      "version": 1,
      "changeset": 89763679,
      "user": "Airplanedude737",
      "uid": 11688441,
      "tags": {
        "access": "yes",
        "fee": "no",
        "name": "Hole in the Wall",
        "natural": "cave_entrance",
        "note": "Ski-able tunnel through lava rock in the back-country of the mountain."
      }
    },
    {
      "type": "node",
      "id": 7851635491,
      "lat": 37.6458233,
      "lon": -118.9295461,
      "timestamp": "2020-08-28T01:35:14Z",
      "version": 1,
      "changeset": 90050316,
      "user": "beddy",
      "uid": 3207726,
      "tags": {
        "tourism": "camp_site"
      }
    },
    {
      "type": "node",
      "id": 7934751331,
      "lat": 37.4580611,
      "lon": -118.97365,
      "timestamp": "2021-05-05T22:12:24Z",
      "version": 2,
      "changeset": 104209762,
      "user": "Stoaty Marmot",
      "uid": 13159520,
      "tags": {
        "ele": "3262",
        "name": "Silver Fox Pass",
        "natural": "saddle"
      }
    },
    {
      "type": "node",
      "id": 7952104354,
      "lat": 37.3570891,
      "lon": -118.9947653,
      "timestamp": "2020-09-28T17:11:53Z",
      "version": 1,
      "changeset": 91657968,
      "user": "OddlyAngled",
      "uid": 11607814,
      "tags": {
        "name": "Mono Creek Campground",
        "operator": "US Forest Service",
        "tourism": "camp_site"
      }
    },
    {
      "type": "node",
      "id": 7952127615,
      "lat": 37.3200556,
      "lon": -119.0677911,
      "timestamp": "2020-09-28T17:11:53Z",
      "version": 1,
      "changeset": 91657968,
      "user": "OddlyAngled",
      "uid": 11607814,
      "tags": {
        "name": "Portal Forebay Campground",
        "operator": "US Forest Service",
        "tourism": "camp_site"
      }
    },
    {
      "type": "node",
      "id": 7965816330,
      "lat": 37.7014366,
      "lon": -119.206209,
      "timestamp": "2021-05-04T23:53:14Z",
      "version": 2,
      "changeset": 104149698,
      "user": "Stoaty Marmot",
      "uid": 13159520,
      "tags": {
        "ele": "3411",
        "mountain_pass": "yes",
        "name": "North Glacier Pass",
        "natural": "saddle"
      }
    },
    {
      "type": "node",
      "id": 8049054482,
      "lat": 37.5830443,
      "lon": -119.2062908,
      "timestamp": "2020-10-27T03:18:11Z",
      "version": 1,
      "changeset": 93088014,
      "user": "BryanOSullivan",
      "uid": 10729167,
      "tags": {
        "natural": "spring"
      }
    },
    {
      "type": "node",
      "id": 8049054483,
      "lat": 37.5826826,
      "lon": -119.203135,
      "timestamp": "2020-10-27T03:18:11Z",
      "version": 1,
      "changeset": 93088014,
      "user": "BryanOSullivan",
      "uid": 10729167,
      "tags": {
        "natural": "spring"
      }
    },
    {
      "type": "node",
      "id": 8049054484,
      "lat": 37.5772041,
      "lon": -119.2379287,
      "timestamp": "2020-10-27T03:18:11Z",
      "version": 1,
      "changeset": 93088014,
      "user": "BryanOSullivan",
      "uid": 10729167,
      "tags": {
        "natural": "spring"
      }
    },
    {
      "type": "node",
      "id": 8049075185,
      "lat": 37.5750135,
      "lon": -119.2444003,
      "timestamp": "2020-10-27T03:18:11Z",
      "version": 1,
      "changeset": 93088014,
      "user": "BryanOSullivan",
      "uid": 10729167,
      "tags": {
        "natural": "spring"
      }
    },
    {
      "type": "node",
      "id": 8049075186,
      "lat": 37.5648774,
      "lon": -119.2693699,
      "timestamp": "2020-10-27T03:18:11Z",
      "version": 1,
      "changeset": 93088014,
      "user": "BryanOSullivan",
      "uid": 10729167,
      "tags": {
        "natural": "spring"
      }
    },
    {
      "type": "node",
      "id": 8049075187,
      "lat": 37.5703625,
      "lon": -119.2704724,
      "timestamp": "2020-10-27T03:18:11Z",
      "version": 1,
      "changeset": 93088014,
      "user": "BryanOSullivan",
      "uid": 10729167,
      "tags": {
        "natural": "spring"
      }
    },
    {
      "type": "node",
      "id": 8049075188,
      "lat": 37.5634258,
      "lon": -119.2894604,
      "timestamp": "2020-10-27T03:18:11Z",
      "version": 1,
      "changeset": 93088014,
      "user": "BryanOSullivan",
      "uid": 10729167,
      "tags": {
        "natural": "spring"
      }
    },
    {
      "type": "node",
      "id": 8049075596,
      "lat": 37.4279799,
      "lon": -119.2959437,
      "timestamp": "2020-10-27T03:18:11Z",
      "version": 1,
      "changeset": 93088014,
      "user": "BryanOSullivan",
      "uid": 10729167,
      "tags": {
        "natural": "spring"
      }
    },
    {
      "type": "node",
      "id": 8049075704,
      "lat": 37.4014657,
      "lon": -119.312165,
      "timestamp": "2020-10-27T03:18:11Z",
      "version": 1,
      "changeset": 93088014,
      "user": "BryanOSullivan",
      "uid": 10729167,
      "tags": {
        "natural": "spring"
      }
    },
    {
      "type": "node",
      "id": 8049084246,
      "lat": 37.4430343,
      "lon": -119.4903957,
      "timestamp": "2020-10-27T03:26:01Z",
      "version": 1,
      "changeset": 93088219,
      "user": "BryanOSullivan",
      "uid": 10729167,
      "tags": {
        "natural": "spring"
      }
    },
    {
      "type": "node",
      "id": 8049084247,
      "lat": 37.4392211,
      "lon": -119.4947389,
      "timestamp": "2020-10-27T03:26:01Z",
      "version": 1,
      "changeset": 93088219,
      "user": "BryanOSullivan",
      "uid": 10729167,
      "tags": {
        "natural": "spring"
      }
    },
    {
      "type": "node",
      "id": 8049088211,
      "lat": 37.4177347,
      "lon": -119.4937689,
      "timestamp": "2020-10-27T03:35:25Z",
      "version": 1,
      "changeset": 93088459,
      "user": "BryanOSullivan",
      "uid": 10729167,
      "tags": {
        "natural": "spring"
      }
    },
    {
      "type": "node",
      "id": 8049088212,
      "lat": 37.4149781,
      "lon": -119.493247,
      "timestamp": "2020-10-27T03:35:25Z",
      "version": 1,
      "changeset": 93088459,
      "user": "BryanOSullivan",
      "uid": 10729167,
      "tags": {
        "natural": "spring"
      }
    },
    {
      "type": "node",
      "id": 8051135126,
      "lat": 37.2826271,
      "lon": -119.3982266,
      "timestamp": "2020-10-27T17:26:17Z",
      "version": 1,
      "changeset": 93135039,
      "user": "BryanOSullivan",
      "uid": 10729167,
      "tags": {
        "natural": "spring"
      }
    },
    {
      "type": "node",
      "id": 8051135127,
      "lat": 37.2855099,
      "lon": -119.4036861,
      "timestamp": "2020-10-27T17:26:17Z",
      "version": 1,
      "changeset": 93135039,
      "user": "BryanOSullivan",
      "uid": 10729167,
      "tags": {
        "natural": "spring"
      }
    },
    {
      "type": "node",
      "id": 8051135128,
      "lat": 37.2896529,
      "lon": -119.407806,
      "timestamp": "2020-10-27T17:26:17Z",
      "version": 1,
      "changeset": 93135039,
      "user": "BryanOSullivan",
      "uid": 10729167,
      "tags": {
        "natural": "spring"
      }
    },
    {
      "type": "node",
      "id": 8051672430,
      "lat": 37.3016469,
      "lon": -119.3698629,
      "timestamp": "2020-10-27T20:08:57Z",
      "version": 1,
      "changeset": 93141947,
      "user": "BryanOSullivan",
      "uid": 10729167,
      "tags": {
        "natural": "spring"
      }
    },
    {
      "type": "node",
      "id": 8051683820,
      "lat": 37.2668294,
      "lon": -119.3512606,
      "timestamp": "2020-10-27T20:08:57Z",
      "version": 1,
      "changeset": 93141947,
      "user": "BryanOSullivan",
      "uid": 10729167,
      "tags": {
        "natural": "spring"
      }
    },
    {
      "type": "node",
      "id": 8059866107,
      "lat": 37.6851682,
      "lon": -119.290714,
      "timestamp": "2021-04-29T18:19:24Z",
      "version": 2,
      "changeset": 103863599,
      "user": "Stoaty Marmot",
      "uid": 13159520,
      "tags": {
        "ele": "3426",
        "name": "Blue Lake Pass",
        "natural": "saddle"
      }
    },
    {
      "type": "node",
      "id": 8064046870,
      "lat": 37.1771992,
      "lon": -119.3337928,
      "timestamp": "2020-10-29T23:18:06Z",
      "version": 1,
      "changeset": 93260031,
      "user": "BryanOSullivan",
      "uid": 10729167,
      "tags": {
        "natural": "spring"
      }
    },
    {
      "type": "node",
      "id": 8181200215,
      "lat": 37.1975184,
      "lon": -118.9954734,
      "timestamp": "2020-11-30T22:37:44Z",
      "version": 1,
      "changeset": 95071510,
      "user": "OddlyAngled",
      "uid": 11607814,
      "tags": {
        "mountain_pass": "yes",
        "name": "Hot Springs Pass",
        "natural": "saddle"
      }
    },
    {
      "type": "node",
      "id": 8392377594,
      "lat": 37.3875664,
      "lon": -118.862253,
      "timestamp": "2021-05-05T21:10:58Z",
      "version": 2,
      "changeset": 104207998,
      "user": "Stoaty Marmot",
      "uid": 13159520,
      "tags": {
        "ele": "3644",
        "name": "Recess Pass",
        "natural": "saddle"
      }
    },
    {
      "type": "node",
      "id": 8397419667,
      "lat": 37.696445,
      "lon": -119.17694,
      "timestamp": "2021-05-07T01:56:39Z",
      "version": 2,
      "changeset": 104280707,
      "user": "Stoaty Marmot",
      "uid": 13159520,
      "tags": {
        "ele": "3213",
        "name": "Whitebark Pass",
        "natural": "saddle"
      }
    },
    {
      "type": "node",
      "id": 8397419668,
      "lat": 37.6516546,
      "lon": -119.151626,
      "timestamp": "2021-04-29T21:10:38Z",
      "version": 2,
      "changeset": 103869976,
      "user": "Stoaty Marmot",
      "uid": 13159520,
      "tags": {
        "ele": "2987",
        "name": "Deadhorse Pass",
        "natural": "saddle"
      }
    },
    {
      "type": "node",
      "id": 8397419669,
      "lat": 37.6400885,
      "lon": -119.14293,
      "timestamp": "2021-05-07T01:45:32Z",
      "version": 2,
      "changeset": 104280503,
      "user": "Stoaty Marmot",
      "uid": 13159520,
      "tags": {
        "ele": "3103",
        "name": "Nancy Pass",
        "natural": "saddle"
      }
    },
    {
      "type": "node",
      "id": 8397459339,
      "lat": 37.4679524,
      "lon": -118.887927,
      "timestamp": "2021-05-05T02:45:43Z",
      "version": 2,
      "changeset": 104152378,
      "user": "Stoaty Marmot",
      "uid": 13159520,
      "tags": {
        "ele": "3575",
        "name": "Walton Col",
        "natural": "saddle"
      }
    },
    {
      "type": "node",
      "id": 8397459340,
      "lat": 37.4716736,
      "lon": -118.847061,
      "timestamp": "2021-05-05T02:55:06Z",
      "version": 2,
      "changeset": 104152590,
      "user": "Stoaty Marmot",
      "uid": 13159520,
      "tags": {
        "ele": "3541",
        "name": "Grinnell Col",
        "natural": "saddle"
      }
    },
    {
      "type": "node",
      "id": 8397459368,
      "lat": 37.4797624,
      "lon": -118.865611,
      "timestamp": "2021-05-05T02:49:33Z",
      "version": 2,
      "changeset": 104152464,
      "user": "Stoaty Marmot",
      "uid": 13159520,
      "tags": {
        "ele": "3536",
        "name": "Pace Col",
        "natural": "saddle"
      }
    },
    {
      "type": "node",
      "id": 8397459369,
      "lat": 37.4659598,
      "lon": -118.865576,
      "timestamp": "2021-04-29T18:17:09Z",
      "version": 2,
      "changeset": 103863527,
      "user": "Stoaty Marmot",
      "uid": 13159520,
      "tags": {
        "ele": "3429",
        "name": "Bighorn Pass",
        "natural": "saddle"
      }
    },
    {
      "type": "node",
      "id": 8397459370,
      "lat": 37.4741982,
      "lon": -118.879693,
      "timestamp": "2021-05-05T23:05:08Z",
      "version": 2,
      "changeset": 104210781,
      "user": "Stoaty Marmot",
      "uid": 13159520,
      "tags": {
        "ele": "3432",
        "name": "Rohn Pass",
        "natural": "saddle"
      }
    },
    {
      "type": "node",
      "id": 8397459371,
      "lat": 37.473236,
      "lon": -118.873148,
      "timestamp": "2021-05-05T01:25:59Z",
      "version": 2,
      "changeset": 104150994,
      "user": "Stoaty Marmot",
      "uid": 13159520,
      "tags": {
        "ele": "3483",
        "name": "Shout-of-Relief Pass",
        "natural": "saddle"
      }
    },
    {
      "type": "node",
      "id": 8436921910,
      "lat": 37.6335799,
      "lon": -118.8931785,
      "timestamp": "2021-02-19T07:24:45Z",
      "version": 1,
      "changeset": 99571842,
      "user": "BryanOSullivan",
      "uid": 10729167,
      "tags": {
        "natural": "spring"
      }
    },
    {
      "type": "node",
      "id": 8436921911,
      "lat": 37.6167209,
      "lon": -118.8944874,
      "timestamp": "2021-02-19T07:24:45Z",
      "version": 1,
      "changeset": 99571842,
      "user": "BryanOSullivan",
      "uid": 10729167,
      "tags": {
        "natural": "spring"
      }
    },
    {
      "type": "node",
      "id": 8436921912,
      "lat": 37.6167889,
      "lon": -118.8959251,
      "timestamp": "2021-02-19T07:24:45Z",
      "version": 1,
      "changeset": 99571842,
      "user": "BryanOSullivan",
      "uid": 10729167,
      "tags": {
        "natural": "spring"
      }
    },
    {
      "type": "node",
      "id": 8442186945,
      "lat": 37.6803894,
      "lon": -118.8772635,
      "timestamp": "2021-02-21T07:30:12Z",
      "version": 1,
      "changeset": 99669540,
      "user": "BryanOSullivan",
      "uid": 10729167,
      "tags": {
        "name": "Antelope Spring",
        "natural": "spring"
      }
    },
    {
      "type": "node",
      "id": 8442186977,
      "lat": 37.6906769,
      "lon": -118.8445987,
      "timestamp": "2021-02-21T07:30:12Z",
      "version": 1,
      "changeset": 99669540,
      "user": "BryanOSullivan",
      "uid": 10729167,
      "tags": {
        "natural": "spring"
      }
    },
    {
      "type": "node",
      "id": 8442186978,
      "lat": 37.6905729,
      "lon": -118.8446578,
      "timestamp": "2021-02-21T07:30:12Z",
      "version": 1,
      "changeset": 99669540,
      "user": "BryanOSullivan",
      "uid": 10729167,
      "tags": {
        "natural": "spring"
      }
    },
    {
      "type": "node",
      "id": 8442186979,
      "lat": 37.6904562,
      "lon": -118.844411,
      "timestamp": "2021-02-21T07:30:12Z",
      "version": 1,
      "changeset": 99669540,
      "user": "BryanOSullivan",
      "uid": 10729167,
      "tags": {
        "name": "Hot Springs",
        "natural": "spring"
      }
    },
    {
      "type": "node",
      "id": 8442186980,
      "lat": 37.6903734,
      "lon": -118.8442554,
      "timestamp": "2021-02-21T07:30:12Z",
      "version": 1,
      "changeset": 99669540,
      "user": "BryanOSullivan",
      "uid": 10729167,
      "tags": {
        "natural": "spring"
      }
    },
    {
      "type": "node",
      "id": 8442186981,
      "lat": 37.6906196,
      "lon": -118.8443198,
      "timestamp": "2021-02-21T07:30:12Z",
      "version": 1,
      "changeset": 99669540,
      "user": "BryanOSullivan",
      "uid": 10729167,
      "tags": {
        "natural": "spring"
      }
    },
    {
      "type": "node",
      "id": 8442186982,
      "lat": 37.6906811,
      "lon": -118.8440864,
      "timestamp": "2021-02-21T07:30:12Z",
      "version": 1,
      "changeset": 99669540,
      "user": "BryanOSullivan",
      "uid": 10729167,
      "tags": {
        "natural": "spring"
      }
    },
    {
      "type": "node",
      "id": 8442186983,
      "lat": 37.6907172,
      "lon": -118.8437646,
      "timestamp": "2021-02-21T07:30:12Z",
      "version": 1,
      "changeset": 99669540,
      "user": "BryanOSullivan",
      "uid": 10729167,
      "tags": {
        "natural": "spring"
      }
    },
    {
      "type": "node",
      "id": 8442186984,
      "lat": 37.6905686,
      "lon": -118.8438048,
      "timestamp": "2021-02-21T07:30:12Z",
      "version": 1,
      "changeset": 99669540,
      "user": "BryanOSullivan",
      "uid": 10729167,
      "tags": {
        "natural": "spring"
      }
    },
    {
      "type": "node",
      "id": 8442186985,
      "lat": 37.6905495,
      "lon": -118.8436814,
      "timestamp": "2021-02-21T07:30:12Z",
      "version": 1,
      "changeset": 99669540,
      "user": "BryanOSullivan",
      "uid": 10729167,
      "tags": {
        "natural": "spring"
      }
    },
    {
      "type": "node",
      "id": 8442186986,
      "lat": 37.6904052,
      "lon": -118.8438719,
      "timestamp": "2021-02-21T07:30:12Z",
      "version": 1,
      "changeset": 99669540,
      "user": "BryanOSullivan",
      "uid": 10729167,
      "tags": {
        "natural": "spring"
      }
    },
    {
      "type": "node",
      "id": 8442186987,
      "lat": 37.6411947,
      "lon": -118.8504494,
      "timestamp": "2021-02-21T07:30:12Z",
      "version": 1,
      "changeset": 99669540,
      "user": "BryanOSullivan",
      "uid": 10729167,
      "tags": {
        "natural": "spring"
      }
    },
    {
      "type": "node",
      "id": 8507634704,
      "lat": 37.6429261,
      "lon": -119.168647,
      "timestamp": "2021-04-29T18:16:18Z",
      "version": 2,
      "changeset": 103863484,
      "user": "Stoaty Marmot",
      "uid": 13159520,
      "tags": {
        "ele": "3292",
        "name": "Beck Lakes Pass",
        "natural": "saddle"
      }
    },
    {
      "type": "node",
      "id": 8584450997,
      "lat": 37.6732741,
      "lon": -119.192304,
      "timestamp": "2021-05-07T01:53:30Z",
      "version": 2,
      "changeset": 104280647,
      "user": "Stoaty Marmot",
      "uid": 13159520,
      "tags": {
        "ele": "3383",
        "name": "Ritter Pass",
        "natural": "saddle"
      }
    },
    {
      "type": "node",
      "id": 8676735411,
      "lat": 37.6777152,
      "lon": -119.150848,
      "timestamp": "2021-05-13T00:08:05Z",
      "version": 2,
      "changeset": 104601429,
      "user": "Stoaty Marmot",
      "uid": 13159520,
      "tags": {
        "ele": "3225",
        "name": "Volcanic Pass",
        "natural": "saddle"
      }
    },
    {
      "type": "node",
      "id": 8676752922,
      "lat": 37.6482695,
      "lon": -119.189279,
      "timestamp": "2021-05-07T19:39:28Z",
      "version": 2,
      "changeset": 104338408,
      "user": "Stoaty Marmot",
      "uid": 13159520,
      "tags": {
        "ele": "3248",
        "name": "McDonald Pass",
        "natural": "saddle"
      }
    },
    {
      "type": "node",
      "id": 8676752928,
      "lat": 37.6556681,
      "lon": -119.171115,
      "timestamp": "2021-05-07T19:32:53Z",
      "version": 2,
      "changeset": 104338179,
      "user": "Stoaty Marmot",
      "uid": 13159520,
      "tags": {
        "ele": "3434",
        "name": "South Notch",
        "natural": "saddle"
      }
    },
    {
      "type": "node",
      "id": 8676752938,
      "lat": 37.6650258,
      "lon": -119.1807658,
      "timestamp": "2021-05-07T21:07:11Z",
      "version": 2,
      "changeset": 104341270,
      "user": "Stoaty Marmot",
      "uid": 13159520,
      "tags": {
        "ele": "3483",
        "name": "North Notch",
        "natural": "saddle"
      }
    },
    {
      "type": "node",
      "id": 8676752942,
      "lat": 37.6681447,
      "lon": -119.1838503,
      "timestamp": "2021-05-07T21:07:11Z",
      "version": 2,
      "changeset": 104341270,
      "user": "Stoaty Marmot",
      "uid": 13159520,
      "tags": {
        "ele": "3391",
        "name": "The Gap",
        "natural": "saddle"
      }
    },
    {
      "type": "node",
      "id": 8676791694,
      "lat": 37.7064363,
      "lon": -119.184064,
      "timestamp": "2021-04-29T21:45:11Z",
      "version": 2,
      "changeset": 103870948,
      "user": "Stoaty Marmot",
      "uid": 13159520,
      "tags": {
        "ele": "3090",
        "name": "Garnet Pass",
        "natural": "saddle"
      }
    },
    {
      "type": "node",
      "id": 8694059606,
      "lat": 37.1966711,
      "lon": -118.9463282,
      "timestamp": "2021-05-03T15:17:13Z",
      "version": 1,
      "changeset": 104065950,
      "user": "OddlyAngled",
      "uid": 11607814,
      "tags": {
        "mountain_pass": "yes",
        "name": "Thompson Pass",
        "natural": "saddle"
      }
    },
    {
      "type": "node",
      "id": 8694412401,
      "lat": 37.185775,
      "lon": -118.853507,
      "timestamp": "2021-05-05T20:41:21Z",
      "version": 2,
      "changeset": 104207108,
      "user": "Stoaty Marmot",
      "uid": 13159520,
      "tags": {
        "ele": "3219",
        "gnis:feature_id": "263874",
        "name": "Mosquito Pass",
        "natural": "saddle"
      }
    },
    {
      "type": "node",
      "id": 8722747868,
      "lat": 37.50611,
      "lon": -118.85247,
      "timestamp": "2021-05-11T19:19:59Z",
      "version": 1,
      "changeset": 104531629,
      "user": "Stoaty Marmot",
      "uid": 13159520,
      "tags": {
        "description": "Pass leads between upper McGee Creek to upper Convict Creek",
        "ele": "3378",
        "name": "Corridor Pass",
        "natural": "saddle"
      }
    },
    {
      "type": "node",
      "id": 8722748259,
      "lat": 37.30396,
      "lon": -118.89642,
      "timestamp": "2021-05-11T19:30:50Z",
      "version": 1,
      "changeset": 104532091,
      "user": "Stoaty Marmot",
      "uid": 13159520,
      "tags": {
        "description": "pass leads from Hooper Basin from the west to Rose Lake and the Bear Creek drainage to the east",
        "ele": "3517",
        "name": "Crazy Pass",
        "natural": "saddle"
      }
    },
    {
      "type": "node",
      "id": 8723052624,
      "lat": 37.50862,
      "lon": -118.87719,
      "timestamp": "2021-05-11T21:39:32Z",
      "version": 1,
      "changeset": 104536249,
      "user": "Stoaty Marmot",
      "uid": 13159520,
      "tags": {
        "description": "Gemini Pass which goes from convict basin to the fish creek drainage",
        "ele": "3670",
        "name": "Gemini Pass",
        "natural": "saddle"
      }
    },
    {
      "type": "node",
      "id": 8725908064,
      "lat": 37.45591,
      "lon": -118.98329,
      "timestamp": "2021-05-12T17:34:31Z",
      "version": 1,
      "changeset": 104588182,
      "user": "Stoaty Marmot",
      "uid": 13159520,
      "tags": {
        "description": "Cross country pass between Graveyard Lakes and Anne Lake",
        "ele": "3310",
        "name": "Graveyard Pass",
        "natural": "saddle"
      }
    },
    {
      "type": "node",
      "id": 8726409390,
      "lat": 37.55305,
      "lon": -118.93893,
      "timestamp": "2021-05-12T21:56:00Z",
      "version": 1,
      "changeset": 104599174,
      "user": "Stoaty Marmot",
      "uid": 13159520,
      "tags": {
        "description": "Pass betwwen Pika Lake and the basin of Purple Creek",
        "ele": "3530",
        "name": "Pika Pass",
        "natural": "saddle"
      }
    },
    {
      "type": "node",
      "id": 8750987484,
      "lat": 37.5053172,
      "lon": -119.4937527,
      "timestamp": "2021-05-20T22:52:33Z",
      "version": 2,
      "changeset": 105053555,
      "user": "OddlyAngled",
      "uid": 11607814,
      "tags": {
        "gnis:feature_id": "252497",
        "name": "Grizzly Pass",
        "natural": "saddle"
      }
    },
    {
      "type": "node",
      "id": 8751349745,
      "lat": 37.5124258,
      "lon": -119.4918832,
      "timestamp": "2021-05-20T22:52:33Z",
      "version": 1,
      "changeset": 105053555,
      "user": "OddlyAngled",
      "uid": 11607814,
      "tags": {
        "natural": "spring"
      }
    },
    {
      "type": "node",
      "id": 8773861602,
      "lat": 37.3447863,
      "lon": -119.2400469,
      "timestamp": "2021-05-27T22:36:45Z",
      "version": 1,
      "changeset": 105452675,
      "user": "Mike Grr!",
      "uid": 13398609,
      "tags": {
        "name": "West Kaiser Campground",
        "operator": "United States Forest Service",
        "tourism": "camp_site",
        "website": "https://www.fs.usda.gov/recarea/sierra/recarea/?recid=45524"
      }
    },
    {
      "type": "node",
      "id": 8804558482,
      "lat": 37.3151366,
      "lon": -119.041087,
      "timestamp": "2021-06-04T15:17:01Z",
      "version": 1,
      "changeset": 105847007,
      "user": "OddlyAngled",
      "uid": 11607814,
      "tags": {
        "capacity": "3",
        "caravans": "yes",
        "name": "Bolsillo Campground",
        "reservation": "no",
        "tents": "yes",
        "tourism": "camp_site",
        "website": "https://www.fs.usda.gov/recarea/sierra/recarea/?recid=45520"
      }
    },
    {
      "type": "node",
      "id": 8814973451,
      "lat": 37.4130377,
      "lon": -119.3854719,
      "timestamp": "2021-06-08T15:15:45Z",
      "version": 1,
      "changeset": 106043697,
      "user": "OddlyAngled",
      "uid": 11607814,
      "tags": {
        "capacity": "7",
        "ele": "1475",
        "fee": "yes",
        "gnis:feature_id": "253531",
        "name": "Lower Chiquito Campground",
        "reservation": "no",
        "tents": "yes",
        "tourism": "camp_site",
        "website": "https://www.fs.usda.gov/recarea/sierra/recarea/?recid=45458"
      }
    },
    {
      "type": "node",
      "id": 8814973497,
      "lat": 37.3997725,
      "lon": -119.336189,
      "timestamp": "2021-06-08T15:15:45Z",
      "version": 1,
      "changeset": 106043697,
      "user": "OddlyAngled",
      "uid": 11607814,
      "tags": {
        "capacity": "5",
        "name": "Little Jackass Campground",
        "reservation": "no",
        "tents": "yes",
        "tourism": "camp_site",
        "website": "https://www.fs.usda.gov/recarea/sierra/recarea/?recid=45544"
      }
    },
    {
      "type": "node",
      "id": 8814973606,
      "lat": 37.5413277,
      "lon": -119.2689863,
      "timestamp": "2021-06-08T15:15:45Z",
      "version": 1,
      "changeset": 106043697,
      "user": "OddlyAngled",
      "uid": 11607814,
      "tags": {
        "capacity": "20",
        "name": "Granite Creek Campground",
        "reservation": "no",
        "tents": "yes",
        "tourism": "camp_site",
        "website": "https://www.fs.usda.gov/recarea/sierra/recarea/?recid=45540"
      }
    },
    {
      "type": "node",
      "id": 8814973608,
      "lat": 37.5284927,
      "lon": -119.2807679,
      "timestamp": "2021-06-08T15:15:45Z",
      "version": 1,
      "changeset": 106043697,
      "user": "OddlyAngled",
      "uid": 11607814,
      "tags": {
        "ele": "2143",
        "fixme": "survey",
        "gnis:feature_id": "253030",
        "name": "Clover Meadow Campground",
        "reservation": "no",
        "tents": "yes",
        "tourism": "camp_site",
        "website": "https://www.fs.usda.gov/recarea/sierra/recarea/?recid=45538"
      }
    },
    {
      "type": "node",
      "id": 8815125917,
      "lat": 37.3812068,
      "lon": -119.389286,
      "timestamp": "2021-06-08T16:31:36Z",
      "version": 1,
      "changeset": 106047117,
      "user": "OddlyAngled",
      "uid": 11607814,
      "tags": {
        "capacity": "18",
        "ele": "1351",
        "fee": "yes",
        "gnis:feature_id": "234850",
        "name": "Soda Springs Campground",
        "tourism": "camp_site",
        "website": "https://www.fs.usda.gov/recarea/sierra/recarea/?recid=45528"
      }
    },
    {
      "type": "node",
      "id": 8815125953,
      "lat": 37.3788879,
      "lon": -119.4373083,
      "timestamp": "2021-06-08T16:31:36Z",
      "version": 1,
      "changeset": 106047117,
      "user": "OddlyAngled",
      "uid": 11607814,
      "tags": {
        "ele": "2147",
        "gnis:feature_id": "227365",
        "name": "Little Shuteye Pass",
        "natural": "saddle"
      }
    },
    {
      "type": "node",
      "id": 8815125954,
      "lat": 37.3700911,
      "lon": -119.3026614,
      "timestamp": "2021-06-08T16:31:36Z",
      "version": 1,
      "changeset": 106047117,
      "user": "OddlyAngled",
      "uid": 11607814,
      "tags": {
        "capacity": "6",
        "ele": "1031",
        "gnis:feature_id": "253073",
        "name": "China Bar Campground",
        "tourism": "camp_site",
        "website": "https://www.fs.usda.gov/recarea/sierra/recarea/?recid=45532"
      }
    },
    {
      "type": "node",
      "id": 8815125955,
      "lat": 37.3442,
      "lon": -119.3345073,
      "timestamp": "2021-06-08T16:31:36Z",
      "version": 1,
      "changeset": 106047117,
      "user": "OddlyAngled",
      "uid": 11607814,
      "tags": {
        "capacity": "47",
        "ele": "1106",
        "fee": "yes",
        "gnis:feature_id": "253076",
        "name": "Mammoth Pool Campground",
        "reservation": "recommended",
        "tourism": "camp_site",
        "website": "https://www.fs.usda.gov/recarea/sierra/recarea/?recid=45454"
      }
    },
    {
      "type": "node",
      "id": 8815125956,
      "lat": 37.3517206,
      "lon": -119.3405342,
      "timestamp": "2021-06-08T16:31:36Z",
      "version": 1,
      "changeset": 106047117,
      "user": "OddlyAngled",
      "uid": 11607814,
      "tags": {
        "ele": "1116",
        "gnis:feature_id": "1652849",
        "name": "Logan Meadow Campground",
        "tourism": "camp_site"
      }
    },
    {
      "type": "node",
      "id": 8815125967,
      "lat": 37.3728558,
      "lon": -119.3620831,
      "timestamp": "2021-06-08T16:31:36Z",
      "version": 1,
      "changeset": 106047117,
      "user": "OddlyAngled",
      "uid": 11607814,
      "tags": {
        "capacity": "8",
        "ele": "1219",
        "fee": "yes",
        "gnis:feature_id": "253078",
        "name": "Placer Campground",
        "reservation": "no",
        "tents": "yes",
        "tourism": "camp_site",
        "website": "https://www.fs.usda.gov/recarea/sierra/recarea/?recid=45530"
      }
    },
    {
      "type": "node",
      "id": 8821320932,
      "lat": 37.2855946,
      "lon": -119.440704,
      "timestamp": "2021-06-10T15:15:47Z",
      "version": 1,
      "changeset": 106164076,
      "user": "OddlyAngled",
      "uid": 11607814,
      "tags": {
        "capacity": "14",
        "fee": "no",
        "name": "Whisky Falls Campground",
        "reservation": "no",
        "tents": "yes",
        "tourism": "camp_site",
        "website": "https://www.fs.usda.gov/recarea/sierra/recarea/?recid=45542"
      }
    },
    {
      "type": "node",
      "id": 8821321627,
      "lat": 37.339852,
      "lon": -119.4123477,
      "timestamp": "2021-06-10T15:15:47Z",
      "version": 1,
      "changeset": 106164076,
      "user": "OddlyAngled",
      "uid": 11607814,
      "tags": {
        "ele": "2240",
        "gnis:feature_id": "233074",
        "name": "Shuteye Pass",
        "natural": "saddle"
      }
    },
    {
      "type": "node",
      "id": 8830508068,
      "lat": 37.5288361,
      "lon": -118.9020105,
      "timestamp": "2021-06-13T23:21:58Z",
      "version": 1,
      "changeset": 106300010,
      "user": "grasshappa",
      "uid": 13554486,
      "tags": {
        "name": "Pretty Pass",
        "natural": "saddle"
      }
    },
    {
      "type": "node",
      "id": 8830519389,
      "lat": 37.5752888,
      "lon": -118.8951295,
      "timestamp": "2021-06-17T14:27:26Z",
      "version": 2,
      "changeset": 106536127,
      "user": "OddlyAngled",
      "uid": 11607814,
      "tags": {
        "alt_name": "aka Laurel-Bloody Col",
        "name": "Bloody-Laurel Col",
        "natural": "saddle"
      }
    },
    {
      "type": "node",
      "id": 8830519390,
      "lat": 37.5551838,
      "lon": -118.9138652,
      "timestamp": "2021-06-13T23:38:37Z",
      "version": 1,
      "changeset": 106300160,
      "user": "grasshappa",
      "uid": 13554486,
      "tags": {
        "name": "Bloody Lake Pass",
        "natural": "saddle",
        "note": "aka Bloody Col"
      }
    },
    {
      "type": "node",
      "id": 8848943425,
      "lat": 37.2925427,
      "lon": -119.3620563,
      "timestamp": "2021-06-19T17:36:28Z",
      "version": 1,
      "changeset": 106640944,
      "user": "OddlyAngled",
      "uid": 11607814,
      "tags": {
        "capacity": "18",
        "caravans": "yes",
        "fee": "yes",
        "name": "Rock Creek Campground",
        "operator": "US Forest Service",
        "reservation": "yes",
        "tents": "yes",
        "toilets": "yes",
        "tourism": "camp_site",
        "website": "https://www.fs.usda.gov/recarea/sierra/recarea/?recid=45460"
      }
    },
    {
      "type": "node",
      "id": 8848943426,
      "lat": 37.2608613,
      "lon": -119.3541974,
      "timestamp": "2021-06-19T17:36:28Z",
      "version": 1,
      "changeset": 106640944,
      "user": "OddlyAngled",
      "uid": 11607814,
      "tags": {
        "capacity": "7",
        "fee": "yes",
        "name": "Fish Creek Campground",
        "reservation": "yes",
        "tents": "yes",
        "toilets": "yes",
        "tourism": "camp_site",
        "website": "https://www.fs.usda.gov/recarea/sierra/recarea/?recid=45456"
      }
    },
    {
      "type": "way",
      "id": 42486209,
      "timestamp": "2017-09-28T08:29:33Z",
      "version": 4,
      "changeset": 52435675,
      "user": "bdiscoe",
      "uid": 402624,
      "center": {
        "lat": 37.6026365,
        "lon": -119.0097624
      },
      "nodes": [],
      "tags": {
        "attribution": "Mono County GIS",
        "name": "Lake George Campground",
        "tourism": "camp_site"
      }
    },
    {
      "type": "way",
      "id": 42486219,
      "timestamp": "2017-09-28T08:29:33Z",
      "version": 4,
      "changeset": 52435675,
      "user": "bdiscoe",
      "uid": 402624,
      "center": {
        "lat": 37.6070447,
        "lon": -119.0069663
      },
      "nodes": [],
      "tags": {
        "attribution": "Mono County GIS",
        "name": "Lake Mary Campground",
        "tourism": "camp_site"
      }
    },
    {
      "type": "way",
      "id": 42486224,
      "timestamp": "2017-09-28T08:29:33Z",
      "version": 3,
      "changeset": 52435675,
      "user": "bdiscoe",
      "uid": 402624,
      "center": {
        "lat": 37.6168459,
        "lon": -119.0051435
      },
      "nodes": [],
      "tags": {
        "attribution": "Mono County GIS",
        "name": "Twin Lakes Campground",
        "tourism": "camp_site"
      }
    },
    {
      "type": "way",
      "id": 42486230,
      "timestamp": "2021-06-17T20:34:13Z",
      "version": 4,
      "changeset": 106551589,
      "user": "OddlyAngled",
      "uid": 11607814,
      "center": {
        "lat": 37.5974727,
        "lon": -118.848594
      },
      "nodes": [],
      "tags": {
        "attribution": "Mono County GIS",
        "capacity": "85",
        "fee": "yes",
        "name": "Convict Lake Campground",
        "reservation": "recommended",
        "tourism": "camp_site",
        "website": "https://www.fs.usda.gov/recarea/inyo/recarea/?recid=20550"
      }
    },
    {
      "type": "way",
      "id": 42486233,
      "timestamp": "2019-04-30T03:03:46Z",
      "version": 4,
      "changeset": 69717587,
      "user": "Roosterchristopher",
      "uid": 9061804,
      "center": {
        "lat": 37.5957181,
        "lon": -118.9936723
      },
      "nodes": [],
      "tags": {
        "attribution": "Mono County GIS",
        "name": "Coldwater Campground",
        "tourism": "camp_site"
      }
    },
    {
      "type": "way",
      "id": 42486311,
      "timestamp": "2017-09-28T08:29:34Z",
      "version": 2,
      "changeset": 52435675,
      "user": "bdiscoe",
      "uid": 402624,
      "center": {
        "lat": 37.6042402,
        "lon": -119.000102
      },
      "nodes": [],
      "tags": {
        "addr:street": "Lake Mary Loop Road",
        "attribution": "Mono County GIS",
        "name": "Pine City CG",
        "tourism": "camp_site"
      }
    },
    {
      "type": "way",
      "id": 42486325,
      "timestamp": "2017-09-28T08:29:35Z",
      "version": 4,
      "changeset": 52435675,
      "user": "bdiscoe",
      "uid": 402624,
      "center": {
        "lat": 37.616055,
        "lon": -119.0094325
      },
      "nodes": [],
      "tags": {
        "addr:street": "Twin Lakes Road",
        "attribution": "Mono County GIS",
        "name": "Twin Lakes Campground",
        "tourism": "camp_site"
      }
    },
    {
      "type": "way",
      "id": 42486409,
      "timestamp": "2021-08-27T20:21:02Z",
      "version": 3,
      "changeset": 110358128,
      "user": "OddlyAngled",
      "uid": 11607814,
      "center": {
        "lat": 37.6824351,
        "lon": -119.0914533
      },
      "nodes": [],
      "tags": {
        "attribution": "Mono County GIS",
        "fee": "yes",
        "name": "Agnew Meadows Horse Campground",
        "reservation": "recommended",
        "tourism": "camp_site",
        "website": "https://www.fs.usda.gov/recarea/inyo/recarea/?recid=20508"
      }
    },
    {
      "type": "way",
      "id": 42486413,
      "timestamp": "2019-04-29T20:14:30Z",
      "version": 3,
      "changeset": 69710811,
      "user": "btwhite92",
      "uid": 730573,
      "center": {
        "lat": 37.6489464,
        "lon": -118.9607053
      },
      "nodes": [],
      "tags": {
        "addr:street": "Sawmill Cutoff",
        "attribution": "Mono County GIS",
        "name": "New Shady Rest CG",
        "tourism": "camp_site"
      }
    },
    {
      "type": "way",
      "id": 42486427,
      "timestamp": "2019-04-30T02:14:11Z",
      "version": 3,
      "changeset": 69716995,
      "user": "btwhite92",
      "uid": 730573,
      "center": {
        "lat": 37.6496181,
        "lon": -118.9646262
      },
      "nodes": [],
      "tags": {
        "addr:street": "Sawmill Cutoff",
        "attribution": "Mono County GIS",
        "name": "Old Shady Rest CG",
        "tourism": "camp_site"
      }
    },
    {
      "type": "way",
      "id": 42486435,
      "timestamp": "2015-04-16T19:10:49Z",
      "version": 3,
      "changeset": 30272429,
      "user": "Bryce C Nesbitt",
      "uid": 355242,
      "center": {
        "lat": 37.6488334,
        "lon": -118.9567597
      },
      "nodes": [],
      "tags": {
        "addr:street": "Sawmill Cutoff",
        "attribution": "Mono County GIS",
        "name": "Pine Glen Group CG",
        "tourism": "camp_site"
      }
    },
    {
      "type": "way",
      "id": 42486436,
      "timestamp": "2020-12-26T21:02:07Z",
      "version": 2,
      "changeset": 96466129,
      "user": "Mstew354",
      "uid": 11988139,
      "center": {
        "lat": 37.6301493,
        "lon": -118.9359811
      },
      "nodes": [],
      "tags": {
        "addr:street": "Sherwin Creek",
        "attribution": "Mono County GIS",
        "name": "Sherwin Creek Campground",
        "tourism": "camp_site"
      }
    },
    {
      "type": "way",
      "id": 42486437,
      "timestamp": "2016-12-16T09:43:30Z",
      "version": 4,
      "changeset": 44442769,
      "user": "eric22",
      "uid": 160949,
      "center": {
        "lat": 37.6197918,
        "lon": -119.0750919
      },
      "nodes": [],
      "tags": {
        "HostOnSite": "Yes",
        "addr:street": "203",
        "attribution": "Mono County GIS",
        "name": "Reds Meadow Campground",
        "tourism": "camp_site"
      }
    },
    {
      "type": "way",
      "id": 42486438,
      "timestamp": "2017-09-28T08:29:35Z",
      "version": 4,
      "changeset": 52435675,
      "user": "bdiscoe",
      "uid": 402624,
      "center": {
        "lat": 37.6396781,
        "lon": -119.0836977
      },
      "nodes": [],
      "tags": {
        "HostOnSite": "Yes",
        "addr:street": "203",
        "attribution": "Mono County GIS",
        "name": "Minaret Falls Campground",
        "tourism": "camp_site"
      }
    },
    {
      "type": "way",
      "id": 42486441,
      "timestamp": "2017-09-28T08:29:36Z",
      "version": 4,
      "changeset": 52435675,
      "user": "bdiscoe",
      "uid": 402624,
      "center": {
        "lat": 37.6447577,
        "lon": -119.0739203
      },
      "nodes": [],
      "tags": {
        "HostOnSite": "Yes",
        "addr:street": "203",
        "attribution": "Mono County GIS",
        "name": "Pumice Flat Campground",
        "tourism": "camp_site"
      }
    },