{
  "osm3s": {
    "timestamp_osm_date": "2021-08-13T23:59:59Z",
    "timestamp_osm_base": "2021-08-14T02:43:28Z",
    "copyright": "The data included in this document is from www.openstreetmap.org. The data is made available under ODbL."
  },
  "elements": [
    {
      "type": "node",
      "id": 150974761,
      "lat": 42.7474782,
      "lon": -121.8282895,
      "timestamp": "2020-10-23T06:46:21Z",
      "version": 5,
      "changeset": 92932713,
      "user": "tguen",
      "uid": 9465017,
      "tags": {
        "ele": "1379",
        "gnis:id": "1144638",
        "name": "Kirk",
        "place": "hamlet"
      }
    },
    {
      "type": "node",
      "id": 150980943,
      "lat": 42.7017572,
      "lon": -121.995258,
      "timestamp": "2020-10-23T06:46:21Z",
      "version": 6,
      "changeset": 92932713,
      "user": "tguen",
      "uid": 9465017,
      "tags": {
        "ele": "1275",
        "gnis:id": "1142321",
        "name": "Fort Klamath",
        "place": "hamlet"
      }
    },
    {
      "type": "node",
      "id": 150980988,
      "lat": 42.6181909,
      "lon": -121.9339065,
      "timestamp": "2020-10-23T06:46:21Z",
      "version": 5,
      "changeset": 92932713,
      "user": "tguen",
      "uid": 9465017,
      "tags": {
        "ele": "1274",
        "gnis:id": "1144657",
        "name": "Klamath Agency",
        "place": "hamlet",
        "wikidata": "Q6419625",
        "wikipedia": "en:Klamath Agency, Oregon"
      }
    },
    {
      "type": "node",
      "id": 150981810,
      "lat": 42.577636,
      "lon": -121.866126,
      "timestamp": "2020-10-23T06:46:21Z",
      "version": 6,
      "changeset": 92932713,
      "user": "tguen",
      "uid": 9465017,
      "tags": {
        "census:population": "720;2006",
        "ele": "1275",
        "gnis:id": "1139648",
        "name": "Chiloquin",
        "place": "village",
        "population": "734",
        "wikidata": "Q3376588"
      }
    },
    {
      "type": "node",
      "id": 357315268,
      "lat": 42.9230018,
      "lon": -122.0162059,
      "timestamp": "2019-11-14T12:26:47Z",
      "version": 4,
      "changeset": 77072173,
      "user": "mirelon",
      "uid": 1270972,
      "tags": {
        "ele": "2636",
        "gnis:county_id": "035",
        "gnis:created": "11/28/1980",
        "gnis:feature_id": "1149176",
        "gnis:state_id": "41",
        "name": "Mount Scott",
        "natural": "peak",
        "prominence": "917",
        "wikidata": "Q1507158",
        "wikipedia": "en:Mount Scott (Klamath County, Oregon)"
      }
    },
    {
      "type": "node",
      "id": 357317256,
      "lat": 42.8312399,
      "lon": -122.2236398,
      "timestamp": "2020-09-15T22:51:25Z",
      "version": 4,
      "changeset": 90949358,
      "user": "tguen",
      "uid": 9465017,
      "tags": {
        "ele": "2315",
        "gnis:feature_id": "1151653",
        "name": "Union Peak",
        "natural": "peak",
        "wikidata": "Q7885954",
        "wikipedia": "en:Union Peak"
      }
    },
    {
      "type": "node",
      "id": 357332327,
      "lat": 42.9380122,
      "lon": -122.1035255,
      "timestamp": "2018-03-31T22:01:53Z",
      "version": 5,
      "changeset": 57700051,
      "user": "Adam Schneider",
      "uid": 5403394,
      "tags": {
        "gnis:county_id": "035",
        "gnis:created": "05/22/1986",
        "gnis:feature_id": "1163671",
        "gnis:state_id": "41",
        "name": "Mount Mazama",
        "name:ja": "マザマ山",
        "natural": "volcano",
        "wikidata": "Q1201788",
        "wikipedia": "en:Mount Mazama"
      }
    },
    {
      "type": "node",
      "id": 1796629374,
      "lat": 42.8676076,
      "lon": -122.1666333,
      "timestamp": "2018-03-14T17:53:12Z",
      "version": 2,
      "changeset": 57186060,
      "user": "Adam Schneider",
      "uid": 5403394,
      "tags": {
        "ele": "1830",
        "name": "Mazama Village",
        "place": "hamlet"
      }
    },
    {
      "type": "node",
      "id": 1796629388,
      "lat": 42.9114619,
      "lon": -122.1466182,
      "timestamp": "2012-06-21T05:46:14Z",
      "version": 1,
      "changeset": 11965207,
      "user": "KaiRo",
      "uid": 17047,
      "tags": {
        "ele": "2165",
        "name": "Rim Village",
        "place": "hamlet"
      }
    },
    {
      "type": "node",
      "id": 1891097457,
      "lat": 42.6414683,
      "lon": -121.8749624,
      "timestamp": "2019-02-15T01:14:43Z",
      "version": 3,
      "changeset": 67212242,
      "user": "b-jazz",
      "uid": 5800005,
      "tags": {
        "name": "Collier Memorial Campground",
        "tourism": "camp_site",
        "website": "https://www.oregonstateparks.org/index.cfm?do=parkPage.dsp_parkPage&parkId=165"
      }
    },
    {
      "type": "node",
      "id": 1930090335,
      "lat": 42.7033114,
      "lon": -122.3332731,
      "timestamp": "2018-03-31T01:08:41Z",
      "version": 2,
      "changeset": 57677301,
      "user": "Adam Schneider",
      "uid": 5403394,
      "tags": {
        "name": "Imnaha Guard Station",
        "note": "Alpine Hut was the closest I could get to what this is",
        "tourism": "alpine_hut"
      }
    },
    {
      "type": "node",
      "id": 1930090336,
      "lat": 42.7025565,
      "lon": -122.3343326,
      "timestamp": "2018-03-31T01:08:41Z",
      "version": 2,
      "changeset": 57677301,
      "user": "Adam Schneider",
      "uid": 5403394,
      "tags": {
        "name": "Imnaha Campground",
        "tourism": "camp_site"
      }
    },
    {
      "type": "node",
      "id": 2081941933,
      "lat": 42.7022608,
      "lon": -121.9961036,
      "timestamp": "2012-12-25T09:41:50Z",
      "version": 1,
      "changeset": 14399330,
      "user": "ThorstenNeumann",
      "uid": 178711,
      "tags": {
        "name": "Fort Klamath General Store",
        "shop": "convenience"
      }
    },
    {
      "type": "node",
      "id": 2313727653,
      "lat": 42.8720884,
      "lon": -122.1688792,
      "timestamp": "2013-08-20T06:01:16Z",
      "version": 2,
      "changeset": 17421278,
      "user": "123maps",
      "uid": 542575,
      "tags": {
        "name": "Annie Spring",
        "natural": "spring"
      }
    },
    {
      "type": "node",
      "id": 2313752978,
      "lat": 42.9040179,
      "lon": -122.138639,
      "timestamp": "2013-05-21T01:12:44Z",
      "version": 1,
      "changeset": 16218080,
      "user": "California Bear",
      "uid": 28923,
      "tags": {
        "name": "Munson Springs",
        "natural": "spring"
      }
    },
    {
      "type": "node",
      "id": 2315614406,
      "lat": 42.913318,
      "lon": -122.048554,
      "timestamp": "2013-05-22T08:37:22Z",
      "version": 1,
      "changeset": 16234666,
      "user": "California Bear",
      "uid": 28923,
      "tags": {
        "name": "Anderson Spring",
        "natural": "spring"
      }
    },
    {
      "type": "node",
      "id": 2315614407,
      "lat": 42.95268,
      "lon": -122.022007,
      "timestamp": "2018-04-18T04:30:37Z",
      "version": 2,
      "changeset": 58188377,
      "user": "cowdog",
      "uid": 3125856,
      "tags": {
        "name": "Cascade Spring",
        "natural": "spring"
      }
    },
    {
      "type": "node",
      "id": 2315614409,
      "lat": 42.841328,
      "lon": -122.146577,
      "timestamp": "2013-05-22T08:37:22Z",
      "version": 1,
      "changeset": 16234666,
      "user": "California Bear",
      "uid": 28923,
      "tags": {
        "name": "Cold Spring",
        "natural": "spring",
        "source": "USGS Topographic map"
      }
    },
    {
      "type": "node",
      "id": 2315614412,
      "lat": 42.9137714,
      "lon": -122.0705511,
      "timestamp": "2020-11-26T09:20:25Z",
      "version": 3,
      "changeset": 94826785,
      "user": "Richard",
      "uid": 165,
      "tags": {
        "name": "Kerr Notch",
        "natural": "saddle",
        "source": "USGS Topographic map"
      }
    },
    {
      "type": "node",
      "id": 2315614419,
      "lat": 42.937459,
      "lon": -121.998815,
      "timestamp": "2013-05-22T08:37:23Z",
      "version": 1,
      "changeset": 16234666,
      "user": "California Bear",
      "uid": 28923,
      "tags": {
        "name": "Pothole Spring",
        "natural": "spring"
      }
    },
    {
      "type": "node",
      "id": 2315614423,
      "lat": 42.9026998,
      "lon": -122.0962861,
      "timestamp": "2020-11-26T09:20:25Z",
      "version": 3,
      "changeset": 94826785,
      "user": "Richard",
      "uid": 165,
      "tags": {
        "name": "Sun Notch",
        "natural": "saddle",
        "source": "USGS Topographic map"
      }
    },
    {
      "type": "node",
      "id": 2315615211,
      "lat": 42.890205,
      "lon": -122.170593,
      "timestamp": "2013-05-22T08:37:37Z",
      "version": 1,
      "changeset": 16234666,
      "user": "California Bear",
      "uid": 28923,
      "tags": {
        "source": "USGS Topographic map",
        "tourism": "camp_site"
      }
    },
    {
      "type": "node",
      "id": 2316061181,
      "lat": 42.934787,
      "lon": -122.179015,
      "timestamp": "2013-05-22T17:29:27Z",
      "version": 1,
      "changeset": 16241023,
      "user": "California Bear",
      "uid": 28923,
      "tags": {
        "name": "Lightning Spring",
        "natural": "spring",
        "source": "USGS Topographic map"
      }
    },
    {
      "type": "node",
      "id": 2316061185,
      "lat": 42.930365,
      "lon": -122.180103,
      "timestamp": "2013-05-22T17:29:28Z",
      "version": 1,
      "changeset": 16241023,
      "user": "California Bear",
      "uid": 28923,
      "tags": {
        "natural": "spring",
        "source": "USGS Topographic map"
      }
    },
    {
      "type": "node",
      "id": 2424909132,
      "lat": 42.8665521,
      "lon": -122.1626634,
      "timestamp": "2021-01-28T18:32:08Z",
      "version": 2,
      "changeset": 98314228,
      "user": "John Hanover",
      "uid": 10686136,
      "tags": {
        "amenity": "drinking_water"
      }
    },
    {
      "type": "node",
      "id": 2424909136,
      "lat": 42.8642008,
      "lon": -122.1613061,
      "timestamp": "2013-08-20T01:34:19Z",
      "version": 1,
      "changeset": 17419808,
      "user": "123maps",
      "uid": 542575,
      "tags": {
        "amenity": "drinking_water"
      }
    },
    {
      "type": "node",
      "id": 2452430301,
      "lat": 42.8661117,
      "lon": -122.1632722,
      "timestamp": "2021-01-28T18:32:08Z",
      "version": 2,
      "changeset": 98314228,
      "user": "John Hanover",
      "uid": 10686136,
      "tags": {
        "amenity": "drinking_water"
      }
    },
    {
      "type": "node",
      "id": 2452430302,
      "lat": 42.9111383,
      "lon": -122.1436733,
      "timestamp": "2013-09-10T04:57:06Z",
      "version": 1,
      "changeset": 17760479,
      "user": "123maps",
      "uid": 542575,
      "tags": {
        "amenity": "drinking_water"
      }
    },
    {
      "type": "node",
      "id": 2863174784,
      "lat": 42.861994,
      "lon": -122.062318,
      "timestamp": "2014-05-16T21:15:19Z",
      "version": 1,
      "changeset": 22379478,
      "user": "California Bear",
      "uid": 28923,
      "tags": {
        "ele": "1883",
        "name": "Maklaks Pass",
        "natural": "saddle"
      }
    },
    {
      "type": "node",
      "id": 2863174785,
      "lat": 42.833729,
      "lon": -122.033429,
      "timestamp": "2014-05-16T21:15:19Z",
      "version": 1,
      "changeset": 22379478,
      "user": "California Bear",
      "uid": 28923,
      "tags": {
        "name": "Maklaks Spring",
        "natural": "spring"
      }
    },
    {
      "type": "node",
      "id": 3248875370,
      "lat": 42.6854482,
      "lon": -122.3300374,
      "timestamp": "2014-12-23T08:08:46Z",
      "version": 1,
      "changeset": 27645451,
      "user": "Richard",
      "uid": 165,
      "tags": {
        "tourism": "camp_site"
      }
    },
    {
      "type": "node",
      "id": 3248875373,
      "lat": 42.877914,
      "lon": -122.3366678,
      "timestamp": "2014-12-23T08:08:47Z",
      "version": 1,
      "changeset": 27645451,
      "user": "Richard",
      "uid": 165,
      "tags": {
        "tourism": "camp_site"
      }
    },
    {
      "type": "node",
      "id": 3248875374,
      "lat": 42.6458928,
      "lon": -122.3352301,
      "timestamp": "2018-03-31T01:08:42Z",
      "version": 2,
      "changeset": 57677301,
      "user": "Adam Schneider",
      "uid": 5403394,
      "tags": {
        "name": "South Fork Campground",
        "tourism": "camp_site"
      }
    },
    {
      "type": "node",
      "id": 3248875377,
      "lat": 42.638127,
      "lon": -122.3192656,
      "timestamp": "2014-12-23T08:08:47Z",
      "version": 1,
      "changeset": 27645451,
      "user": "Richard",
      "uid": 165,
      "tags": {
        "tourism": "camp_site"
      }
    },
    {
      "type": "node",
      "id": 3405143483,
      "lat": 42.65951,
      "lon": -121.85374,
      "timestamp": "2019-02-15T01:14:43Z",
      "version": 2,
      "changeset": 67212242,
      "user": "b-jazz",
      "uid": 5800005,
      "tags": {
        "name": "Williamson River Campground",
        "operator": "United States Forest Service",
        "tourism": "camp_site",
        "website": "https://www.fs.usda.gov/recarea/fremont-winema/recarea/?recid=59723"
      }
    },
    {
      "type": "node",
      "id": 4233210341,
      "lat": 42.9561116,
      "lon": -121.6877593,
      "timestamp": "2016-06-09T06:39:34Z",
      "version": 1,
      "changeset": 39899891,
      "user": "Alan Trick",
      "uid": 1722904,
      "tags": {
        "natural": "spring"
      }
    },
    {
      "type": "node",
      "id": 4233210452,
      "lat": 42.9452959,
      "lon": -121.7094166,
      "timestamp": "2016-06-09T06:39:36Z",
      "version": 1,
      "changeset": 39899891,
      "user": "Alan Trick",
      "uid": 1722904,
      "tags": {
        "natural": "spring"
      }
    },
    {
      "type": "node",
      "id": 4233210453,
      "lat": 42.9462014,
      "lon": -121.7160968,
      "timestamp": "2016-06-09T06:39:36Z",
      "version": 1,
      "changeset": 39899891,
      "user": "Alan Trick",
      "uid": 1722904,
      "tags": {
        "natural": "spring"
      }
    },
    {
      "type": "node",
      "id": 4308106655,
      "lat": 42.9939078,
      "lon": -122.185778,
      "timestamp": "2016-07-17T23:32:13Z",
      "version": 1,
      "changeset": 40808183,
      "user": "uniquetoken",
      "uid": 1818753,
      "tags": {
        "name": "Red Cone Spring",
        "natural": "spring"
      }
    },
    {
      "type": "node",
      "id": 4308147767,
      "lat": 42.9910609,
      "lon": -122.1302324,
      "timestamp": "2020-01-11T05:05:22Z",
      "version": 2,
      "changeset": 79442557,
      "user": "kylebarron",
      "uid": 8122137,
      "tags": {
        "backcountry": "yes",
        "name": "Grouse Hill Backcountry Campsite",
        "tourism": "camp_site"
      }
    },
    {
      "type": "node",
      "id": 4308147768,
      "lat": 42.9939259,
      "lon": -122.1860374,
      "timestamp": "2016-07-18T00:26:15Z",
      "version": 1,
      "changeset": 40808579,
      "user": "uniquetoken",
      "uid": 1818753,
      "tags": {
        "name": "Red Cone Backcountry Campsite",
        "tourism": "camp_site"
      }
    },
    {
      "type": "node",
      "id": 4308147769,
      "lat": 42.9337211,
      "lon": -122.1805025,
      "timestamp": "2016-07-18T00:26:15Z",
      "version": 1,
      "changeset": 40808579,
      "user": "uniquetoken",
      "uid": 1818753,
      "tags": {
        "name": "Lightning Springs Backcountry Campsite",
        "tourism": "camp_site"
      }
    },
    {
      "type": "node",
      "id": 4855182137,
      "lat": 43.0560166,
      "lon": -122.3306828,
      "timestamp": "2017-05-15T08:01:02Z",
      "version": 1,
      "changeset": 48693694,
      "user": "Richard",
      "uid": 165,
      "tags": {
        "tourism": "camp_site"
      }
    },
    {
      "type": "node",
      "id": 5322710745,
      "lat": 42.6332444,
      "lon": -122.0772699,
      "timestamp": "2018-01-05T20:59:34Z",
      "version": 1,
      "changeset": 55197707,
      "user": "Adam Schneider",
      "uid": 5403394,
      "tags": {
        "name": "Fourmile Spring",
        "natural": "spring"
      }
    },
    {
      "type": "node",
      "id": 5324802497,
      "lat": 42.9302909,
      "lon": -122.1802576,
      "timestamp": "2018-01-07T01:28:46Z",
      "version": 1,
      "changeset": 55225961,
      "user": "Adam Schneider",
      "uid": 5403394,
      "tags": {
        "natural": "spring"
      }
    },
    {
      "type": "node",
      "id": 5324812307,
      "lat": 43.0668002,
      "lon": -122.2300188,
      "timestamp": "2018-03-31T01:08:48Z",
      "version": 2,
      "changeset": 57677301,
      "user": "Adam Schneider",
      "uid": 5403394,
      "tags": {
        "name": "Boundary Springs",
        "natural": "spring"
      }
    },
    {
      "type": "node",
      "id": 5517536298,
      "lat": 42.6007671,
      "lon": -122.3246312,
      "timestamp": "2018-03-31T01:07:32Z",
      "version": 1,
      "changeset": 57677301,
      "user": "Adam Schneider",
      "uid": 5403394,
      "tags": {
        "name": "Parker Meadows Campground",
        "tourism": "camp_site"
      }
    },
    {
      "type": "node",
      "id": 5517538312,
      "lat": 42.6818202,
      "lon": -122.1839842,
      "timestamp": "2018-03-31T01:07:47Z",
      "version": 1,
      "changeset": 57677301,
      "user": "Adam Schneider",
      "uid": 5403394,
      "tags": {
        "name": "Ranger Springs",
        "natural": "spring"
      }
    },
    {
      "type": "node",
      "id": 5517538423,
      "lat": 42.6822008,
      "lon": -122.1841961,
      "timestamp": "2018-03-31T01:07:47Z",
      "version": 1,
      "changeset": 57677301,
      "user": "Adam Schneider",
      "uid": 5403394,
      "tags": {
        "name": "Ranger Springs",
        "natural": "spring"
      }
    },
    {
      "type": "node",
      "id": 5517538442,
      "lat": 42.6735303,
      "lon": -122.2304535,
      "timestamp": "2018-03-31T01:07:47Z",
      "version": 1,
      "changeset": 57677301,
      "user": "Adam Schneider",
      "uid": 5403394,
      "tags": {
        "name": "Bigfoot Spring",
        "natural": "spring"
      }
    },
    {
      "type": "node",
      "id": 5517538451,
      "lat": 42.6721026,
      "lon": -122.2294021,
      "timestamp": "2018-03-31T01:07:48Z",
      "version": 1,
      "changeset": 57677301,
      "user": "Adam Schneider",
      "uid": 5403394,
      "tags": {
        "name": "Boulder Spring",
        "natural": "spring"
      }
    },
    {
      "type": "node",
      "id": 5517538457,
      "lat": 42.6704618,
      "lon": -122.2283507,
      "timestamp": "2018-03-31T01:07:48Z",
      "version": 1,
      "changeset": 57677301,
      "user": "Adam Schneider",
      "uid": 5403394,
      "tags": {
        "name": "Buckley Spring",
        "natural": "spring"
      }
    },
    {
      "type": "node",
      "id": 5517538461,
      "lat": 42.6672905,
      "lon": -122.2259688,
      "timestamp": "2018-03-31T01:07:49Z",
      "version": 1,
      "changeset": 57677301,
      "user": "Adam Schneider",
      "uid": 5403394,
      "tags": {
        "name": "Jahn Spring",
        "natural": "spring"
      }
    },
    {
      "type": "node",
      "id": 5560622444,
      "lat": 42.7864488,
      "lon": -122.241987,
      "timestamp": "2018-04-18T00:30:12Z",
      "version": 1,
      "changeset": 58185973,
      "user": "cowdog",
      "uid": 3125856,
      "tags": {
        "natural": "spring"
      }
    },
    {
      "type": "node",
      "id": 5560622453,
      "lat": 42.784378,
      "lon": -122.2372663,
      "timestamp": "2018-04-18T00:30:12Z",
      "version": 1,
      "changeset": 58185973,
      "user": "cowdog",
      "uid": 3125856,
      "tags": {
        "natural": "spring"
      }
    },
    {
      "type": "node",
      "id": 5560622474,
      "lat": 42.7848583,
      "lon": -122.225368,
      "timestamp": "2018-04-18T00:30:12Z",
      "version": 1,
      "changeset": 58185973,
      "user": "cowdog",
      "uid": 3125856,
      "tags": {
        "natural": "spring"
      }
    },
    {
      "type": "node",
      "id": 5560622564,
      "lat": 42.7921728,
      "lon": -122.2286403,
      "timestamp": "2018-04-18T00:30:13Z",
      "version": 1,
      "changeset": 58185973,
      "user": "cowdog",
      "uid": 3125856,
      "tags": {
        "natural": "spring"
      }
    },
    {
      "type": "node",
      "id": 5560622567,
      "lat": 42.790047,
      "lon": -122.2287262,
      "timestamp": "2018-04-18T00:30:13Z",
      "version": 1,
      "changeset": 58185973,
      "user": "cowdog",
      "uid": 3125856,
      "tags": {
        "natural": "spring"
      }
    },
    {
      "type": "node",
      "id": 5560622634,
      "lat": 42.8161023,
      "lon": -122.2982383,
      "timestamp": "2018-04-18T00:30:15Z",
      "version": 1,
      "changeset": 58185973,
      "user": "cowdog",
      "uid": 3125856,
      "tags": {
        "name": "Cold Spring",
        "natural": "spring"
      }
    },
    {
      "type": "node",
      "id": 5560622679,
      "lat": 42.87894,
      "lon": -122.2851008,
      "timestamp": "2018-04-18T00:30:15Z",
      "version": 1,
      "changeset": 58185973,
      "user": "cowdog",
      "uid": 3125856,
      "tags": {
        "natural": "spring"
      }
    },
    {
      "type": "node",
      "id": 5560622680,
      "lat": 42.879223,
      "lon": -122.2849506,
      "timestamp": "2018-04-18T00:30:15Z",
      "version": 1,
      "changeset": 58185973,
      "user": "cowdog",
      "uid": 3125856,
      "tags": {
        "natural": "spring"
      }
    },
    {
      "type": "node",
      "id": 5560622681,
      "lat": 42.8797301,
      "lon": -122.2846448,
      "timestamp": "2018-04-18T00:30:15Z",
      "version": 1,
      "changeset": 58185973,
      "user": "cowdog",
      "uid": 3125856,
      "tags": {
        "natural": "spring"
      }
    },
    {
      "type": "node",
      "id": 5560622682,
      "lat": 42.8804416,
      "lon": -122.2842103,
      "timestamp": "2018-04-18T00:30:15Z",
      "version": 1,
      "changeset": 58185973,
      "user": "cowdog",
      "uid": 3125856,
      "tags": {
        "natural": "spring"
      }
    },
    {
      "type": "node",
      "id": 5560622683,
      "lat": 42.881102,
      "lon": -122.2840226,
      "timestamp": "2018-04-18T00:30:15Z",
      "version": 1,
      "changeset": 58185973,
      "user": "cowdog",
      "uid": 3125856,
      "tags": {
        "natural": "spring"
      }
    },
    {
      "type": "node",
      "id": 5560622684,
      "lat": 42.8823166,
      "lon": -122.2838455,
      "timestamp": "2018-04-18T00:30:15Z",
      "version": 1,
      "changeset": 58185973,
      "user": "cowdog",
      "uid": 3125856,
      "tags": {
        "natural": "spring"
      }
    },
    {
      "type": "node",
      "id": 5560622685,
      "lat": 42.8831538,
      "lon": -122.2829658,
      "timestamp": "2018-04-18T00:30:16Z",
      "version": 1,
      "changeset": 58185973,
      "user": "cowdog",
      "uid": 3125856,
      "tags": {
        "natural": "spring"
      }
    },
    {
      "type": "node",
      "id": 5560622686,
      "lat": 42.883885,
      "lon": -122.2826815,
      "timestamp": "2018-04-18T00:30:16Z",
      "version": 1,
      "changeset": 58185973,
      "user": "cowdog",
      "uid": 3125856,
      "tags": {
        "natural": "spring"
      }
    },
    {
      "type": "node",
      "id": 5560622687,
      "lat": 42.8849659,
      "lon": -122.2823274,
      "timestamp": "2018-04-18T00:30:16Z",
      "version": 1,
      "changeset": 58185973,
      "user": "cowdog",
      "uid": 3125856,
      "tags": {
        "natural": "spring"
      }
    },
    {
      "type": "node",
      "id": 5560622688,
      "lat": 42.8858149,
      "lon": -122.2817802,
      "timestamp": "2018-04-18T00:30:16Z",
      "version": 1,
      "changeset": 58185973,
      "user": "cowdog",
      "uid": 3125856,
      "tags": {
        "natural": "spring"
      }
    },
    {
      "type": "node",
      "id": 5560622689,
      "lat": 42.8867897,
      "lon": -122.2812545,
      "timestamp": "2018-04-18T00:30:16Z",
      "version": 1,
      "changeset": 58185973,
      "user": "cowdog",
      "uid": 3125856,
      "tags": {
        "natural": "spring"
      }
    },
    {
      "type": "node",
      "id": 5560622690,
      "lat": 42.8861804,
      "lon": -122.2814423,
      "timestamp": "2018-04-18T00:30:16Z",
      "version": 1,
      "changeset": 58185973,
      "user": "cowdog",
      "uid": 3125856,
      "tags": {
        "natural": "spring"
      }
    },
    {
      "type": "node",
      "id": 5560622691,
      "lat": 42.8867189,
      "lon": -122.2796452,
      "timestamp": "2018-04-18T00:30:16Z",
      "version": 1,
      "changeset": 58185973,
      "user": "cowdog",
      "uid": 3125856,
      "tags": {
        "natural": "spring"
      }
    },
    {
      "type": "node",
      "id": 5560622692,
      "lat": 42.8869312,
      "lon": -122.2801763,
      "timestamp": "2018-04-18T00:30:16Z",
      "version": 1,
      "changeset": 58185973,
      "user": "cowdog",
      "uid": 3125856,
      "tags": {
        "natural": "spring"
      }
    },
    {
      "type": "node",
      "id": 5560622698,
      "lat": 42.886656,
      "lon": -122.2803372,
      "timestamp": "2018-04-18T00:30:16Z",
      "version": 1,
      "changeset": 58185973,
      "user": "cowdog",
      "uid": 3125856,
      "tags": {
        "name": "Thousand Springs",
        "natural": "spring"
      }
    },
    {
      "type": "node",
      "id": 5560622945,
      "lat": 42.8463158,
      "lon": -122.2267413,
      "timestamp": "2018-04-18T00:30:18Z",
      "version": 1,
      "changeset": 58185973,
      "user": "cowdog",
      "uid": 3125856,
      "tags": {
        "name": "Union Creek Spring",
        "natural": "spring"
      }
    },
    {
      "type": "node",
      "id": 5563409490,
      "lat": 42.9055668,
      "lon": -121.9752145,
      "timestamp": "2018-04-19T05:20:25Z",
      "version": 1,
      "changeset": 58222026,
      "user": "cowdog",
      "uid": 3125856,
      "tags": {
        "natural": "spring"
      }
    },
    {
      "type": "node",
      "id": 5563409697,
      "lat": 42.9020539,
      "lon": -121.997745,
      "timestamp": "2018-04-19T05:20:27Z",
      "version": 1,
      "changeset": 58222026,
      "user": "cowdog",
      "uid": 3125856,
      "tags": {
        "natural": "spring"
      }
    },
    {
      "type": "node",
      "id": 5563409700,
      "lat": 42.9006864,
      "lon": -121.9857073,
      "timestamp": "2018-04-19T05:20:27Z",
      "version": 1,
      "changeset": 58222026,
      "user": "cowdog",
      "uid": 3125856,
      "tags": {
        "natural": "spring"
      }
    },
    {
      "type": "node",
      "id": 5743684621,
      "lat": 42.6734819,
      "lon": -121.8626875,
      "timestamp": "2018-07-06T13:40:31Z",
      "version": 1,
      "changeset": 60468104,
      "user": "DiDzej",
      "uid": 7462751,
      "tags": {
        "name": "Free camping",
        "tourism": "camp_site"
      }
    },
    {
      "type": "node",
      "id": 6564637074,
      "lat": 42.6683663,
      "lon": -121.8856076,
      "timestamp": "2019-06-22T14:19:08Z",
      "version": 1,
      "changeset": 71510883,
      "user": "123maps",
      "uid": 542575,
      "tags": {
        "tourism": "camp_site"
      }
    },
    {
      "type": "node",
      "id": 6564669504,
      "lat": 42.6427154,
      "lon": -121.881542,
      "timestamp": "2019-06-22T14:19:09Z",
      "version": 1,
      "changeset": 71510883,
      "user": "123maps",
      "uid": 542575,
      "tags": {
        "amenity": "drinking_water"
      }
    },
    {
      "type": "node",
      "id": 6945869239,
      "lat": 42.8969672,
      "lon": -122.1343386,
      "timestamp": "2019-11-04T17:40:41Z",
      "version": 1,
      "changeset": 76606315,
      "user": "pluton_od",
      "uid": 2411240,
      "tags": {
        "amenity": "drinking_water"
      }
    },
    {
      "type": "node",
      "id": 7123210727,
      "lat": 42.7396158,
      "lon": -122.2037759,
      "timestamp": "2020-01-10T20:52:32Z",
      "version": 1,
      "changeset": 79435028,
      "user": "kylebarron",
      "uid": 8122137,
      "tags": {
        "name": "Jack Spring",
        "natural": "spring"
      }
    },
    {
      "type": "node",
      "id": 7123743878,
      "lat": 42.7300349,
      "lon": -122.2150814,
      "timestamp": "2020-01-11T04:47:48Z",
      "version": 1,
      "changeset": 79442377,
      "user": "kylebarron",
      "uid": 8122137,
      "tags": {
        "natural": "spring"
      }
    },
    {
      "type": "node",
      "id": 7123743914,
      "lat": 42.7262361,
      "lon": -122.2103821,
      "timestamp": "2020-01-11T04:47:48Z",
      "version": 1,
      "changeset": 79442377,
      "user": "kylebarron",
      "uid": 8122137,
      "tags": {
        "name": "Fawn Spring",
        "natural": "spring"
      }
    },
    {
      "type": "node",
      "id": 7129613612,
      "lat": 42.8743096,
      "lon": -122.3277998,
      "timestamp": "2020-01-14T00:11:19Z",
      "version": 1,
      "changeset": 79537072,
      "user": "kylebarron",
      "uid": 8122137,
      "tags": {
        "natural": "spring"
      }
    },
    {
      "type": "node",
      "id": 7647243695,
      "lat": 42.9363222,
      "lon": -122.2301365,
      "timestamp": "2020-08-20T04:12:29Z",
      "version": 2,
      "changeset": 89662801,
      "user": "dchiles",
      "uid": 153669,
      "tags": {
        "access": "permit",
        "backcountry": "yes",
        "capacity": "2",
        "charge": "30USD",
        "fee": "yes",
        "name": "Bybee Creek",
        "note": "Free backpacking permit required. 2 official sites, but dispersed camping allowed. Reliable water source.",
        "operator": "National Park Service",
        "payment:cash": "yes",
        "payment:credit_cards": "yes",
        "payment:debit_cards": "yes",
        "tourism": "camp_site"
      }
    },
    {
      "type": "node",
      "id": 7828296754,
      "lat": 42.864874,
      "lon": -122.159966,
      "timestamp": "2020-08-20T04:43:57Z",
      "version": 1,
      "changeset": 89664121,
      "user": "123maps",
      "uid": 542575,
      "tags": {
        "amenity": "drinking_water"
      }
    },
    {
      "type": "node",
      "id": 7828307055,
      "lat": 42.8643112,
      "lon": -122.1615032,
      "timestamp": "2020-08-20T04:43:59Z",
      "version": 1,
      "changeset": 89664121,
      "user": "123maps",
      "uid": 542575,
      "tags": {
        "amenity": "drinking_water"
      }
    },
    {
      "type": "node",
      "id": 7828314507,
      "lat": 42.8849016,
      "lon": -122.3265499,
      "timestamp": "2020-08-20T04:43:37Z",
      "version": 1,
      "changeset": 89664106,
      "user": "123maps",
      "uid": 542575,
      "tags": {
        "tourism": "camp_site"
      }
    },
    {
      "type": "node",
      "id": 7828320466,
      "lat": 42.8653733,
      "lon": -122.1601928,
      "timestamp": "2020-11-30T23:47:02Z",
      "version": 2,
      "changeset": 95073109,
      "user": "John Hanover",
      "uid": 10686136,
      "tags": {
        "amenity": "drinking_water"
      }
    },
    {
      "type": "node",
      "id": 8372733192,
      "lat": 42.8674191,
      "lon": -122.161797,
      "timestamp": "2021-01-28T18:32:08Z",
      "version": 1,
      "changeset": 98314228,
      "user": "John Hanover",
      "uid": 10686136,
      "tags": {
        "amenity": "drinking_water"
      }
    },
    {
      "type": "node",
      "id": 8372733193,
      "lat": 42.8678683,
      "lon": -122.1622127,
      "timestamp": "2021-01-28T18:32:08Z",
      "version": 1,
      "changeset": 98314228,
      "user": "John Hanover",
      "uid": 10686136,
      "tags": {
        "amenity": "drinking_water"
      }
    },
    {
      "type": "node",
      "id": 8372733194,
      "lat": 42.8673158,
      "lon": -122.1627679,
      "timestamp": "2021-01-28T18:32:08Z",
      "version": 1,
      "changeset": 98314228,
      "user": "John Hanover",
      "uid": 10686136,
      "tags": {
        "amenity": "drinking_water"
      }
    },
    {
      "type": "node",
      "id": 8372733195,
      "lat": 42.8664125,
      "lon": -122.1637175,
      "timestamp": "2021-01-28T18:32:08Z",
      "version": 1,
      "changeset": 98314228,
      "user": "John Hanover",
      "uid": 10686136,
      "tags": {
        "amenity": "drinking_water"
      }
    },
    {
      "type": "node",
      "id": 8372736764,
      "lat": 42.867366,
      "lon": -122.1633741,
      "timestamp": "2021-01-28T18:32:08Z",
      "version": 1,
      "changeset": 98314228,
      "user": "John Hanover",
      "uid": 10686136,
      "tags": {
        "amenity": "drinking_water"
      }
    },
    {
      "type": "node",
      "id": 8372736765,
      "lat": 42.8677631,
      "lon": -122.1639669,
      "timestamp": "2021-01-28T18:32:08Z",
      "version": 1,
      "changeset": 98314228,
      "user": "John Hanover",
      "uid": 10686136,
      "tags": {
        "amenity": "drinking_water"
      }
    },
    {
      "type": "node",
      "id": 8372736968,
      "lat": 42.867367,
      "lon": -122.1653724,
      "timestamp": "2021-01-28T18:32:08Z",
      "version": 1,
      "changeset": 98314228,
      "user": "John Hanover",
      "uid": 10686136,
      "tags": {
        "amenity": "drinking_water"
      }
    },
    {
      "type": "node",
      "id": 8372736969,
      "lat": 42.8680855,
      "lon": -122.1648547,
      "timestamp": "2021-01-28T18:32:08Z",
      "version": 1,
      "changeset": 98314228,
      "user": "John Hanover",
      "uid": 10686136,
      "tags": {
        "amenity": "drinking_water"
      }
    },
    {
      "type": "node",
      "id": 8372737099,
      "lat": 42.8680639,
      "lon": -122.1659356,
      "timestamp": "2021-01-28T18:32:08Z",
      "version": 1,
      "changeset": 98314228,
      "user": "John Hanover",
      "uid": 10686136,
      "tags": {
        "amenity": "drinking_water"
      }
    },
    {
      "type": "way",
      "id": 197752984,
      "timestamp": "2012-12-23T12:30:21Z",
      "version": 2,
      "changeset": 14376793,
      "user": "ThorstenNeumann",
      "uid": 178711,
      "center": {
        "lat": 42.7025747,
        "lon": -121.9937815
      },
      "nodes": [],
      "tags": {
        "landuse": "residential",
        "name": "Fort Klamath",
        "place": "village"
      }
    },
    {
      "type": "way",
      "id": 198568632,
      "timestamp": "2012-12-29T10:06:38Z",
      "version": 1,
      "changeset": 14448554,
      "user": "ThorstenNeumann",
      "uid": 178711,
      "center": {
        "lat": 42.5783809,
        "lon": -121.866781
      },
      "nodes": [],
      "tags": {
        "building": "yes",
        "name": "Clyde's Fairway Market",
        "shop": "supermarket"
      }
    },
    {
      "type": "way",
      "id": 222609396,
      "timestamp": "2019-02-15T01:14:29Z",
      "version": 3,
      "changeset": 67212238,
      "user": "b-jazz",
      "uid": 5800005,
      "center": {
        "lat": 42.8654159,
        "lon": -122.1636362
      },
      "nodes": [],
      "tags": {
        "email": "crla_information_requests@nps.gov",
        "fax": "+1 541 594-3010",
        "internet_access": "no",
        "name": "Mazama Campground",
        "operator": "National Park Service",
        "phone": "+1 541 594-3000",
        "tourism": "camp_site",
        "website": "https://www.nps.gov/crla/planyourvisit/campgrounds.htm"
      }
    },
    {
      "type": "way",
      "id": 316474222,
      "timestamp": "2016-11-29T22:29:56Z",
      "version": 2,
      "changeset": 44046642,
      "user": "Timothy Smith",
      "uid": 115918,
      "center": {
        "lat": 42.5756846,
        "lon": -121.8631131
      },
      "nodes": [],
      "tags": {
        "building": "yes",
        "name": "Family Food Center",
        "shop": "supermarket"
      }
    },
    {
      "type": "way",
      "id": 368177902,
      "timestamp": "2015-08-29T19:21:21Z",
      "version": 1,
      "changeset": 33669832,
      "user": "Heron4519",
      "uid": 624888,
      "center": {
        "lat": 42.8644365,
        "lon": -122.1629687
      },
      "nodes": [],
      "tags": {
        "name": "Hiker Biker Site",
        "tourism": "camp_site"
      }
    },
    {
      "type": "way",
      "id": 712662562,
      "timestamp": "2019-08-11T15:50:27Z",
      "version": 1,
      "changeset": 73244738,
      "user": "cowdog",
      "uid": 3125856,
      "center": {
        "lat": 42.8798323,
        "lon": -122.0386688
      },
      "nodes": [],
      "tags": {
        "name": "Lost Creek Campground",
        "tourism": "camp_site"
      }
    },
    {
      "type": "way",
      "id": 960666467,
      "timestamp": "2021-07-02T07:27:24Z",
      "version": 1,
      "changeset": 107295380,
      "user": "Adam Schneider",
      "uid": 5403394,
      "center": {
        "lat": 43.0639487,
        "lon": -122.3430034
      },
      "nodes": [],
      "tags": {
        "amenity": "shelter",
        "building": "yes"
      }
    }
  ]
}