{
  "osm3s": {
    "timestamp_osm_date": "2021-08-02T23:59:59Z",
    "timestamp_osm_base": "2021-08-03T02:53:26Z",
    "copyright": "The data included in this document is from www.openstreetmap.org. The data is made available under ODbL."
  },
  "elements": [
    {
      "type": "node",
      "id": 150932742,
      "lat": 42.1265334,
      "lon": -121.9300076,
      "timestamp": "2020-10-23T06:46:21Z",
      "version": 5,
      "changeset": 92932713,
      "user": "tguen",
      "uid": 9465017,
      "tags": {
        "ele": "1252",
        "gnis:id": "1122689",
        "name": "Keno",
        "place": "hamlet"
      }
    },
    {
      "type": "node",
      "id": 150934994,
      "lat": 42.1832005,
      "lon": -121.8230599,
      "timestamp": "2020-10-23T06:46:21Z",
      "version": 5,
      "changeset": 92932713,
      "user": "tguen",
      "uid": 9465017,
      "tags": {
        "ele": "1286",
        "gnis:id": "1135527",
        "name": "Fairhaven",
        "place": "hamlet"
      }
    },
    {
      "type": "node",
      "id": 150938071,
      "lat": 42.1520916,
      "lon": -121.6988887,
      "timestamp": "2020-10-23T06:46:21Z",
      "version": 5,
      "changeset": 92932713,
      "user": "tguen",
      "uid": 9465017,
      "tags": {
        "ele": "1250",
        "gnis:id": "1136371",
        "name": "Henley",
        "place": "hamlet"
      }
    },
    {
      "type": "node",
      "id": 150938845,
      "lat": 42.224867,
      "lon": -121.7816704,
      "timestamp": "2020-10-23T06:46:21Z",
      "version": 8,
      "changeset": 92932713,
      "user": "tguen",
      "uid": 9465017,
      "tags": {
        "census:population": "19785;2006",
        "ele": "1252",
        "gnis:id": "1136445",
        "name": "Klamath Falls",
        "name:en": "Klamath Falls",
        "name:ru": "Кламат-Фолс",
        "place": "town",
        "population": "19785",
        "wikidata": "Q846146"
      }
    },
    {
      "type": "node",
      "id": 150939196,
      "lat": 42.4806908,
      "lon": -122.084186,
      "timestamp": "2020-10-23T06:46:21Z",
      "version": 4,
      "changeset": 92932713,
      "user": "tguen",
      "uid": 9465017,
      "tags": {
        "ele": "1264",
        "gnis:id": "1161493",
        "name": "Rocky Point",
        "place": "hamlet"
      }
    },
    {
      "type": "node",
      "id": 150943891,
      "lat": 42.2068123,
      "lon": -121.737224,
      "timestamp": "2020-10-23T06:46:21Z",
      "version": 4,
      "changeset": 92932713,
      "user": "tguen",
      "uid": 9465017,
      "tags": {
        "ele": "1263",
        "gnis:id": "1116894",
        "name": "Altamont",
        "place": "hamlet"
      }
    },
    {
      "type": "node",
      "id": 150955168,
      "lat": 42.1314811,
      "lon": -121.754181,
      "timestamp": "2020-10-23T06:46:21Z",
      "version": 6,
      "changeset": 92932713,
      "user": "tguen",
      "uid": 9465017,
      "tags": {
        "ele": "1346",
        "gnis:id": "1161658",
        "name": "Falcon Heights",
        "place": "hamlet"
      }
    },
    {
      "type": "node",
      "id": 150959878,
      "lat": 42.4448606,
      "lon": -121.8683452,
      "timestamp": "2020-10-23T06:46:21Z",
      "version": 4,
      "changeset": 92932713,
      "user": "tguen",
      "uid": 9465017,
      "tags": {
        "ele": "1269",
        "gnis:id": "1166683",
        "name": "Modoc Point",
        "place": "hamlet"
      }
    },
    {
      "type": "node",
      "id": 150964555,
      "lat": 42.2665324,
      "lon": -121.8111169,
      "timestamp": "2020-10-23T06:46:21Z",
      "version": 5,
      "changeset": 92932713,
      "user": "tguen",
      "uid": 9465017,
      "tags": {
        "ele": "1279",
        "gnis:id": "1158954",
        "name": "Terminal City",
        "place": "hamlet"
      }
    },
    {
      "type": "node",
      "id": 150965268,
      "lat": 42.308198,
      "lon": -121.8036176,
      "timestamp": "2020-10-23T06:46:21Z",
      "version": 5,
      "changeset": 92932713,
      "user": "tguen",
      "uid": 9465017,
      "tags": {
        "ele": "1265",
        "gnis:id": "1136741",
        "name": "Shady Pine",
        "place": "hamlet"
      }
    },
    {
      "type": "node",
      "id": 150965954,
      "lat": 42.1805816,
      "lon": -121.6683944,
      "timestamp": "2020-10-23T06:46:21Z",
      "version": 6,
      "changeset": 92932713,
      "user": "tguen",
      "uid": 9465017,
      "tags": {
        "ele": "1265",
        "gnis:id": "1125399",
        "name": "Pine Grove",
        "place": "hamlet"
      }
    },
    {
      "type": "node",
      "id": 150970787,
      "lat": 42.0454246,
      "lon": -121.8663922,
      "timestamp": "2020-10-23T06:46:21Z",
      "version": 5,
      "changeset": 92932713,
      "user": "tguen",
      "uid": 9465017,
      "tags": {
        "ele": "1252",
        "gnis:id": "1136925",
        "name": "Worden",
        "place": "hamlet",
        "wikidata": "Q8034384",
        "wikipedia": "en:Worden, Oregon"
      }
    },
    {
      "type": "node",
      "id": 150971676,
      "lat": 42.1307015,
      "lon": -121.8202809,
      "timestamp": "2020-10-23T06:46:21Z",
      "version": 4,
      "changeset": 92932713,
      "user": "tguen",
      "uid": 9465017,
      "tags": {
        "ele": "1250",
        "gnis:id": "1136536",
        "name": "Midland",
        "place": "hamlet"
      }
    },
    {
      "type": "node",
      "id": 150976159,
      "lat": 42.3470858,
      "lon": -121.8155633,
      "timestamp": "2020-10-23T06:46:21Z",
      "version": 5,
      "changeset": 92932713,
      "user": "tguen",
      "uid": 9465017,
      "tags": {
        "ele": "1265",
        "gnis:id": "1135996",
        "name": "Algoma",
        "place": "hamlet"
      }
    },
    {
      "type": "node",
      "id": 150976871,
      "lat": 42.1915339,
      "lon": -121.8094484,
      "timestamp": "2020-10-23T06:46:21Z",
      "version": 5,
      "changeset": 92932713,
      "user": "tguen",
      "uid": 9465017,
      "tags": {
        "ele": "1291",
        "gnis:id": "1132514",
        "name": "Stewart Lenox",
        "place": "hamlet"
      }
    },
    {
      "type": "node",
      "id": 150979878,
      "lat": 42.1912574,
      "lon": -121.7002786,
      "timestamp": "2020-10-23T06:46:21Z",
      "version": 4,
      "changeset": 92932713,
      "user": "tguen",
      "uid": 9465017,
      "tags": {
        "ele": "1269",
        "gnis:id": "1136350",
        "name": "Hager",
        "place": "hamlet"
      }
    },
    {
      "type": "node",
      "id": 357312332,
      "lat": 42.4445517,
      "lon": -122.315955,
      "timestamp": "2020-11-12T17:41:09Z",
      "version": 7,
      "changeset": 94010654,
      "user": "mtbgreg1",
      "uid": 9051711,
      "tags": {
        "ele": "2895",
        "gnis:county_id": "029",
        "gnis:created": "11/28/1980",
        "gnis:feature_id": "1146020",
        "gnis:state_id": "41",
        "name": "Mount McLoughlin",
        "natural": "volcano",
        "old_name": "Mount Pitt",
        "wikidata": "Q1772545",
        "wikipedia": "en:Mount McLoughlin"
      }
    },
    {
      "type": "node",
      "id": 1359456708,
      "lat": 42.2009702,
      "lon": -121.728433,
      "timestamp": "2011-08-18T03:45:21Z",
      "version": 2,
      "changeset": 9053432,
      "user": "Bryce C Nesbitt",
      "uid": 355242,
      "tags": {
        "amenity": "drinking_water",
        "note": "Only available during summer."
      }
    },
    {
      "type": "node",
      "id": 3386169891,
      "lat": 42.428882,
      "lon": -122.060062,
      "timestamp": "2019-02-15T01:13:33Z",
      "version": 2,
      "changeset": 67212224,
      "user": "b-jazz",
      "uid": 5800005,
      "tags": {
        "name": "Odessa Campground",
        "operator": "United States Forest Service",
        "tourism": "camp_site",
        "website": "https://www.fs.usda.gov/recarea/fremont-winema/recarea/?recid=59729"
      }
    },
    {
      "type": "node",
      "id": 4290716688,
      "lat": 42.2111054,
      "lon": -121.7536007,
      "timestamp": "2016-07-08T12:06:41Z",
      "version": 1,
      "changeset": 40566795,
      "user": "GoWestTravel",
      "uid": 3478684,
      "tags": {
        "name": "Sherm's Thunderbird Discount Market",
        "shop": "supermarket"
      }
    },
    {
      "type": "node",
      "id": 5077368024,
      "lat": 42.0463642,
      "lon": -121.8655862,
      "timestamp": "2017-09-03T16:28:54Z",
      "version": 1,
      "changeset": 51696870,
      "user": "Brad Meteor",
      "uid": 1529630,
      "tags": {
        "name": "Worden Mart",
        "shop": "convenience"
      }
    },
    {
      "type": "node",
      "id": 5077525626,
      "lat": 42.1300745,
      "lon": -121.8227478,
      "timestamp": "2017-09-03T18:09:23Z",
      "version": 1,
      "changeset": 51699116,
      "user": "Brad Meteor",
      "uid": 1529630,
      "tags": {
        "name": "Midland Market",
        "shop": "convenience"
      }
    },
    {
      "type": "node",
      "id": 5078013552,
      "lat": 42.1976443,
      "lon": -121.7562392,
      "timestamp": "2020-04-07T21:35:23Z",
      "version": 3,
      "changeset": 83218796,
      "user": "John-Michael Glenn",
      "uid": 9143862,
      "tags": {
        "addr:city": "Klamath Falls",
        "addr:housenumber": "3301",
        "addr:postcode": "97601",
        "addr:state": "OR",
        "addr:street": "Washburn Way",
        "brand": "FastBreak",
        "name": "FastBreak",
        "shop": "convenience"
      }
    },
    {
      "type": "node",
      "id": 5948413686,
      "lat": 42.1231025,
      "lon": -122.0420277,
      "timestamp": "2018-10-02T11:01:12Z",
      "version": 1,
      "changeset": 63120423,
      "user": "Naoki Ando",
      "uid": 8899022,
      "tags": {
        "name": "Topsy campground",
        "tourism": "camp_site"
      }
    },
    {
      "type": "node",
      "id": 6189010390,
      "lat": 42.3937859,
      "lon": -122.3179972,
      "timestamp": "2019-01-07T02:53:01Z",
      "version": 1,
      "changeset": 66084739,
      "user": "123maps",
      "uid": 542575,
      "tags": {
        "amenity": "shelter"
      }
    },
    {
      "type": "node",
      "id": 6465725748,
      "lat": 42.1053251,
      "lon": -122.2789072,
      "timestamp": "2019-05-10T21:07:13Z",
      "version": 1,
      "changeset": 70124690,
      "user": "123maps",
      "uid": 542575,
      "tags": {
        "amenity": "shelter",
        "name": "Fire lookout"
      }
    },
    {
      "type": "node",
      "id": 6580763485,
      "lat": 42.3933274,
      "lon": -122.3223233,
      "timestamp": "2019-07-01T01:23:12Z",
      "version": 1,
      "changeset": 71768249,
      "user": "Jesse Cude",
      "uid": 3569545,
      "tags": {
        "name": "Doe Point Campground #23",
        "tourism": "camp_site"
      }
    },
    {
      "type": "node",
      "id": 6849043385,
      "lat": 42.2390098,
      "lon": -121.792362,
      "timestamp": "2021-01-19T15:53:58Z",
      "version": 2,
      "changeset": 97779579,
      "user": "Timothy Smith",
      "uid": 115918,
      "tags": {
        "brand": "Circle K",
        "brand:wikidata": "Q3268010",
        "brand:wikipedia": "en:Circle K",
        "name": "Circle K",
        "shop": "convenience"
      }
    },
    {
      "type": "node",
      "id": 7153043684,
      "lat": 42.2060198,
      "lon": -121.7172249,
      "timestamp": "2020-04-07T21:35:23Z",
      "version": 3,
      "changeset": 83218796,
      "user": "John-Michael Glenn",
      "uid": 9143862,
      "tags": {
        "addr:city": "Klamath Falls",
        "addr:housenumber": "5800",
        "addr:postcode": "97603",
        "addr:state": "OR",
        "addr:street": "South 6th Street",
        "brand": "FastBreak",
        "name": "FastBreak",
        "shop": "convenience"
      }
    },
    {
      "type": "node",
      "id": 7157926827,
      "lat": 42.2112489,
      "lon": -121.7579475,
      "timestamp": "2020-01-25T05:36:38Z",
      "version": 1,
      "changeset": 80059741,
      "user": "Harry Cutts",
      "uid": 670691,
      "tags": {
        "name": "Prem's Gas & Mini Mart",
        "shop": "convenience"
      }
    },
    {
      "type": "node",
      "id": 7157926828,
      "lat": 42.2093804,
      "lon": -121.756265,
      "timestamp": "2021-07-04T18:11:54Z",
      "version": 2,
      "changeset": 107401571,
      "user": "Timothy Smith",
      "uid": 115918,
      "tags": {
        "addr:housenumber": "2800",
        "addr:street": "South 6th Street",
        "branch": "Klamath Falls",
        "brand": "Natural Grocers",
        "brand:wikidata": "Q17146520",
        "brand:wikipedia": "en:Vitamin Cottage Natural Grocers",
        "name": "Natural Grocers",
        "opening_hours": "Mo-Sa 08:30-20:36; Su 09:00-19:35",
        "phone": "+1-541-887-4470",
        "shop": "supermarket",
        "website": "https://www.naturalgrocers.com/store/klamath-falls"
      }
    },
    {
      "type": "node",
      "id": 7259115834,
      "lat": 42.4035499,
      "lon": -122.2439053,
      "timestamp": "2020-03-02T20:53:42Z",
      "version": 1,
      "changeset": 81697954,
      "user": "123maps",
      "uid": 542575,
      "tags": {
        "amenity": "shelter",
        "description": "Log shelter built nov. 1994",
        "name": "Summit Shelter"
      }
    },
    {
      "type": "node",
      "id": 7374219849,
      "lat": 42.1853527,
      "lon": -121.7221534,
      "timestamp": "2020-04-07T21:35:23Z",
      "version": 2,
      "changeset": 83218796,
      "user": "John-Michael Glenn",
      "uid": 9143862,
      "tags": {
        "addr:city": "Klamath Falls",
        "addr:housenumber": "4449",
        "addr:postcode": "97603",
        "addr:state": "OR",
        "addr:street": "Homedale Road",
        "brand": "FastBreak",
        "building": "commercial",
        "name": "FastBreak",
        "shop": "convenience",
        "wheelchair": "yes"
      }
    },
    {
      "type": "node",
      "id": 7374219854,
      "lat": 42.25505,
      "lon": -121.7991449,
      "timestamp": "2020-04-07T21:35:23Z",
      "version": 2,
      "changeset": 83218796,
      "user": "John-Michael Glenn",
      "uid": 9143862,
      "tags": {
        "addr:city": "Klamath Falls",
        "addr:housenumber": "3730",
        "addr:postcode": "97601",
        "addr:state": "OR",
        "addr:street": "The Dalles-California Highway",
        "brand": "FastBreak",
        "name": "FastBreak",
        "shop": "convenience"
      }
    },
    {
      "type": "node",
      "id": 7880349830,
      "lat": 42.3937563,
      "lon": -122.317746,
      "timestamp": "2020-09-06T05:06:20Z",
      "version": 1,
      "changeset": 90469430,
      "user": "123maps",
      "uid": 542575,
      "tags": {
        "amenity": "drinking_water"
      }
    },
    {
      "type": "node",
      "id": 7949411007,
      "lat": 42.4681171,
      "lon": -122.1013685,
      "timestamp": "2020-09-28T02:22:04Z",
      "version": 1,
      "changeset": 91603394,
      "user": "123maps",
      "uid": 542575,
      "tags": {
        "name": "Harriman",
        "tourism": "camp_site"
      }
    },
    {
      "type": "way",
      "id": 95912543,
      "timestamp": "2019-04-21T23:47:47Z",
      "version": 7,
      "changeset": 69436972,
      "user": "maxerickson",
      "uid": 360392,
      "center": {
        "lat": 42.1932856,
        "lon": -121.7605791
      },
      "nodes": [],
      "tags": {
        "addr:city": "Klamath Falls",
        "addr:country": "US",
        "addr:housenumber": "3600",
        "addr:postcode": "97603",
        "addr:state": "OR",
        "addr:street": "Washburn Way",
        "brand": "Walmart",
        "brand:wikidata": "Q483551",
        "brand:wikipedia": "en:Walmart",
        "building": "retail",
        "name": "Walmart Supercenter",
        "opening_hours": "24/7",
        "operator": "Walmart",
        "operator:wikidata": "Q483551",
        "operator:wikipedia": "en:Walmart",
        "phone": "+1-541-885-6890",
        "ref:walmart": "1772",
        "shop": "supermarket",
        "website": "https://www.walmart.com/store/1772/klamath-falls-or/whats-new"
      }
    },
    {
      "type": "way",
      "id": 201857118,
      "timestamp": "2020-03-11T00:48:51Z",
      "version": 6,
      "changeset": 82027841,
      "user": "mapman44",
      "uid": 2888253,
      "center": {
        "lat": 42.2154505,
        "lon": -121.7557404
      },
      "nodes": [],
      "tags": {
        "addr:city": "Klamath Falls",
        "addr:housenumber": "2655",
        "addr:postcode": "97603",
        "addr:state": "OR",
        "addr:street": "Shasta Way",
        "brand": "Fred Meyer",
        "brand:wikidata": "Q5495932",
        "brand:wikipedia": "en:Fred Meyer",
        "building": "retail",
        "building:levels": "1",
        "name": "Fred Meyer",
        "opening_hours": "Mo-Su 06:00-23:00",
        "phone": "+1-541-884-1086",
        "shop": "supermarket",
        "website": "https://www.fredmeyer.com/stores/details/701/00165"
      }
    },
    {
      "type": "way",
      "id": 271676637,
      "timestamp": "2016-06-02T17:49:02Z",
      "version": 2,
      "changeset": 39759418,
      "user": "Mike Moresi",
      "uid": 3970738,
      "center": {
        "lat": 42.2068143,
        "lon": -121.7360921
      },
      "nodes": [],
      "tags": {
        "building": "yes",
        "name": "Murphy's Market",
        "shop": "convenience"
      }
    },
    {
      "type": "way",
      "id": 271676693,
      "timestamp": "2019-09-18T18:44:34Z",
      "version": 4,
      "changeset": 74641921,
      "user": "Timothy Smith",
      "uid": 115918,
      "center": {
        "lat": 42.2073986,
        "lon": -121.7356752
      },
      "nodes": [],
      "tags": {
        "brand": "Grocery Outlet",
        "brand:wikidata": "Q5609934",
        "brand:wikipedia": "en:Grocery Outlet",
        "building": "yes",
        "name": "Grocery Outlet",
        "official_name": "Grocery Outlet Bargain Market",
        "shop": "supermarket"
      }
    },
    {
      "type": "way",
      "id": 331546058,
      "timestamp": "2019-02-15T01:13:34Z",
      "version": 2,
      "changeset": 67212224,
      "user": "b-jazz",
      "uid": 5800005,
      "center": {
        "lat": 42.3828743,
        "lon": -122.2124424
      },
      "nodes": [],
      "tags": {
        "name": "Aspen Point Campground",
        "operator": "United States Forest Service",
        "tourism": "camp_site",
        "website": "https://www.fs.usda.gov/recarea/fremont-winema/recarea/?recid=59725"
      }
    },
    {
      "type": "way",
      "id": 331546075,
      "timestamp": "2019-02-15T01:13:34Z",
      "version": 2,
      "changeset": 67212224,
      "user": "b-jazz",
      "uid": 5800005,
      "center": {
        "lat": 42.371059,
        "lon": -122.2051715
      },
      "nodes": [],
      "tags": {
        "name": "Sunset Campground",
        "operator": "United States Forest Service",
        "tourism": "camp_site",
        "website": "https://www.fs.usda.gov/recarea/fremont-winema/recarea/?recid=59731"
      }
    },
    {
      "type": "way",
      "id": 569764104,
      "timestamp": "2018-03-14T22:11:43Z",
      "version": 1,
      "changeset": 57192389,
      "user": "Adam Schneider",
      "uid": 5403394,
      "center": {
        "lat": 42.3948595,
        "lon": -122.3181188
      },
      "nodes": [],
      "tags": {
        "name": "Fish Lake Campground",
        "tourism": "camp_site"
      }
    },
    {
      "type": "way",
      "id": 569764105,
      "timestamp": "2018-03-14T22:11:43Z",
      "version": 1,
      "changeset": 57192389,
      "user": "Adam Schneider",
      "uid": 5403394,
      "center": {
        "lat": 42.3927954,
        "lon": -122.3240196
      },
      "nodes": [],
      "tags": {
        "name": "Doe Point Campground",
        "tourism": "camp_site"
      }
    },
    {
      "type": "way",
      "id": 713184025,
      "timestamp": "2019-08-12T23:20:27Z",
      "version": 1,
      "changeset": 73286098,
      "user": "Palolo",
      "uid": 385046,
      "center": {
        "lat": 42.1314258,
        "lon": -121.9443369
      },
      "nodes": [],
      "tags": {
        "leisure": "park",
        "name": "Keno Recreation Area",
        "operator": "Pacificorp",
        "tourism": "camp_site"
      }
    },
    {
      "type": "way",
      "id": 942610780,
      "timestamp": "2021-05-13T14:34:09Z",
      "version": 1,
      "changeset": 104643388,
      "user": "seattlefyi",
      "uid": 692614,
      "center": {
        "lat": 42.2148255,
        "lon": -121.7463849
      },
      "nodes": [],
      "tags": {
        "addr:city": "Klamath Falls",
        "addr:housenumber": "3435",
        "addr:postcode": "97603",
        "addr:state": "OR",
        "addr:street": "Shasta Way",
        "brand": "KOA",
        "name": "Klamath Falls KOA Journey",
        "tourism": "camp_site"
      }
    }
  ]
}