{
  "osm3s": {
    "timestamp_osm_date": "2021-09-29T23:59:59Z",
    "timestamp_osm_base": "2021-09-30T02:51:07Z",
    "copyright": "The data included in this document is from www.openstreetmap.org. The data is made available under ODbL."
  },
  "elements": [
    {
      "type": "node",
      "id": 147131399,
      "lat": 41.1915464,
      "lon": -122.0644459,
      "timestamp": "2008-12-06T13:33:27Z",
      "version": 2,
      "changeset": 145015,
      "user": "davidearl",
      "uid": 3582,
      "tags": {
        "ele": "868",
        "gnis:Class": "Populated Place",
        "gnis:County": "Siskiyou",
        "gnis:County_num": "093",
        "gnis:ST_alpha": "CA",
        "gnis:ST_num": "06",
        "gnis:id": "1660206",
        "import_uuid": "bb7269ee-502a-5391-8056-e3ce0e66489c",
        "is_in": "Siskiyou,California,Calif.,CA,USA",
        "name": "Wyntoon",
        "place": "hamlet"
      }
    },
    {
      "type": "node",
      "id": 147131432,
      "lat": 41.2468204,
      "lon": -122.2611193,
      "timestamp": "2019-06-02T07:58:01Z",
      "version": 3,
      "changeset": 70850618,
      "user": "Edward",
      "uid": 364,
      "tags": {
        "ele": "878",
        "gnis:Class": "Populated Place",
        "gnis:County": "Siskiyou",
        "gnis:County_num": "093",
        "gnis:ST_alpha": "CA",
        "gnis:ST_num": "06",
        "gnis:id": "266053",
        "import_uuid": "bb7269ee-502a-5391-8056-e3ce0e66489c",
        "is_in": "Siskiyou,California,Calif.,CA,USA",
        "name": "Shasta Springs",
        "place": "hamlet",
        "wikidata": "Q7490598"
      }
    },
    {
      "type": "node",
      "id": 147131481,
      "lat": 41.208209,
      "lon": -122.271953,
      "timestamp": "2016-11-16T19:53:35Z",
      "version": 7,
      "changeset": 43709254,
      "user": "DenisCarriere",
      "uid": 472018,
      "tags": {
        "census:population": "1836;2006",
        "ele": "695",
        "gnis:Class": "Populated Place",
        "gnis:County": "Siskiyou",
        "gnis:County_num": "093",
        "gnis:ST_alpha": "CA",
        "gnis:ST_num": "06",
        "gnis:id": "277501",
        "import_uuid": "bb7269ee-502a-5391-8056-e3ce0e66489c",
        "is_in": "Siskiyou,California,Calif.,CA,USA",
        "name": "Dunsmuir",
        "place": "village",
        "population": "1836",
        "wikidata": "Q611982"
      }
    },
    {
      "type": "node",
      "id": 147131551,
      "lat": 41.25766,
      "lon": -121.8211073,
      "timestamp": "2008-12-06T13:33:29Z",
      "version": 2,
      "changeset": 145015,
      "user": "davidearl",
      "uid": 3582,
      "tags": {
        "ele": "1213",
        "gnis:Class": "Populated Place",
        "gnis:County": "Siskiyou",
        "gnis:County_num": "093",
        "gnis:ST_alpha": "CA",
        "gnis:ST_num": "06",
        "gnis:id": "256562",
        "import_uuid": "bb7269ee-502a-5391-8056-e3ce0e66489c",
        "is_in": "Siskiyou,California,Calif.,CA,USA",
        "name": "Bartle",
        "place": "hamlet"
      }
    },
    {
      "type": "node",
      "id": 147131615,
      "lat": 41.1298742,
      "lon": -122.3202878,
      "timestamp": "2008-12-06T13:33:30Z",
      "version": 2,
      "changeset": 145015,
      "user": "davidearl",
      "uid": 3582,
      "tags": {
        "ele": "586",
        "gnis:Class": "Populated Place",
        "gnis:County": "Shasta",
        "gnis:County_num": "089",
        "gnis:ST_alpha": "CA",
        "gnis:ST_num": "06",
        "gnis:id": "1656351",
        "import_uuid": "bb7269ee-502a-5391-8056-e3ce0e66489c",
        "is_in": "Shasta,California,Calif.,CA,USA",
        "name": "Sweetbriar",
        "place": "hamlet"
      }
    },
    {
      "type": "node",
      "id": 147131809,
      "lat": 41.1384854,
      "lon": -122.3177877,
      "timestamp": "2008-12-06T13:33:32Z",
      "version": 2,
      "changeset": 145015,
      "user": "davidearl",
      "uid": 3582,
      "tags": {
        "ele": "594",
        "gnis:Class": "Populated Place",
        "gnis:County": "Shasta",
        "gnis:County_num": "089",
        "gnis:ST_alpha": "CA",
        "gnis:ST_num": "06",
        "gnis:id": "258050",
        "import_uuid": "bb7269ee-502a-5391-8056-e3ce0e66489c",
        "is_in": "Shasta,California,Calif.,CA,USA",
        "name": "Castella",
        "place": "hamlet"
      }
    },
    {
      "type": "node",
      "id": 147131823,
      "lat": 41.1451607,
      "lon": -121.6769348,
      "timestamp": "2008-12-06T13:33:33Z",
      "version": 2,
      "changeset": 145015,
      "user": "davidearl",
      "uid": 3582,
      "tags": {
        "ele": "1341",
        "gnis:Class": "Populated Place",
        "gnis:County": "Shasta",
        "gnis:County_num": "089",
        "gnis:ST_alpha": "CA",
        "gnis:ST_num": "06",
        "gnis:id": "1658715",
        "import_uuid": "bb7269ee-502a-5391-8056-e3ce0e66489c",
        "is_in": "Shasta,California,Calif.,CA,USA",
        "name": "Harlow Place",
        "place": "hamlet"
      }
    },
    {
      "type": "node",
      "id": 147131854,
      "lat": 41.1993273,
      "lon": -121.6888808,
      "timestamp": "2018-03-29T07:16:19Z",
      "version": 3,
      "changeset": 57622982,
      "user": "Edward",
      "uid": 364,
      "tags": {
        "ele": "1262",
        "gnis:Class": "Populated Place",
        "gnis:County": "Siskiyou",
        "gnis:County_num": "093",
        "gnis:ST_alpha": "CA",
        "gnis:ST_num": "06",
        "gnis:id": "264928",
        "import_uuid": "bb7269ee-502a-5391-8056-e3ce0e66489c",
        "is_in": "Siskiyou,California,Calif.,CA,USA",
        "name": "Pondosa",
        "place": "hamlet",
        "wikidata": "Q7227743"
      }
    },
    {
      "type": "node",
      "id": 147131976,
      "lat": 41.3129308,
      "lon": -122.2769544,
      "timestamp": "2008-12-06T13:33:35Z",
      "version": 2,
      "changeset": 145015,
      "user": "davidearl",
      "uid": 3582,
      "tags": {
        "ele": "1269",
        "gnis:Class": "Populated Place",
        "gnis:County": "Siskiyou",
        "gnis:County_num": "093",
        "gnis:ST_alpha": "CA",
        "gnis:ST_num": "06",
        "gnis:id": "261569",
        "import_uuid": "bb7269ee-502a-5391-8056-e3ce0e66489c",
        "is_in": "Siskiyou,California,Calif.,CA,USA",
        "name": "Howard",
        "place": "hamlet"
      }
    },
    {
      "type": "node",
      "id": 147132110,
      "lat": 41.2598757,
      "lon": -122.2755645,
      "timestamp": "2008-12-06T13:33:36Z",
      "version": 2,
      "changeset": 145015,
      "user": "davidearl",
      "uid": 3582,
      "tags": {
        "ele": "971",
        "gnis:Class": "Populated Place",
        "gnis:County": "Siskiyou",
        "gnis:County_num": "093",
        "gnis:ST_alpha": "CA",
        "gnis:ST_num": "06",
        "gnis:id": "263883",
        "import_uuid": "bb7269ee-502a-5391-8056-e3ce0e66489c",
        "is_in": "Siskiyou,California,Calif.,CA,USA",
        "name": "Mott",
        "place": "hamlet"
      }
    },
    {
      "type": "node",
      "id": 147132127,
      "lat": 41.1696048,
      "lon": -121.7147142,
      "timestamp": "2008-12-06T13:33:36Z",
      "version": 2,
      "changeset": 145015,
      "user": "davidearl",
      "uid": 3582,
      "tags": {
        "ele": "1289",
        "gnis:Class": "Populated Place",
        "gnis:County": "Shasta",
        "gnis:County_num": "089",
        "gnis:ST_alpha": "CA",
        "gnis:ST_num": "06",
        "gnis:id": "1659280",
        "import_uuid": "bb7269ee-502a-5391-8056-e3ce0e66489c",
        "is_in": "Shasta,California,Calif.,CA,USA",
        "name": "Obie",
        "place": "hamlet"
      }
    },
    {
      "type": "node",
      "id": 147132259,
      "lat": 41.2679336,
      "lon": -122.161672,
      "timestamp": "2008-12-06T13:33:37Z",
      "version": 2,
      "changeset": 145015,
      "user": "davidearl",
      "uid": 3582,
      "tags": {
        "ele": "1140",
        "gnis:Class": "Populated Place",
        "gnis:County": "Siskiyou",
        "gnis:County_num": "093",
        "gnis:ST_alpha": "CA",
        "gnis:ST_num": "06",
        "gnis:id": "1658774",
        "import_uuid": "bb7269ee-502a-5391-8056-e3ce0e66489c",
        "is_in": "Siskiyou,California,Calif.,CA,USA",
        "name": "Hooper",
        "place": "hamlet"
      }
    },
    {
      "type": "node",
      "id": 147132318,
      "lat": 41.0196577,
      "lon": -121.9107056,
      "timestamp": "2017-10-20T12:49:59Z",
      "version": 4,
      "changeset": 53097493,
      "user": "Adamant1",
      "uid": 4540953,
      "tags": {
        "ele": "514",
        "gnis:Class": "Populated Place",
        "gnis:County": "Shasta",
        "gnis:County_num": "089",
        "gnis:ST_alpha": "CA",
        "gnis:ST_num": "06",
        "gnis:id": "256886",
        "import_uuid": "bb7269ee-502a-5391-8056-e3ce0e66489c",
        "is_in": "Shasta,California,Calif.,CA,USA",
        "name": "Big Bend",
        "place": "village",
        "wikipedia": "en:Big Bend, California"
      }
    },
    {
      "type": "node",
      "id": 147132392,
      "lat": 41.2673797,
      "lon": -122.0777803,
      "timestamp": "2008-12-06T13:33:40Z",
      "version": 2,
      "changeset": 145015,
      "user": "davidearl",
      "uid": 3582,
      "tags": {
        "ele": "1049",
        "gnis:Class": "Populated Place",
        "gnis:County": "Siskiyou",
        "gnis:County_num": "093",
        "gnis:ST_alpha": "CA",
        "gnis:ST_num": "06",
        "gnis:id": "1655804",
        "import_uuid": "bb7269ee-502a-5391-8056-e3ce0e66489c",
        "is_in": "Siskiyou,California,Calif.,CA,USA",
        "name": "Ash Creek Junction",
        "place": "hamlet"
      }
    },
    {
      "type": "node",
      "id": 147132468,
      "lat": 41.3257151,
      "lon": -121.7230508,
      "timestamp": "2008-12-06T13:33:40Z",
      "version": 2,
      "changeset": 145015,
      "user": "davidearl",
      "uid": 3582,
      "tags": {
        "ele": "1394",
        "gnis:Class": "Populated Place",
        "gnis:County": "Siskiyou",
        "gnis:County_num": "093",
        "gnis:ST_alpha": "CA",
        "gnis:ST_num": "06",
        "gnis:id": "266257",
        "import_uuid": "bb7269ee-502a-5391-8056-e3ce0e66489c",
        "is_in": "Siskiyou,California,Calif.,CA,USA",
        "name": "Slagger",
        "place": "hamlet"
      }
    },
    {
      "type": "node",
      "id": 147132915,
      "lat": 41.4740397,
      "lon": -122.3144585,
      "timestamp": "2008-12-06T13:33:43Z",
      "version": 2,
      "changeset": 145015,
      "user": "davidearl",
      "uid": 3582,
      "tags": {
        "ele": "1261",
        "gnis:Class": "Populated Place",
        "gnis:County": "Siskiyou",
        "gnis:County_num": "093",
        "gnis:ST_alpha": "CA",
        "gnis:ST_num": "06",
        "gnis:id": "1658785",
        "import_uuid": "bb7269ee-502a-5391-8056-e3ce0e66489c",
        "is_in": "Siskiyou,California,Calif.,CA,USA",
        "name": "Hotlum",
        "place": "hamlet"
      }
    },
    {
      "type": "node",
      "id": 147133476,
      "lat": 41.309875,
      "lon": -122.310567,
      "timestamp": "2021-06-17T06:55:17Z",
      "version": 4,
      "changeset": 106508086,
      "user": "Utible",
      "uid": 289005,
      "tags": {
        "census:population": "3582;2006",
        "ele": "1099",
        "gnis:Class": "Populated Place",
        "gnis:County": "Siskiyou",
        "gnis:County_num": "093",
        "gnis:ST_alpha": "CA",
        "gnis:ST_num": "06",
        "gnis:id": "277559",
        "import_uuid": "bb7269ee-502a-5391-8056-e3ce0e66489c",
        "is_in": "Siskiyou,California,Calif.,CA,USA",
        "name": "Mount Shasta",
        "place": "village",
        "population": "3394",
        "wikidata": "Q987106"
      }
    },
    {
      "type": "node",
      "id": 147133641,
      "lat": 41.2782083,
      "lon": -122.3022325,
      "timestamp": "2008-12-06T13:33:45Z",
      "version": 2,
      "changeset": 145015,
      "user": "davidearl",
      "uid": 3582,
      "tags": {
        "ele": "1021",
        "gnis:Class": "Populated Place",
        "gnis:County": "Siskiyou",
        "gnis:County_num": "093",
        "gnis:ST_alpha": "CA",
        "gnis:ST_num": "06",
        "gnis:id": "256387",
        "import_uuid": "bb7269ee-502a-5391-8056-e3ce0e66489c",
        "is_in": "Siskiyou,California,Calif.,CA,USA",
        "name": "Azalea",
        "place": "hamlet"
      }
    },
    {
      "type": "node",
      "id": 147133748,
      "lat": 41.1332121,
      "lon": -122.0752795,
      "timestamp": "2008-12-06T13:33:47Z",
      "version": 2,
      "changeset": 145015,
      "user": "davidearl",
      "uid": 3582,
      "tags": {
        "ele": "818",
        "gnis:Class": "Populated Place",
        "gnis:County": "Shasta",
        "gnis:County_num": "089",
        "gnis:ST_alpha": "CA",
        "gnis:ST_num": "06",
        "gnis:id": "1659511",
        "import_uuid": "bb7269ee-502a-5391-8056-e3ce0e66489c",
        "is_in": "Shasta,California,Calif.,CA,USA",
        "name": "Rinckel",
        "place": "hamlet"
      }
    },
    {
      "type": "node",
      "id": 147133891,
      "lat": 41.2684879,
      "lon": -122.2147292,
      "timestamp": "2008-12-06T13:33:50Z",
      "version": 2,
      "changeset": 145015,
      "user": "davidearl",
      "uid": 3582,
      "tags": {
        "ele": "1366",
        "gnis:Class": "Populated Place",
        "gnis:County": "Siskiyou",
        "gnis:County_num": "093",
        "gnis:ST_alpha": "CA",
        "gnis:ST_num": "06",
        "gnis:id": "1659385",
        "import_uuid": "bb7269ee-502a-5391-8056-e3ce0e66489c",
        "is_in": "Siskiyou,California,Calif.,CA,USA",
        "name": "Pierce",
        "place": "hamlet"
      }
    },
    {
      "type": "node",
      "id": 147134110,
      "lat": 41.2004379,
      "lon": -121.7666607,
      "timestamp": "2008-12-06T13:33:53Z",
      "version": 2,
      "changeset": 145015,
      "user": "davidearl",
      "uid": 3582,
      "tags": {
        "ele": "1367",
        "gnis:Class": "Populated Place",
        "gnis:County": "Siskiyou",
        "gnis:County_num": "093",
        "gnis:ST_alpha": "CA",
        "gnis:ST_num": "06",
        "gnis:id": "1655944",
        "import_uuid": "bb7269ee-502a-5391-8056-e3ce0e66489c",
        "is_in": "Siskiyou,California,Calif.,CA,USA",
        "name": "Curtis",
        "place": "hamlet"
      }
    },
    {
      "type": "node",
      "id": 147134153,
      "lat": 41.2923748,
      "lon": -122.3102886,
      "timestamp": "2008-12-06T13:33:53Z",
      "version": 2,
      "changeset": 145015,
      "user": "davidearl",
      "uid": 3582,
      "tags": {
        "ele": "1062",
        "gnis:Class": "Populated Place",
        "gnis:County": "Siskiyou",
        "gnis:County_num": "093",
        "gnis:ST_alpha": "CA",
        "gnis:ST_num": "06",
        "gnis:id": "264804",
        "import_uuid": "bb7269ee-502a-5391-8056-e3ce0e66489c",
        "is_in": "Siskiyou,California,Calif.,CA,USA",
        "name": "Pioneer",
        "place": "hamlet"
      }
    },
    {
      "type": "node",
      "id": 147134280,
      "lat": 41.2557119,
      "lon": -122.1394487,
      "timestamp": "2020-01-10T12:18:15Z",
      "version": 3,
      "changeset": 79417004,
      "user": "Joseph E",
      "uid": 539772,
      "tags": {
        "ele": "1000",
        "is_in": "Siskiyou,California,Calif.,CA,USA",
        "name": "McCloud",
        "place": "village"
      }
    },
    {
      "type": "node",
      "id": 147134338,
      "lat": 41.2801551,
      "lon": -122.1886175,
      "timestamp": "2008-12-06T13:33:55Z",
      "version": 2,
      "changeset": 145015,
      "user": "davidearl",
      "uid": 3582,
      "tags": {
        "ele": "1305",
        "gnis:Class": "Populated Place",
        "gnis:County": "Siskiyou",
        "gnis:County_num": "093",
        "gnis:ST_alpha": "CA",
        "gnis:ST_num": "06",
        "gnis:id": "1659666",
        "import_uuid": "bb7269ee-502a-5391-8056-e3ce0e66489c",
        "is_in": "Siskiyou,California,Calif.,CA,USA",
        "name": "Signal Butte",
        "place": "hamlet"
      }
    },
    {
      "type": "node",
      "id": 147134355,
      "lat": 41.3348819,
      "lon": -121.6977726,
      "timestamp": "2018-03-29T07:16:31Z",
      "version": 3,
      "changeset": 57622982,
      "user": "Edward",
      "uid": 364,
      "tags": {
        "ele": "1344",
        "gnis:Class": "Populated Place",
        "gnis:County": "Siskiyou",
        "gnis:County_num": "093",
        "gnis:ST_alpha": "CA",
        "gnis:ST_num": "06",
        "gnis:id": "261037",
        "import_uuid": "bb7269ee-502a-5391-8056-e3ce0e66489c",
        "is_in": "Siskiyou,California,Calif.,CA,USA",
        "name": "Hambone",
        "place": "hamlet",
        "wikidata": "Q18348123"
      }
    },
    {
      "type": "node",
      "id": 358799623,
      "lat": 41.4091897,
      "lon": -122.194953,
      "timestamp": "2020-11-12T17:34:21Z",
      "version": 10,
      "changeset": 94010335,
      "user": "mtbgreg1",
      "uid": 9051711,
      "tags": {
        "ele": "4321.8",
        "gnis:county_id": "093",
        "gnis:created": "01/19/1981",
        "gnis:feature_id": "266054",
        "gnis:state_id": "06",
        "name": "Mount Shasta",
        "name:oc": "Mont Shasta",
        "natural": "volcano",
        "prominence": "2977",
        "source:prominence": "https://en.wikipedia.org/wiki/List_of_peaks_by_prominence",
        "wikidata": "Q748355",
        "wikipedia": "en:Mount Shasta"
      }
    },
    {
      "type": "node",
      "id": 358799626,
      "lat": 41.4091949,
      "lon": -122.223385,
      "timestamp": "2020-06-23T01:50:48Z",
      "version": 4,
      "changeset": 87003680,
      "user": "Dion Dock",
      "uid": 97431,
      "tags": {
        "ele": "3758.2",
        "gnis:county_id": "093",
        "gnis:created": "01/19/1981",
        "gnis:feature_id": "266055",
        "gnis:state_id": "06",
        "name": "Shastina",
        "natural": "volcano",
        "wikidata": "Q652800",
        "wikipedia": "en:Shastina"
      }
    },
    {
      "type": "node",
      "id": 428686079,
      "lat": 41.4092052,
      "lon": -122.1962195,
      "timestamp": "2018-08-02T20:12:43Z",
      "version": 2,
      "changeset": 61309305,
      "user": "Adam Schneider",
      "uid": 5403394,
      "tags": {
        "name": "Sulphur Springs",
        "natural": "spring"
      }
    },
    {
      "type": "node",
      "id": 470797721,
      "lat": 41.1513999,
      "lon": -122.3126103,
      "timestamp": "2018-03-29T08:13:42Z",
      "version": 2,
      "changeset": 57624764,
      "user": "Adam Schneider",
      "uid": 5403394,
      "tags": {
        "name": "Lower Loop Campground",
        "tourism": "camp_site"
      }
    },
    {
      "type": "node",
      "id": 1046045281,
      "lat": 41.3537267,
      "lon": -122.2829145,
      "timestamp": "2018-08-02T20:12:44Z",
      "version": 2,
      "changeset": 61309305,
      "user": "Adam Schneider",
      "uid": 5403394,
      "tags": {
        "natural": "spring"
      }
    },
    {
      "type": "node",
      "id": 1046295854,
      "lat": 41.3635284,
      "lon": -122.1913975,
      "timestamp": "2018-08-02T20:12:46Z",
      "version": 2,
      "changeset": 61309305,
      "user": "Adam Schneider",
      "uid": 5403394,
      "tags": {
        "natural": "spring"
      }
    },
    {
      "type": "node",
      "id": 1046314439,
      "lat": 41.3874757,
      "lon": -122.1579214,
      "timestamp": "2018-08-02T20:12:46Z",
      "version": 2,
      "changeset": 61309305,
      "user": "Adam Schneider",
      "uid": 5403394,
      "tags": {
        "natural": "spring"
      }
    },
    {
      "type": "node",
      "id": 1046350501,
      "lat": 41.3787169,
      "lon": -122.1563757,
      "timestamp": "2018-08-02T20:12:47Z",
      "version": 2,
      "changeset": 61309305,
      "user": "Adam Schneider",
      "uid": 5403394,
      "tags": {
        "natural": "spring"
      }
    },
    {
      "type": "node",
      "id": 1046378906,
      "lat": 41.3536685,
      "lon": -122.2822232,
      "timestamp": "2018-08-02T20:12:47Z",
      "version": 2,
      "changeset": 61309305,
      "user": "Adam Schneider",
      "uid": 5403394,
      "tags": {
        "natural": "spring"
      }
    },
    {
      "type": "node",
      "id": 1046471953,
      "lat": 41.3614735,
      "lon": -122.1734645,
      "timestamp": "2018-08-02T20:12:47Z",
      "version": 2,
      "changeset": 61309305,
      "user": "Adam Schneider",
      "uid": 5403394,
      "tags": {
        "natural": "spring"
      }
    },
    {
      "type": "node",
      "id": 1046563138,
      "lat": 41.3701735,
      "lon": -122.1759645,
      "timestamp": "2018-08-02T20:12:48Z",
      "version": 2,
      "changeset": 61309305,
      "user": "Adam Schneider",
      "uid": 5403394,
      "tags": {
        "natural": "spring"
      }
    },
    {
      "type": "node",
      "id": 1046571651,
      "lat": 41.3878838,
      "lon": -122.1615459,
      "timestamp": "2018-08-02T20:12:48Z",
      "version": 2,
      "changeset": 61309305,
      "user": "Adam Schneider",
      "uid": 5403394,
      "tags": {
        "natural": "spring"
      }
    },
    {
      "type": "node",
      "id": 1047418571,
      "lat": 41.3675373,
      "lon": -122.173724,
      "timestamp": "2018-08-02T20:12:50Z",
      "version": 2,
      "changeset": 61309305,
      "user": "Adam Schneider",
      "uid": 5403394,
      "tags": {
        "natural": "spring"
      }
    },
    {
      "type": "node",
      "id": 1047502235,
      "lat": 41.3899884,
      "lon": -122.1630241,
      "timestamp": "2018-08-02T20:12:50Z",
      "version": 2,
      "changeset": 61309305,
      "user": "Adam Schneider",
      "uid": 5403394,
      "tags": {
        "natural": "spring"
      }
    },
    {
      "type": "node",
      "id": 1047560479,
      "lat": 41.388199,
      "lon": -122.1615225,
      "timestamp": "2018-08-02T20:12:50Z",
      "version": 2,
      "changeset": 61309305,
      "user": "Adam Schneider",
      "uid": 5403394,
      "tags": {
        "natural": "spring"
      }
    },
    {
      "type": "node",
      "id": 1047572649,
      "lat": 41.3877315,
      "lon": -122.1570426,
      "timestamp": "2018-08-02T20:12:50Z",
      "version": 2,
      "changeset": 61309305,
      "user": "Adam Schneider",
      "uid": 5403394,
      "tags": {
        "natural": "spring"
      }
    },
    {
      "type": "node",
      "id": 1047652099,
      "lat": 41.2419561,
      "lon": -122.2760117,
      "timestamp": "2021-05-27T14:01:05Z",
      "version": 3,
      "changeset": 105431110,
      "user": "Palolo",
      "uid": 385046,
      "tags": {
        "natural": "spring"
      }
    },
    {
      "type": "node",
      "id": 1048106115,
      "lat": 41.2418915,
      "lon": -122.284031,
      "timestamp": "2019-11-18T00:44:07Z",
      "version": 3,
      "changeset": 77202980,
      "user": "Palolo",
      "uid": 385046,
      "tags": {
        "natural": "spring"
      }
    },
    {
      "type": "node",
      "id": 1049608747,
      "lat": 41.1667842,
      "lon": -122.3258192,
      "timestamp": "2018-03-29T08:13:50Z",
      "version": 2,
      "changeset": 57624764,
      "user": "Adam Schneider",
      "uid": 5403394,
      "tags": {
        "name": "Indian Springs",
        "natural": "spring"
      }
    },
    {
      "type": "node",
      "id": 1797827407,
      "lat": 41.3132766,
      "lon": -122.3125932,
      "timestamp": "2012-06-22T05:24:28Z",
      "version": 1,
      "changeset": 11974984,
      "user": "KaiRo",
      "uid": 17047,
      "tags": {
        "amenity": "drinking_water"
      }
    },
    {
      "type": "node",
      "id": 1881939544,
      "lat": 41.2515886,
      "lon": -122.135573,
      "timestamp": "2012-08-25T04:24:58Z",
      "version": 1,
      "changeset": 12851495,
      "user": "nmixter",
      "uid": 55774,
      "tags": {
        "name": "McCloud Market",
        "shop": "convenience"
      }
    },
    {
      "type": "node",
      "id": 1886483090,
      "lat": 41.2323593,
      "lon": -121.9903785,
      "timestamp": "2012-08-29T20:12:54Z",
      "version": 2,
      "changeset": 12910060,
      "user": "nmixter",
      "uid": 55774,
      "tags": {
        "name": "Camp 4",
        "note": "undeveloped",
        "tourism": "camp_site"
      }
    },
    {
      "type": "node",
      "id": 1888662237,
      "lat": 41.1541154,
      "lon": -122.0686336,
      "timestamp": "2012-08-29T18:08:09Z",
      "version": 1,
      "changeset": 12908522,
      "user": "nmixter",
      "uid": 55774,
      "tags": {
        "tourism": "camp_site"
      }
    },
    {
      "type": "node",
      "id": 1888827079,
      "lat": 41.1095877,
      "lon": -122.099376,
      "timestamp": "2012-08-29T20:09:03Z",
      "version": 1,
      "changeset": 12910060,
      "user": "nmixter",
      "uid": 55774,
      "tags": {
        "name": "Ah-Di-Na Camp",
        "tourism": "camp_site"
      }
    },
    {
      "type": "node",
      "id": 1888827081,
      "lat": 41.1171272,
      "lon": -122.0605753,
      "timestamp": "2012-08-29T20:09:03Z",
      "version": 1,
      "changeset": 12910060,
      "user": "nmixter",
      "uid": 55774,
      "tags": {
        "name": "Ash Camp",
        "tourism": "camp_site"
      }
    },
    {
      "type": "node",
      "id": 1888827088,
      "lat": 41.2649286,
      "lon": -121.9043211,
      "timestamp": "2012-08-29T20:09:04Z",
      "version": 1,
      "changeset": 12910060,
      "user": "nmixter",
      "uid": 55774,
      "tags": {
        "name": "Fourmile Camp",
        "note": "undeveloped",
        "tourism": "camp_site"
      }
    },
    {
      "type": "node",
      "id": 1888827093,
      "lat": 41.2657124,
      "lon": -121.9176138,
      "timestamp": "2012-08-29T20:09:04Z",
      "version": 1,
      "changeset": 12910060,
      "user": "nmixter",
      "uid": 55774,
      "tags": {
        "name": "Nitwit Camp",
        "note": "undeveloped",
        "tourism": "camp_site"
      }
    },
    {
      "type": "node",
      "id": 1888827095,
      "lat": 41.2658215,
      "lon": -121.9147229,
      "timestamp": "2012-08-29T20:09:04Z",
      "version": 1,
      "changeset": 12910060,
      "user": "nmixter",
      "uid": 55774,
      "tags": {
        "name": "Skunk Hollow Camp",
        "note": "undeveloped",
        "tourism": "camp_site"
      }
    },
    {
      "type": "node",
      "id": 2634690887,
      "lat": 41.2132282,
      "lon": -122.2720452,
      "timestamp": "2014-01-24T04:26:26Z",
      "version": 1,
      "changeset": 20171211,
      "user": "123maps",
      "uid": 542575,
      "tags": {
        "name": "Thriftway",
        "shop": "supermarket"
      }
    },
    {
      "type": "node",
      "id": 3295876549,
      "lat": 41.3287046,
      "lon": -122.3271062,
      "timestamp": "2015-01-18T23:42:18Z",
      "version": 2,
      "changeset": 28242550,
      "user": "Palolo",
      "uid": 385046,
      "tags": {
        "name": "Big Springs",
        "natural": "spring"
      }
    },
    {
      "type": "node",
      "id": 3714517983,
      "lat": 41.3637448,
      "lon": -122.1840659,
      "timestamp": "2018-08-02T20:13:00Z",
      "version": 2,
      "changeset": 61309305,
      "user": "Adam Schneider",
      "uid": 5403394,
      "tags": {
        "mountain_pass": "yes",
        "name": "The Gate",
        "natural": "saddle"
      }
    },
    {
      "type": "node",
      "id": 4353379755,
      "lat": 41.3531137,
      "lon": -122.2335088,
      "timestamp": "2017-03-11T08:03:05Z",
      "version": 2,
      "changeset": 46756927,
      "user": "timmmichaud",
      "uid": 4213591,
      "tags": {
        "name": "Bunny Flat Trailhead camping",
        "tourism": "camp_site"
      }
    },
    {
      "type": "node",
      "id": 4840774722,
      "lat": 41.0174315,
      "lon": -121.6506415,
      "timestamp": "2017-05-08T02:18:31Z",
      "version": 1,
      "changeset": 48488805,
      "user": "pankdm",
      "uid": 329833,
      "tags": {
        "tourism": "camp_site"
      }
    },
    {
      "type": "node",
      "id": 4866800021,
      "lat": 41.0339797,
      "lon": -121.6515282,
      "timestamp": "2017-05-20T19:51:21Z",
      "version": 1,
      "changeset": 48849455,
      "user": "DevinMurray20",
      "uid": 5682486,
      "tags": {
        "name": "North Shore Campground",
        "tourism": "camp_site"
      }
    },
    {
      "type": "node",
      "id": 4900549683,
      "lat": 41.0189571,
      "lon": -121.6491502,
      "timestamp": "2017-06-06T21:50:57Z",
      "version": 1,
      "changeset": 49319877,
      "user": "beddy",
      "uid": 3207726,
      "tags": {
        "name": "91",
        "tourism": "camp_site"
      }
    },
    {
      "type": "node",
      "id": 5513390752,
      "lat": 41.1495002,
      "lon": -122.3082912,
      "timestamp": "2018-03-29T08:12:03Z",
      "version": 1,
      "changeset": 57624764,
      "user": "Adam Schneider",
      "uid": 5403394,
      "tags": {
        "name": "Riverside Campground",
        "tourism": "camp_site"
      }
    },
    {
      "type": "node",
      "id": 5513391102,
      "lat": 41.1530426,
      "lon": -122.311947,
      "timestamp": "2020-06-16T21:43:44Z",
      "version": 2,
      "changeset": 86741576,
      "user": "Adam Schneider",
      "uid": 5403394,
      "tags": {
        "caravans": "no",
        "name": "PCT Camp",
        "tents": "yes",
        "tourism": "camp_site"
      }
    },
    {
      "type": "node",
      "id": 5513391435,
      "lat": 41.1540443,
      "lon": -122.3082322,
      "timestamp": "2018-03-29T08:12:06Z",
      "version": 1,
      "changeset": 57624764,
      "user": "Adam Schneider",
      "uid": 5403394,
      "tags": {
        "name": "Upper Loop Campground",
        "tourism": "camp_site"
      }
    },
    {
      "type": "node",
      "id": 5513391515,
      "lat": 41.1533193,
      "lon": -122.3116788,
      "timestamp": "2018-03-29T08:12:07Z",
      "version": 1,
      "changeset": 57624764,
      "user": "Adam Schneider",
      "uid": 5403394,
      "tags": {
        "name": "Little Loop Campground",
        "tourism": "camp_site"
      }
    },
    {
      "type": "node",
      "id": 5742195925,
      "lat": 41.148432,
      "lon": -122.3213572,
      "timestamp": "2018-07-05T22:04:52Z",
      "version": 1,
      "changeset": 60448939,
      "user": "dkunce",
      "uid": 1443840,
      "tags": {
        "amenity": "drinking_water"
      }
    },
    {
      "type": "node",
      "id": 5805018112,
      "lat": 41.3794169,
      "lon": -122.1595949,
      "timestamp": "2018-08-02T20:11:48Z",
      "version": 1,
      "changeset": 61309305,
      "user": "Adam Schneider",
      "uid": 5403394,
      "tags": {
        "natural": "spring"
      }
    },
    {
      "type": "node",
      "id": 5805018120,
      "lat": 41.381027,
      "lon": -122.162894,
      "timestamp": "2018-08-02T20:11:48Z",
      "version": 1,
      "changeset": 61309305,
      "user": "Adam Schneider",
      "uid": 5403394,
      "tags": {
        "natural": "spring"
      }
    },
    {
      "type": "node",
      "id": 5805018127,
      "lat": 41.3808137,
      "lon": -122.1623951,
      "timestamp": "2018-08-02T20:11:48Z",
      "version": 1,
      "changeset": 61309305,
      "user": "Adam Schneider",
      "uid": 5403394,
      "tags": {
        "natural": "spring"
      }
    },
    {
      "type": "node",
      "id": 5805018133,
      "lat": 41.3799966,
      "lon": -122.1612042,
      "timestamp": "2018-08-02T20:11:48Z",
      "version": 1,
      "changeset": 61309305,
      "user": "Adam Schneider",
      "uid": 5403394,
      "tags": {
        "natural": "spring"
      }
    },
    {
      "type": "node",
      "id": 5805018174,
      "lat": 41.3527366,
      "lon": -122.2830731,
      "timestamp": "2018-08-02T20:11:49Z",
      "version": 1,
      "changeset": 61309305,
      "user": "Adam Schneider",
      "uid": 5403394,
      "tags": {
        "capacity": "12",
        "drinking_water": "yes",
        "fee": "yes",
        "name": "McBride Springs Campground",
        "tourism": "camp_site",
        "website": "https://www.fs.usda.gov/recarea/stnf/recarea/?recid=6574"
      }
    },
    {
      "type": "node",
      "id": 5805018412,
      "lat": 41.3885937,
      "lon": -122.2104925,
      "timestamp": "2018-08-02T20:11:52Z",
      "version": 1,
      "changeset": 61309305,
      "user": "Adam Schneider",
      "uid": 5403394,
      "tags": {
        "backcountry": "yes",
        "tourism": "camp_site"
      }
    },
    {
      "type": "node",
      "id": 5805018552,
      "lat": 41.3589285,
      "lon": -122.1975616,
      "timestamp": "2018-08-02T20:11:53Z",
      "version": 1,
      "changeset": 61309305,
      "user": "Adam Schneider",
      "uid": 5403394,
      "tags": {
        "name": "Panther Springs",
        "natural": "spring"
      }
    },
    {
      "type": "node",
      "id": 5805018554,
      "lat": 41.358994,
      "lon": -122.1980082,
      "timestamp": "2018-08-02T20:11:53Z",
      "version": 1,
      "changeset": 61309305,
      "user": "Adam Schneider",
      "uid": 5403394,
      "tags": {
        "natural": "spring"
      }
    },
    {
      "type": "node",
      "id": 5805018828,
      "lat": 41.3544943,
      "lon": -122.2032988,
      "timestamp": "2018-08-02T20:11:57Z",
      "version": 1,
      "changeset": 61309305,
      "user": "Adam Schneider",
      "uid": 5403394,
      "tags": {
        "capacity": "15",
        "fee": "no",
        "name": "Panther Meadows Campground",
        "tents": "yes",
        "tourism": "camp_site",
        "website": "https://www.fs.usda.gov/recarea/stnf/recarea/?recid=6576"
      }
    },
    {
      "type": "node",
      "id": 5938102947,
      "lat": 41.3156281,
      "lon": -122.3143785,
      "timestamp": "2020-12-27T01:56:28Z",
      "version": 3,
      "changeset": 96470689,
      "user": "Harry Cutts",
      "uid": 670691,
      "tags": {
        "delivery": "yes",
        "name": "Mount Shasta Supermarket",
        "opening_hours": "Mo-Sa 08:00-20:00; Su 08:00-19:00",
        "phone": "+1-530-926-2212",
        "shop": "supermarket",
        "website": "https://mountshastasupermarket.com/"
      }
    },
    {
      "type": "node",
      "id": 6654286986,
      "lat": 41.1595197,
      "lon": -122.2801749,
      "timestamp": "2019-07-28T03:05:04Z",
      "version": 1,
      "changeset": 72728524,
      "user": "Mochilão Sabático",
      "uid": 7640196,
      "tags": {
        "tourism": "camp_site"
      }
    },
    {
      "type": "node",
      "id": 7043549766,
      "lat": 41.0063604,
      "lon": -121.6448266,
      "timestamp": "2019-12-09T10:15:47Z",
      "version": 1,
      "changeset": 78143560,
      "user": "kylebarron",
      "uid": 8122137,
      "tags": {
        "tourism": "camp_site"
      }
    },
    {
      "type": "node",
      "id": 7851780576,
      "lat": 41.3713697,
      "lon": -122.0015808,
      "timestamp": "2020-08-28T04:03:44Z",
      "version": 1,
      "changeset": 90053779,
      "user": "beddy",
      "uid": 3207726,
      "tags": {
        "tourism": "camp_site"
      }
    },
    {
      "type": "node",
      "id": 7851834505,
      "lat": 41.2518661,
      "lon": -122.0514261,
      "timestamp": "2020-08-28T04:03:44Z",
      "version": 1,
      "changeset": 90053779,
      "user": "beddy",
      "uid": 3207726,
      "tags": {
        "tourism": "camp_site"
      }
    },
    {
      "type": "node",
      "id": 8263044621,
      "lat": 41.3286758,
      "lon": -122.326946,
      "timestamp": "2020-12-27T01:59:24Z",
      "version": 1,
      "changeset": 96470712,
      "user": "Harry Cutts",
      "uid": 670691,
      "tags": {
        "amenity": "drinking_water",
        "bottle": "no",
        "inscription": "In honor of Ruby Sullaway Scharff, born near here — 1885"
      }
    },
    {
      "type": "node",
      "id": 8377324192,
      "lat": 41.2366484,
      "lon": -122.2698873,
      "timestamp": "2021-01-30T04:29:27Z",
      "version": 1,
      "changeset": 98398914,
      "user": "Harry Cutts",
      "uid": 670691,
      "tags": {
        "amenity": "drinking_water"
      }
    },
    {
      "type": "node",
      "id": 8377352358,
      "lat": 41.1483469,
      "lon": -122.3173329,
      "timestamp": "2021-01-30T04:45:49Z",
      "version": 1,
      "changeset": 98399195,
      "user": "Harry Cutts",
      "uid": 670691,
      "tags": {
        "name": "Ammirati's Market",
        "opening_hours": "Mo-Su 08:00-20:00",
        "shop": "convenience"
      }
    },
    {
      "type": "node",
      "id": 8911590186,
      "lat": 41.1090053,
      "lon": -122.0997203,
      "timestamp": "2021-07-11T14:18:50Z",
      "version": 1,
      "changeset": 107784645,
      "user": "123maps",
      "uid": 542575,
      "tags": {
        "tourism": "camp_site"
      }
    },
    {
      "type": "node",
      "id": 8911591022,
      "lat": 41.1099027,
      "lon": -122.0981028,
      "timestamp": "2021-07-11T14:18:53Z",
      "version": 1,
      "changeset": 107784645,
      "user": "123maps",
      "uid": 542575,
      "tags": {
        "tourism": "camp_site"
      }
    },
    {
      "type": "node",
      "id": 8911595060,
      "lat": 41.1091288,
      "lon": -122.0995558,
      "timestamp": "2021-07-11T14:18:51Z",
      "version": 1,
      "changeset": 107784645,
      "user": "123maps",
      "uid": 542575,
      "tags": {
        "tourism": "camp_site"
      }
    },
    {
      "type": "node",
      "id": 8911597305,
      "lat": 41.1091703,
      "lon": -122.0999575,
      "timestamp": "2021-07-11T14:18:50Z",
      "version": 1,
      "changeset": 107784645,
      "user": "123maps",
      "uid": 542575,
      "tags": {
        "tourism": "camp_site"
      }
    },
    {
      "type": "node",
      "id": 8911598638,
      "lat": 41.1092713,
      "lon": -122.0991184,
      "timestamp": "2021-07-11T14:18:52Z",
      "version": 1,
      "changeset": 107784645,
      "user": "123maps",
      "uid": 542575,
      "tags": {
        "tourism": "camp_site"
      }
    },
    {
      "type": "node",
      "id": 8911604837,
      "lat": 41.1153649,
      "lon": -122.0848581,
      "timestamp": "2021-07-11T14:18:50Z",
      "version": 1,
      "changeset": 107784645,
      "user": "123maps",
      "uid": 542575,
      "tags": {
        "natural": "spring"
      }
    },
    {
      "type": "node",
      "id": 8911611849,
      "lat": 41.1094474,
      "lon": -122.0985345,
      "timestamp": "2021-07-11T14:18:52Z",
      "version": 1,
      "changeset": 107784645,
      "user": "123maps",
      "uid": 542575,
      "tags": {
        "tourism": "camp_site"
      }
    },
    {
      "type": "node",
      "id": 8911612450,
      "lat": 41.1100171,
      "lon": -122.0978617,
      "timestamp": "2021-07-11T14:18:53Z",
      "version": 1,
      "changeset": 107784645,
      "user": "123maps",
      "uid": 542575,
      "tags": {
        "tourism": "camp_site"
      }
    },
    {
      "type": "node",
      "id": 8911613810,
      "lat": 41.1092412,
      "lon": -122.0994111,
      "timestamp": "2021-07-11T14:18:51Z",
      "version": 1,
      "changeset": 107784645,
      "user": "123maps",
      "uid": 542575,
      "tags": {
        "tourism": "camp_site"
      }
    },
    {
      "type": "node",
      "id": 8911613811,
      "lat": 41.1102313,
      "lon": -122.098079,
      "timestamp": "2021-07-11T14:18:54Z",
      "version": 1,
      "changeset": 107784645,
      "user": "123maps",
      "uid": 542575,
      "tags": {
        "name": "15",
        "tourism": "camp_site"
      }
    },
    {
      "type": "way",
      "id": 178280530,
      "timestamp": "2021-06-14T18:42:05Z",
      "version": 3,
      "changeset": 106353053,
      "user": "Utible",
      "uid": 289005,
      "center": {
        "lat": 41.2594162,
        "lon": -121.9403966
      },
      "nodes": [],
      "tags": {
        "name": "Cattle Camp Campground",
        "tourism": "camp_site"
      }
    },
    {
      "type": "way",
      "id": 178280531,
      "timestamp": "2021-04-16T04:43:03Z",
      "version": 2,
      "changeset": 103028236,
      "user": "gaku",
      "uid": 19532,
      "center": {
        "lat": 41.2442568,
        "lon": -122.0234274
      },
      "nodes": [],
      "tags": {
        "name": "Fowlers Campground",
        "tourism": "camp_site"
      }
    },
    {
      "type": "way",
      "id": 651918434,
      "timestamp": "2018-12-03T11:20:23Z",
      "version": 2,
      "changeset": 65121251,
      "user": "Adamant1",
      "uid": 4540953,
      "center": {
        "lat": 41.3084688,
        "lon": -122.31583
      },
      "nodes": [],
      "tags": {
        "building": "yes",
        "name": "Ray's",
        "shop": "supermarket"
      }
    },
    {
      "type": "way",
      "id": 652137947,
      "timestamp": "2018-12-04T00:53:52Z",
      "version": 1,
      "changeset": 65143103,
      "user": "Adamant1",
      "uid": 4540953,
      "center": {
        "lat": 41.3115878,
        "lon": -122.3114382
      },
      "nodes": [],
      "tags": {
        "building": "yes",
        "name": "Berryvale Grocery",
        "shop": "supermarket"
      }
    },
    {
      "type": "way",
      "id": 956676435,
      "timestamp": "2021-06-21T17:24:11Z",
      "version": 1,
      "changeset": 106729696,
      "user": "Utible",
      "uid": 289005,
      "center": {
        "lat": 41.2555354,
        "lon": -121.8834945
      },
      "nodes": [],
      "tags": {
        "access": "yes",
        "capacity": "8",
        "name": "Algoma Campground",
        "operator": "US Forest Service",
        "tourism": "camp_site"
      }
    }
  ]
}