{
  "osm3s": {
    "timestamp_osm_date": "2022-05-27T23:59:59Z",
    "timestamp_osm_base": "2022-05-28T06:42:56Z",
    "copyright": "The data included in this document is from www.openstreetmap.org. The data is made available under ODbL."
  },
  "elements": [
    {
      "type": "node",
      "id": 289324005,
      "lat": 28.1591689,
      "lon": 85.9797621,
      "timestamp": "2021-09-26T04:38:00Z",
      "version": 22,
      "changeset": 111706846,
      "user": "Lepuse",
      "uid": 9560399,
      "tags": {
        "alt_name": "聂拉木;Congdu",
        "capital": "8",
        "int_name": "Congdu",
        "name": "聂拉木镇",
        "name:bo": "གནའ་ལམ",
        "name:de": "Nyalam",
        "name:en": "Nyalam",
        "name:es": "Nyalam",
        "name:ru": "Цонгдю",
        "name:zh": "聂拉木镇",
        "name:zh_pinyin": "Nièlāmù zhèn",
        "note": "duplicate",
        "official_name": "聂拉木镇",
        "place": "town",
        "place:CN": "town",
        "wikidata": "Q7070825",
        "wikipedia": "zh:聂拉木镇",
        "wikipedia:en": "Nyalam Town"
      }
    },
    {
      "type": "node",
      "id": 289324682,
      "lat": 27.973045,
      "lon": 85.9643829,
      "timestamp": "2021-08-19T05:50:18Z",
      "version": 9,
      "changeset": 109909028,
      "user": "Sundar1",
      "uid": 9530130,
      "tags": {
        "int_name": "Zham",
        "is_in": "Tibet",
        "name": "樟木口岸",
        "name:de": "Zham",
        "name:en": "Zham",
        "place": "hamlet",
        "wikidata": "Q3270229",
        "wikipedia": "en:Zhangmu"
      }
    },
    {
      "type": "node",
      "id": 296349536,
      "lat": 27.9448408,
      "lon": 85.9490115,
      "timestamp": "2021-05-03T20:41:32Z",
      "version": 4,
      "changeset": 104079349,
      "user": "seichter",
      "uid": 66497,
      "tags": {
        "int_name": "Tatopani",
        "name": "तातोपानी",
        "name:en": "Tatopani",
        "name:ne": "तातोपानी",
        "name:zh": "塔托帕尼乡",
        "place": "village"
      }
    },
    {
      "type": "node",
      "id": 576007690,
      "lat": 27.9918815,
      "lon": 85.9825411,
      "timestamp": "2021-09-26T04:38:08Z",
      "version": 9,
      "changeset": 111706846,
      "user": "Lepuse",
      "uid": 9560399,
      "tags": {
        "alt_name": "樟木;Zhangmu;Zham;Khasa",
        "capital": "8",
        "int_name": "Zhangmu",
        "name": "樟木镇",
        "name:bo": "འགྲམ་",
        "name:de": "Zhangmu",
        "name:en": "Dram",
        "name:ne": "खासा",
        "name:tibt": "འགྲ་མ་",
        "name:zh": "樟木镇",
        "official_name": "樟木镇",
        "place": "town",
        "place:CN": "town",
        "wikidata": "Q3270229",
        "wikipedia": "zh:樟木镇 (日喀则市)"
      }
    },
    {
      "type": "node",
      "id": 992996181,
      "lat": 27.7654752,
      "lon": 85.8788021,
      "timestamp": "2015-04-28T14:03:33Z",
      "version": 4,
      "changeset": 30582455,
      "user": "Doug G",
      "uid": 2191296,
      "tags": {
        "ele": "926",
        "name": "Bansangu",
        "place": "village",
        "source": "www.geonames.org"
      }
    },
    {
      "type": "node",
      "id": 992996186,
      "lat": 27.9429656,
      "lon": 85.7942243,
      "timestamp": "2021-05-04T11:27:14Z",
      "version": 3,
      "changeset": 104120252,
      "user": "seichter",
      "uid": 66497,
      "tags": {
        "ele": "1832",
        "name": "Bolde",
        "place": "village",
        "source": "www.geonames.org"
      }
    },
    {
      "type": "node",
      "id": 992996187,
      "lat": 28.1,
      "lon": 85.98333,
      "timestamp": "2017-09-10T05:58:02Z",
      "version": 3,
      "changeset": 51897872,
      "user": "nyuriks",
      "uid": 339581,
      "tags": {
        "ele": "4469",
        "name": "Quxam",
        "place": "hamlet",
        "wikidata": "Q7273034",
        "wikipedia": "en:Quxam"
      }
    },
    {
      "type": "node",
      "id": 1026419004,
      "lat": 27.6840561,
      "lon": 85.9259799,
      "timestamp": "2010-12-07T12:59:01Z",
      "version": 1,
      "changeset": 6574390,
      "user": "ymapper",
      "uid": 5139,
      "tags": {
        "name": "Mudhe",
        "place": "village"
      }
    },
    {
      "type": "node",
      "id": 1518595220,
      "lat": 27.8662737,
      "lon": 86.221614,
      "timestamp": "2011-11-26T21:30:31Z",
      "version": 1,
      "changeset": 9961226,
      "user": "pmu48",
      "uid": 355089,
      "tags": {
        "tourism": "camp_site"
      }
    },
    {
      "type": "node",
      "id": 1518668143,
      "lat": 27.9031627,
      "lon": 86.3421642,
      "timestamp": "2017-11-11T13:32:58Z",
      "version": 2,
      "changeset": 53690774,
      "user": "Yeti-17",
      "uid": 6969191,
      "tags": {
        "tourism": "camp_site"
      }
    },
    {
      "type": "node",
      "id": 1518668617,
      "lat": 27.9048593,
      "lon": 86.295883,
      "timestamp": "2011-11-26T21:55:55Z",
      "version": 1,
      "changeset": 9961518,
      "user": "pmu48",
      "uid": 355089,
      "tags": {
        "tourism": "camp_site"
      }
    },
    {
      "type": "node",
      "id": 1785825798,
      "lat": 28.0580391,
      "lon": 86.344518,
      "timestamp": "2021-09-26T04:38:23Z",
      "version": 7,
      "changeset": 111706846,
      "user": "Lepuse",
      "uid": 9560399,
      "tags": {
        "alt_name": "绒辖;Rongxia",
        "capital": "8",
        "name": "绒辖乡",
        "name:bo": "རོང་ཤར",
        "name:en": "Ronxar",
        "name:zh": "绒辖乡",
        "official_name": "绒辖乡",
        "place": "town",
        "place:CN": "township",
        "source:name": "GNS",
        "wikidata": "Q14293968",
        "wikipedia": "zh:绒辖乡"
      }
    },
    {
      "type": "node",
      "id": 1785825990,
      "lat": 28.0416543,
      "lon": 86.2861818,
      "timestamp": "2018-05-25T11:21:31Z",
      "version": 2,
      "changeset": 59268160,
      "user": "FreedSky",
      "uid": 1236135,
      "tags": {
        "name": "陈塘村",
        "place": "village"
      }
    },
    {
      "type": "node",
      "id": 2115629858,
      "lat": 27.7556289,
      "lon": 85.8283145,
      "timestamp": "2021-05-05T11:00:46Z",
      "version": 5,
      "changeset": 104180218,
      "user": "seichter",
      "uid": 66497,
      "tags": {
        "name": "Khadichaur",
        "place": "village",
        "source": "http://www.facebook.com/khadichaur"
      }
    },
    {
      "type": "node",
      "id": 2115646793,
      "lat": 27.7506258,
      "lon": 85.8208657,
      "timestamp": "2015-03-11T07:46:36Z",
      "version": 2,
      "changeset": 29399121,
      "user": "Heinz_V",
      "uid": 91490,
      "tags": {
        "name": "Andheri",
        "place": "village",
        "source": "http://www.facebook.com/khadichaur"
      }
    },
    {
      "type": "node",
      "id": 2115686142,
      "lat": 27.7545282,
      "lon": 85.8318011,
      "timestamp": "2021-05-11T19:32:47Z",
      "version": 2,
      "changeset": 104532184,
      "user": "seichter",
      "uid": 66497,
      "tags": {
        "name": "Majin Gaun",
        "place": "hamlet"
      }
    },
    {
      "type": "node",
      "id": 2115686353,
      "lat": 27.7570006,
      "lon": 85.8510089,
      "timestamp": "2013-12-08T14:10:28Z",
      "version": 2,
      "changeset": 19341104,
      "user": "Human65536",
      "uid": 1502046,
      "tags": {
        "name": "Lamosangu",
        "place": "village"
      }
    },
    {
      "type": "node",
      "id": 2115686362,
      "lat": 27.7556573,
      "lon": 85.8352805,
      "timestamp": "2021-05-11T19:32:47Z",
      "version": 2,
      "changeset": 104532184,
      "user": "seichter",
      "uid": 66497,
      "tags": {
        "name": "Akkar",
        "place": "hamlet"
      }
    },
    {
      "type": "node",
      "id": 2126670375,
      "lat": 28.0104201,
      "lon": 86.1920112,
      "timestamp": "2015-12-01T21:57:54Z",
      "version": 5,
      "changeset": 35695561,
      "user": "PierZen",
      "uid": 226516,
      "tags": {
        "alt_name": "Lumnan",
        "name": "Lomnang",
        "place": "village"
      }
    },
    {
      "type": "node",
      "id": 2126670411,
      "lat": 27.913399,
      "lon": 86.209511,
      "timestamp": "2017-02-09T14:17:36Z",
      "version": 4,
      "changeset": 45947878,
      "user": "iWowik",
      "uid": 481934,
      "tags": {
        "name": "Lamabagar",
        "place": "village",
        "wikidata": "Q3465198",
        "wikipedia": "en:Lamabagar"
      }
    },
    {
      "type": "node",
      "id": 2257810264,
      "lat": 27.787806,
      "lon": 85.899582,
      "timestamp": "2019-02-20T12:19:30Z",
      "version": 9,
      "changeset": 67389313,
      "user": "Dass Kamatchi",
      "uid": 9162381,
      "tags": {
        "name": "Bāhrabīse",
        "name:en": "Bahrabise",
        "name:fr": "Barabisé",
        "name:ne": "बाह्रबिसे",
        "place": "village",
        "population": "3154",
        "source": "Bing;GNS;National Population and Housing Census 2011",
        "wikidata": "Q4860638",
        "wikipedia": "en:Bahrabise"
      }
    },
    {
      "type": "node",
      "id": 2257810269,
      "lat": 27.9586196,
      "lon": 85.9549521,
      "timestamp": "2021-05-03T18:11:12Z",
      "version": 3,
      "changeset": 104074023,
      "user": "seichter",
      "uid": 66497,
      "tags": {
        "name": "Kodāri",
        "place": "village"
      }
    },
    {
      "type": "node",
      "id": 2399574918,
      "lat": 27.9722937,
      "lon": 85.9625336,
      "timestamp": "2020-11-13T16:04:48Z",
      "version": 3,
      "changeset": 94072655,
      "user": "prajwalS",
      "uid": 10861750,
      "tags": {
        "name": "Kodari",
        "name:en": "Kodari",
        "place": "village",
        "wikidata": "Q6425224",
        "wikipedia": "en:Kodari"
      }
    },
    {
      "type": "node",
      "id": 2662625467,
      "lat": 27.7474692,
      "lon": 86.0317054,
      "timestamp": "2014-02-09T05:57:19Z",
      "version": 1,
      "changeset": 20458979,
      "user": "amritkarma",
      "uid": 680067,
      "tags": {
        "name": "Kuri",
        "place": "village"
      }
    },
    {
      "type": "node",
      "id": 2662687902,
      "lat": 27.70418,
      "lon": 86.079208,
      "timestamp": "2017-02-09T14:17:41Z",
      "version": 4,
      "changeset": 45947878,
      "user": "iWowik",
      "uid": 481934,
      "tags": {
        "name": "Sundrawati",
        "place": "village",
        "wikidata": "Q3415619",
        "wikipedia": "en:Sundrawati"
      }
    },
    {
      "type": "node",
      "id": 2662690827,
      "lat": 27.703683,
      "lon": 86.1168522,
      "timestamp": "2015-05-02T13:06:14Z",
      "version": 2,
      "changeset": 30720648,
      "user": "Sudaram",
      "uid": 2200004,
      "tags": {
        "name": "Sunkhani",
        "place": "village",
        "population": "5000"
      }
    },
    {
      "type": "node",
      "id": 2908665203,
      "lat": 27.9715516,
      "lon": 86.4306205,
      "timestamp": "2022-05-10T22:23:59Z",
      "version": 3,
      "changeset": 120812814,
      "user": "hemind",
      "uid": 10853824,
      "tags": {
        "alt_name:en": "Jobo Garu",
        "alt_name:zh": "门隆则峰",
        "ele": "7181",
        "name": "乔格茹峰",
        "name:en": "Melungtse",
        "natural": "peak",
        "wikidata": "Q1421508"
      }
    },
    {
      "type": "node",
      "id": 3120550377,
      "lat": 27.6872829,
      "lon": 86.4694059,
      "timestamp": "2017-12-24T11:28:25Z",
      "version": 3,
      "changeset": 54884246,
      "user": "Andreeeee",
      "uid": 64876,
      "tags": {
        "alt_name": "Lahaksewar",
        "name": "Lhachhewar",
        "place": "village"
      }
    },
    {
      "type": "node",
      "id": 3134662215,
      "lat": 27.7771515,
      "lon": 86.2217721,
      "timestamp": "2014-10-17T07:20:11Z",
      "version": 1,
      "changeset": 26138424,
      "user": "codavr",
      "uid": 403962,
      "tags": {
        "name": "Khare",
        "place": "village"
      }
    },
    {
      "type": "node",
      "id": 3134662216,
      "lat": 27.8388122,
      "lon": 86.2349702,
      "timestamp": "2015-04-28T22:48:29Z",
      "version": 3,
      "changeset": 30599935,
      "user": "karmakarma",
      "uid": 2870153,
      "tags": {
        "name": "Trashinam",
        "place": "hamlet"
      }
    },
    {
      "type": "node",
      "id": 3208572168,
      "lat": 27.742438,
      "lon": 86.4478374,
      "timestamp": "2014-11-28T07:16:28Z",
      "version": 1,
      "changeset": 27083201,
      "user": "codavr",
      "uid": 403962,
      "tags": {
        "name": "Khola Kharka",
        "place": "village"
      }
    },
    {
      "type": "node",
      "id": 3255326993,
      "lat": 27.7361686,
      "lon": 86.163925,
      "timestamp": "2015-03-04T21:55:03Z",
      "version": 2,
      "changeset": 29254626,
      "user": "Heinz_V",
      "uid": 91490,
      "tags": {
        "name": "Singati",
        "place": "village"
      }
    },
    {
      "type": "node",
      "id": 3258213794,
      "lat": 28.2522797,
      "lon": 86.0247007,
      "timestamp": "2015-05-19T06:21:17Z",
      "version": 3,
      "changeset": 31274255,
      "user": "katpatuka",
      "uid": 17497,
      "tags": {
        "name": "扎西岗",
        "name:en": "Zhaxigang",
        "place": "village"
      }
    },
    {
      "type": "node",
      "id": 3275042912,
      "lat": 27.702012,
      "lon": 85.9644055,
      "timestamp": "2021-12-05T11:40:10Z",
      "version": 2,
      "changeset": 114579003,
      "user": "Anil Basnet",
      "uid": 3686666,
      "tags": {
        "name": "खानीडाँडा",
        "name:en": "Khanidanda",
        "name:ne": "खानीडाँडा",
        "place": "hamlet"
      }
    },
    {
      "type": "node",
      "id": 3275042913,
      "lat": 27.7170954,
      "lon": 85.9547113,
      "timestamp": "2021-12-05T08:34:32Z",
      "version": 2,
      "changeset": 114574493,
      "user": "Anil Basnet",
      "uid": 3686666,
      "tags": {
        "name": "मकैबन",
        "name:en": "Makaiban",
        "name:ne": "मकैबन",
        "place": "hamlet"
      }
    },
    {
      "type": "node",
      "id": 3407187338,
      "lat": 27.9057982,
      "lon": 85.8063802,
      "timestamp": "2021-05-05T11:00:46Z",
      "version": 3,
      "changeset": 104180218,
      "user": "seichter",
      "uid": 66497,
      "tags": {
        "name": "Tapgau",
        "place": "hamlet"
      }
    },
    {
      "type": "node",
      "id": 3407187342,
      "lat": 27.9209033,
      "lon": 85.787446,
      "timestamp": "2021-05-23T03:45:31Z",
      "version": 5,
      "changeset": 105152066,
      "user": "Anil Basnet",
      "uid": 3686666,
      "tags": {
        "name": "Pangarpu",
        "place": "village"
      }
    },
    {
      "type": "node",
      "id": 3407187344,
      "lat": 27.9641043,
      "lon": 85.8045692,
      "timestamp": "2015-05-04T19:16:41Z",
      "version": 3,
      "changeset": 30788582,
      "user": "katpatuka",
      "uid": 17497,
      "tags": {
        "name": "Gamphāthāng",
        "place": "village",
        "source": "GNS"
      }
    },
    {
      "type": "node",
      "id": 3407187345,
      "lat": 27.9713264,
      "lon": 85.8221074,
      "timestamp": "2021-05-02T11:16:37Z",
      "version": 3,
      "changeset": 103989876,
      "user": "seichter",
      "uid": 66497,
      "tags": {
        "name": "Kyansing",
        "place": "village"
      }
    },
    {
      "type": "node",
      "id": 3407187356,
      "lat": 28.0197239,
      "lon": 85.7843038,
      "timestamp": "2021-05-28T12:10:41Z",
      "version": 4,
      "changeset": 105490865,
      "user": "AnilBasnet",
      "uid": 11767846,
      "tags": {
        "name": "Tempathang",
        "name:en": "Tempathang",
        "place": "village"
      }
    },
    {
      "type": "node",
      "id": 3459771650,
      "lat": 27.871222,
      "lon": 86.2210288,
      "timestamp": "2021-05-27T21:23:30Z",
      "version": 2,
      "changeset": 105450321,
      "user": "seichter",
      "uid": 66497,
      "tags": {
        "name": "Chetchet",
        "place": "hamlet",
        "source": "hydromaps_mapping"
      }
    },
    {
      "type": "node",
      "id": 3459771651,
      "lat": 27.8459143,
      "lon": 86.2177725,
      "timestamp": "2015-04-28T19:22:52Z",
      "version": 2,
      "changeset": 30593190,
      "user": "RikWilliams",
      "uid": 2430827,
      "tags": {
        "name": "Gonggar",
        "place": "village",
        "source": "hydromaps_mapping"
      }
    },
    {
      "type": "node",
      "id": 3459771652,
      "lat": 27.8245885,
      "lon": 86.2273713,
      "timestamp": "2021-08-27T08:38:42Z",
      "version": 2,
      "changeset": 110327020,
      "user": "Sundar1",
      "uid": 9530130,
      "tags": {
        "name": "Jagat",
        "place": "hamlet",
        "source": "hydromaps_mapping"
      }
    },
    {
      "type": "node",
      "id": 3459771654,
      "lat": 27.9048304,
      "lon": 86.2100506,
      "timestamp": "2021-08-27T08:38:42Z",
      "version": 2,
      "changeset": 110327020,
      "user": "Sundar1",
      "uid": 9530130,
      "tags": {
        "name": "Tallo Lamabagar",
        "place": "hamlet",
        "source": "hydromaps_mapping"
      }
    },
    {
      "type": "node",
      "id": 3459771655,
      "lat": 27.8852309,
      "lon": 86.2353027,
      "timestamp": "2021-05-27T21:23:30Z",
      "version": 2,
      "changeset": 105450321,
      "user": "seichter",
      "uid": 66497,
      "tags": {
        "name": "Rikhu",
        "place": "hamlet",
        "source": "hydromaps_mapping"
      }
    },
    {
      "type": "node",
      "id": 3477628514,
      "lat": 27.8234826,
      "lon": 85.7963997,
      "timestamp": "2021-05-29T13:44:50Z",
      "version": 3,
      "changeset": 105534950,
      "user": "Rookie Pro Nigga",
      "uid": 12571990,
      "tags": {
        "name": "Yanlakot",
        "place": "village"
      }
    },
    {
      "type": "node",
      "id": 3479792419,
      "lat": 27.8715486,
      "lon": 85.8632558,
      "timestamp": "2021-08-19T05:50:18Z",
      "version": 3,
      "changeset": 109909028,
      "user": "Sundar1",
      "uid": 9530130,
      "tags": {
        "alt_name": "Phaldu",
        "name": "Phalduk",
        "place": "village"
      }
    },
    {
      "type": "node",
      "id": 3479792421,
      "lat": 27.8521895,
      "lon": 85.8579343,
      "timestamp": "2021-05-04T20:24:06Z",
      "version": 2,
      "changeset": 104145173,
      "user": "seichter",
      "uid": 66497,
      "tags": {
        "name": "Thagam",
        "place": "village"
      }
    },
    {
      "type": "node",
      "id": 3480081522,
      "lat": 27.7826084,
      "lon": 85.818399,
      "timestamp": "2021-05-05T11:00:46Z",
      "version": 3,
      "changeset": 104180218,
      "user": "seichter",
      "uid": 66497,
      "tags": {
        "name": "Byase",
        "place": "hamlet"
      }
    },
    {
      "type": "node",
      "id": 3480082395,
      "lat": 27.7769207,
      "lon": 85.818412,
      "timestamp": "2021-05-05T11:00:46Z",
      "version": 2,
      "changeset": 104180218,
      "user": "seichter",
      "uid": 66497,
      "tags": {
        "name": "Makha",
        "place": "village"
      }
    },
    {
      "type": "node",
      "id": 3481334632,
      "lat": 27.8926402,
      "lon": 85.7946327,
      "timestamp": "2021-05-24T08:03:15Z",
      "version": 3,
      "changeset": 105206381,
      "user": "Anil Basnet",
      "uid": 3686666,
      "tags": {
        "name": "Golchi",
        "place": "hamlet"
      }
    },
    {
      "type": "node",
      "id": 3481334647,
      "lat": 27.8977678,
      "lon": 85.7949598,
      "timestamp": "2021-05-05T11:00:46Z",
      "version": 2,
      "changeset": 104180218,
      "user": "seichter",
      "uid": 66497,
      "tags": {
        "name": "Khanigau",
        "place": "hamlet"
      }
    },
    {
      "type": "node",
      "id": 3484098842,
      "lat": 27.8032997,
      "lon": 85.9632708,
      "timestamp": "2021-05-16T11:34:52Z",
      "version": 7,
      "changeset": 104764767,
      "user": "seichter",
      "uid": 66497,
      "tags": {
        "is_in:district": "सिन्धुपाल्चोक",
        "mapping_project": "quakemaps",
        "name": "Drumtali",
        "place": "hamlet"
      }
    },
    {
      "type": "node",
      "id": 3484112570,
      "lat": 27.724527,
      "lon": 85.907593,
      "timestamp": "2017-10-03T12:57:33Z",
      "version": 6,
      "changeset": 52595518,
      "user": "mueschel",
      "uid": 616774,
      "tags": {
        "admin_level": "8",
        "admin_unit": "Village development committee",
        "fixme": "true",
        "is_in:country": "Nepal",
        "is_in:country_code": "NP",
        "is_in:district": "सिन्धुपाल्चोक",
        "mapping_project": "quakemaps",
        "name": "Tauthali",
        "note": "these locations and village names might not be 100% accurate",
        "place": "village",
        "wikidata": "Q3411004",
        "wikipedia": "en:Tauthali"
      }
    },
    {
      "type": "node",
      "id": 3484129421,
      "lat": 27.717955,
      "lon": 85.872292,
      "timestamp": "2017-10-03T12:57:35Z",
      "version": 7,
      "changeset": 52595518,
      "user": "mueschel",
      "uid": 616774,
      "tags": {
        "admin_level": "8",
        "admin_unit": "Village development committee",
        "fixme": "true",
        "is_in:country": "Nepal",
        "is_in:country_code": "NP",
        "is_in:district": "सिन्धुपाल्चोक",
        "mapping_project": "quakemaps",
        "name": "Petaku",
        "note": "these locations and village names might not be 100% accurate",
        "place": "village",
        "wikidata": "Q3413867",
        "wikipedia": "en:Pedku"
      }
    },
    {
      "type": "node",
      "id": 3485210307,
      "lat": 27.6847398,
      "lon": 86.1718283,
      "timestamp": "2021-08-27T08:38:42Z",
      "version": 2,
      "changeset": 110327020,
      "user": "Sundar1",
      "uid": 9530130,
      "tags": {
        "name": "Lukuwa",
        "note": "Probably a village name",
        "place": "hamlet"
      }
    },
    {
      "type": "node",
      "id": 3485342026,
      "lat": 27.7039882,
      "lon": 86.1883416,
      "timestamp": "2021-08-27T08:38:42Z",
      "version": 2,
      "changeset": 110327020,
      "user": "Sundar1",
      "uid": 9530130,
      "tags": {
        "name": "Ganardi",
        "place": "hamlet"
      }
    },
    {
      "type": "node",
      "id": 3485422031,
      "lat": 27.7729445,
      "lon": 86.1279135,
      "timestamp": "2021-05-07T17:53:27Z",
      "version": 3,
      "changeset": 104334347,
      "user": "seichter",
      "uid": 66497,
      "tags": {
        "name": "Sisneri",
        "place": "hamlet"
      }
    },
    {
      "type": "node",
      "id": 3488289915,
      "lat": 27.7319273,
      "lon": 86.1424635,
      "timestamp": "2017-09-10T06:08:21Z",
      "version": 3,
      "changeset": 51898032,
      "user": "nyuriks",
      "uid": 339581,
      "tags": {
        "name": "Lamidada",
        "place": "village",
        "wikidata": "Q28027395",
        "wikipedia": "en:Lamidada"
      }
    },
    {
      "type": "node",
      "id": 3490922199,
      "lat": 27.9600251,
      "lon": 85.9707759,
      "timestamp": "2015-05-01T11:58:25Z",
      "version": 2,
      "changeset": 30687964,
      "user": "SeverinGeo",
      "uid": 219668,
      "tags": {
        "alt_name_1": "Bhaise",
        "alt_name_2": "Bhainse",
        "name": "Liping",
        "place": "hamlet",
        "source": "GNS"
      }
    },
    {
      "type": "node",
      "id": 3490952292,
      "lat": 27.7985,
      "lon": 86.139984,
      "timestamp": "2021-05-07T17:53:27Z",
      "version": 4,
      "changeset": 104334347,
      "user": "seichter",
      "uid": 66497,
      "tags": {
        "name": "Chyasarpa",
        "place": "hamlet"
      }
    },
    {
      "type": "node",
      "id": 3490991177,
      "lat": 27.7777417,
      "lon": 86.2844695,
      "timestamp": "2015-05-01T12:25:28Z",
      "version": 1,
      "changeset": 30687964,
      "user": "SeverinGeo",
      "uid": 219668,
      "tags": {
        "name": "Sikpāsor Khāni",
        "place": "hamlet",
        "source": "GNS"
      }
    },
    {
      "type": "node",
      "id": 3491013193,
      "lat": 27.9028109,
      "lon": 86.3755363,
      "timestamp": "2015-05-01T12:34:47Z",
      "version": 1,
      "changeset": 30687964,
      "user": "SeverinGeo",
      "uid": 219668,
      "tags": {
        "name": "Beding",
        "place": "hamlet",
        "source": "GNS"
      }
    },
    {
      "type": "node",
      "id": 3491026788,
      "lat": 27.8814863,
      "lon": 86.42678,
      "timestamp": "2018-10-25T12:25:05Z",
      "version": 5,
      "changeset": 63865506,
      "user": "ngt",
      "uid": 455576,
      "tags": {
        "name": "Na",
        "name:en": "Na",
        "place": "hamlet",
        "source": "survey october 2017"
      }
    },
    {
      "type": "node",
      "id": 3495849771,
      "lat": 28.1260087,
      "lon": 85.8674922,
      "timestamp": "2022-02-22T16:51:50Z",
      "version": 5,
      "changeset": 117735827,
      "user": "kuhni74",
      "uid": 11927106,
      "tags": {
        "alt_name": "Phurbi Chyachu;Phurbi Chhyachu",
        "ele": "6637",
        "name": "Phurbi Chachu",
        "natural": "peak",
        "source": "WP-fr",
        "wikidata": "Q56305304",
        "wikipedia": "fr:Phurbi Chyachu"
      }
    },
    {
      "type": "node",
      "id": 3495849773,
      "lat": 28.1431922,
      "lon": 85.8713437,
      "timestamp": "2021-05-02T20:20:00Z",
      "version": 2,
      "changeset": 104011364,
      "user": "seichter",
      "uid": 66497,
      "tags": {
        "ele": "6500",
        "name": "Jugal",
        "natural": "peak",
        "source:ele": "estimated from DEM",
        "wikidata": "Q29405105"
      }
    },
    {
      "type": "node",
      "id": 3500826051,
      "lat": 27.7741523,
      "lon": 85.8723043,
      "timestamp": "2021-05-11T19:52:13Z",
      "version": 2,
      "changeset": 104532980,
      "user": "seichter",
      "uid": 66497,
      "tags": {
        "name": "Chepegau",
        "place": "hamlet"
      }
    },
    {
      "type": "node",
      "id": 3524019624,
      "lat": 28.1200395,
      "lon": 86.172001,
      "timestamp": "2021-05-23T22:10:26Z",
      "version": 3,
      "changeset": 105186487,
      "user": "seichter",
      "uid": 66497,
      "tags": {
        "natural": "spring"
      }
    },
    {
      "type": "node",
      "id": 3524038009,
      "lat": 28.1202239,
      "lon": 86.1639979,
      "timestamp": "2015-05-17T18:20:33Z",
      "version": 1,
      "changeset": 31235474,
      "user": "Tomas Daskovas",
      "uid": 2906213,
      "tags": {
        "name": "Lapchi",
        "place": "village"
      }
    },
    {
      "type": "node",
      "id": 3524370767,
      "lat": 28.0515,
      "lon": 86.1672413,
      "timestamp": "2015-05-17T21:51:07Z",
      "version": 1,
      "changeset": 31240720,
      "user": "Tomas Daskovas",
      "uid": 2906213,
      "tags": {
        "tourism": "camp_site"
      }
    },
    {
      "type": "node",
      "id": 3525480003,
      "lat": 27.9513097,
      "lon": 86.217805,
      "timestamp": "2015-05-18T10:13:36Z",
      "version": 1,
      "changeset": 31250582,
      "user": "Tomas Daskovas",
      "uid": 2906213,
      "tags": {
        "tourism": "camp_site"
      }
    },
    {
      "type": "node",
      "id": 3526234972,
      "lat": 27.9848396,
      "lon": 86.2073091,
      "timestamp": "2015-05-18T15:57:30Z",
      "version": 1,
      "changeset": 31259254,
      "user": "Tomas Daskovas",
      "uid": 2906213,
      "tags": {
        "tourism": "camp_site"
      }
    },
    {
      "type": "node",
      "id": 3527568810,
      "lat": 28.2877,
      "lon": 86.0254,
      "timestamp": "2016-10-08T05:40:49Z",
      "version": 2,
      "changeset": 42726874,
      "user": "katpatuka",
      "uid": 17497,
      "tags": {
        "name": "གཙང་གདོ (江东)",
        "name:bo": "གཙང་གདོ",
        "name:en": "Jiangdong",
        "name:zh": "江东",
        "place": "village",
        "source:name": "GNS"
      }
    },
    {
      "type": "node",
      "id": 3527568814,
      "lat": 28.2986544,
      "lon": 86.0210452,
      "timestamp": "2015-05-19T06:19:27Z",
      "version": 1,
      "changeset": 31274255,
      "user": "katpatuka",
      "uid": 17497,
      "tags": {
        "name": "欧龙",
        "name:en": "Oulong",
        "name:zh": "欧龙",
        "place": "village",
        "source:name": "GNS"
      }
    },
    {
      "type": "node",
      "id": 3527568818,
      "lat": 28.2101617,
      "lon": 85.9920991,
      "timestamp": "2015-05-19T06:19:28Z",
      "version": 1,
      "changeset": 31274255,
      "user": "katpatuka",
      "uid": 17497,
      "tags": {
        "name": "塔村",
        "name:en": "Tacun",
        "name:zh": "塔村",
        "place": "village",
        "source:name": "GNS"
      }
    },
    {
      "type": "node",
      "id": 3527568823,
      "lat": 28.2301689,
      "lon": 86.0023405,
      "timestamp": "2015-05-19T06:19:28Z",
      "version": 1,
      "changeset": 31274255,
      "user": "katpatuka",
      "uid": 17497,
      "tags": {
        "name": "宗塔",
        "name:en": "Zongta",
        "name:zh": "宗塔",
        "place": "village",
        "source:name": "GNS"
      }
    },
    {
      "type": "node",
      "id": 3548117783,
      "lat": 27.7836393,
      "lon": 85.9452426,
      "timestamp": "2021-01-07T10:47:27Z",
      "version": 3,
      "changeset": 97103248,
      "user": "Sundar1",
      "uid": 9530130,
      "tags": {
        "name": "Budepa",
        "place": "hamlet"
      }
    },
    {
      "type": "node",
      "id": 3548277065,
      "lat": 27.7639647,
      "lon": 85.8802661,
      "timestamp": "2015-05-26T20:33:38Z",
      "version": 1,
      "changeset": 31486693,
      "user": "majovdh",
      "uid": 583734,
      "tags": {
        "name": "Dawi",
        "place": "village"
      }
    },
    {
      "type": "node",
      "id": 3548277066,
      "lat": 27.7590353,
      "lon": 85.8701607,
      "timestamp": "2021-01-07T10:47:27Z",
      "version": 2,
      "changeset": 97103248,
      "user": "Sundar1",
      "uid": 9530130,
      "tags": {
        "name": "Jure",
        "place": "hamlet"
      }
    },
    {
      "type": "node",
      "id": 3548277067,
      "lat": 27.7792734,
      "lon": 85.8944516,
      "timestamp": "2015-05-26T20:33:39Z",
      "version": 1,
      "changeset": 31486693,
      "user": "majovdh",
      "uid": 583734,
      "tags": {
        "name": "Sun Khosi Bazar",
        "place": "village"
      }
    },
    {
      "type": "node",
      "id": 3761207075,
      "lat": 28.303348,
      "lon": 86.3488832,
      "timestamp": "2021-04-18T02:29:06Z",
      "version": 2,
      "changeset": 103122483,
      "user": "hemind",
      "uid": 10853824,
      "tags": {
        "alt_name": "Labuche Kang I;Lobuche Kang I;Choksiam",
        "ele": "7367",
        "name": "拉布吉康峰",
        "name:en": "Lapche Kang I",
        "name:zh": "拉布吉康峰",
        "name:zh-Hans": "拉布吉康峰",
        "natural": "peak",
        "wikidata": "Q1081475"
      }
    },
    {
      "type": "node",
      "id": 3761207078,
      "lat": 28.3019881,
      "lon": 86.3845306,
      "timestamp": "2015-09-27T08:25:11Z",
      "version": 1,
      "changeset": 34277510,
      "user": "4rch",
      "uid": 1772211,
      "tags": {
        "alt_name": "Lapche Kang III East",
        "ele": "7250",
        "name": "Lapche Kang III",
        "natural": "peak",
        "wikidata": "Q20164722"
      }
    },
    {
      "type": "node",
      "id": 4281452097,
      "lat": 27.8727192,
      "lon": 86.2321569,
      "timestamp": "2017-11-11T11:07:08Z",
      "version": 2,
      "changeset": 53687999,
      "user": "Yeti-17",
      "uid": 6969191,
      "tags": {
        "name": "sumigaun",
        "tourism": "camp_site"
      }
    },
    {
      "type": "node",
      "id": 4424645191,
      "lat": 27.7771486,
      "lon": 86.1790761,
      "timestamp": "2016-09-30T08:06:29Z",
      "version": 1,
      "changeset": 42536143,
      "user": "Jyoti Dahal",
      "uid": 4652686,
      "tags": {
        "amenity": "shelter",
        "internet_access": "wlan"
      }
    },
    {
      "type": "node",
      "id": 4424655490,
      "lat": 27.7779432,
      "lon": 86.1787829,
      "timestamp": "2016-09-30T08:06:32Z",
      "version": 1,
      "changeset": 42536143,
      "user": "Jyoti Dahal",
      "uid": 4652686,
      "tags": {
        "amenity": "shelter"
      }
    },
    {
      "type": "node",
      "id": 4484608267,
      "lat": 27.7582154,
      "lon": 86.0601654,
      "timestamp": "2016-11-05T22:33:55Z",
      "version": 1,
      "changeset": 43431824,
      "user": "No-YouDontNeedAGuide",
      "uid": 4809804,
      "tags": {
        "amenity": "drinking_water"
      }
    },
    {
      "type": "node",
      "id": 4484636412,
      "lat": 27.7582138,
      "lon": 86.0603697,
      "timestamp": "2016-11-05T23:06:25Z",
      "version": 1,
      "changeset": 43432242,
      "user": "No-YouDontNeedAGuide",
      "uid": 4809804,
      "tags": {
        "tourism": "camp_site"
      }
    },
    {
      "type": "node",
      "id": 4537223226,
      "lat": 27.7432223,
      "lon": 85.802458,
      "timestamp": "2016-12-04T06:27:02Z",
      "version": 1,
      "changeset": 44151311,
      "user": "Ramsharan Nepal",
      "uid": 4921107,
      "tags": {
        "name": "Kothe",
        "place": "village"
      }
    },
    {
      "type": "node",
      "id": 4537223241,
      "lat": 27.7607401,
      "lon": 85.7967288,
      "timestamp": "2021-05-05T11:00:46Z",
      "version": 3,
      "changeset": 104180218,
      "user": "seichter",
      "uid": 66497,
      "tags": {
        "name": "Binjel",
        "place": "village"
      }
    },
    {
      "type": "node",
      "id": 4543165511,
      "lat": 28.1964383,
      "lon": 85.8001908,
      "timestamp": "2021-04-26T18:42:47Z",
      "version": 5,
      "changeset": 103656158,
      "user": "seichter",
      "uid": 66497,
      "tags": {
        "alt_name": "Big White Peak; Leonpo Gang; Dorle Pahad",
        "ele": "6979",
        "name": "Loenpo Gang",
        "natural": "peak",
        "source": "Carter's Classification of the Himalaya",
        "wikidata": "Q20191017"
      }
    },
    {
      "type": "node",
      "id": 4970038208,
      "lat": 27.7683065,
      "lon": 85.9235666,
      "timestamp": "2021-01-07T10:47:27Z",
      "version": 2,
      "changeset": 97103248,
      "user": "Sundar1",
      "uid": 9530130,
      "tags": {
        "name": "Chokati",
        "name:ne": "छोकटी",
        "place": "hamlet"
      }
    },
    {
      "type": "node",
      "id": 4973090205,
      "lat": 27.7681599,
      "lon": 85.8948449,
      "timestamp": "2021-01-07T10:47:27Z",
      "version": 2,
      "changeset": 97103248,
      "user": "Sundar1",
      "uid": 9530130,
      "tags": {
        "name": "Dhuskun",
        "name:ne": "धुस्कुन",
        "place": "hamlet"
      }
    },
    {
      "type": "node",
      "id": 4979122563,
      "lat": 27.8597734,
      "lon": 85.8731414,
      "timestamp": "2017-07-19T09:37:54Z",
      "version": 1,
      "changeset": 50400123,
      "user": "Bishal9841",
      "uid": 3573216,
      "tags": {
        "name": "Ghumthang",
        "name:ne": "घुमथाङ",
        "place": "village"
      }
    },
    {
      "type": "node",
      "id": 4979347368,
      "lat": 27.7554019,
      "lon": 85.8503079,
      "timestamp": "2021-01-07T10:47:27Z",
      "version": 2,
      "changeset": 97103248,
      "user": "Sundar1",
      "uid": 9530130,
      "tags": {
        "name": "Pangretar",
        "name:ne": "पानग्रेटार",
        "place": "hamlet"
      }
    },
    {
      "type": "node",
      "id": 4979353572,
      "lat": 27.7464356,
      "lon": 85.8664766,
      "timestamp": "2021-01-07T10:47:27Z",
      "version": 2,
      "changeset": 97103248,
      "user": "Sundar1",
      "uid": 9530130,
      "tags": {
        "name": "Petku",
        "name:ne": "पेटकु",
        "place": "hamlet"
      }
    },
    {
      "type": "node",
      "id": 4979385246,
      "lat": 27.7401364,
      "lon": 85.8261453,
      "timestamp": "2017-07-19T11:14:13Z",
      "version": 1,
      "changeset": 50402228,
      "user": "Bishal9841",
      "uid": 3573216,
      "tags": {
        "name": "Thumpakhar",
        "name:ne": "थुमपक्खर",
        "place": "village"
      }
    },
    {
      "type": "node",
      "id": 4981925493,
      "lat": 27.8108631,
      "lon": 85.8702176,
      "timestamp": "2021-08-19T05:50:18Z",
      "version": 5,
      "changeset": 109909028,
      "user": "Sundar1",
      "uid": 9530130,
      "tags": {
        "name": "Maneswar",
        "name:ne": "मनेस्वार",
        "place": "village"
      }
    },
    {
      "type": "node",
      "id": 5042276969,
      "lat": 27.7052253,
      "lon": 86.0628565,
      "timestamp": "2021-02-07T08:39:50Z",
      "version": 2,
      "changeset": 98841466,
      "user": "Payal Shrestha",
      "uid": 6321798,
      "tags": {
        "name": "Suspa Chhemawati",
        "name:ne": "सुस्पा छेमावती",
        "place": "village"
      }
    },
    {
      "type": "node",
      "id": 5045694046,
      "lat": 27.8719297,
      "lon": 86.2306112,
      "timestamp": "2017-11-11T10:34:24Z",
      "version": 2,
      "changeset": 53687391,
      "user": "Yeti-17",
      "uid": 6969191,
      "tags": {
        "name": "Simi Gaun",
        "name:ne": "गौरीशंकर",
        "place": "village"
      }
    },
    {
      "type": "node",
      "id": 5222901230,
      "lat": 27.8720534,
      "lon": 86.2222991,
      "timestamp": "2019-04-10T09:24:37Z",
      "version": 2,
      "changeset": 69075232,
      "user": "Rakesh Prajapati",
      "uid": 9616048,
      "tags": {
        "tourism": "camp_site"
      }
    },
    {
      "type": "node",
      "id": 5223155078,
      "lat": 27.9069019,
      "lon": 86.3658643,
      "timestamp": "2017-11-11T13:32:48Z",
      "version": 1,
      "changeset": 53690774,
      "user": "Yeti-17",
      "uid": 6969191,
      "tags": {
        "name": "Chhimu",
        "place": "hamlet"
      }
    },
    {
      "type": "node",
      "id": 5223155117,
      "lat": 27.9071326,
      "lon": 86.3633729,
      "timestamp": "2017-11-11T13:32:49Z",
      "version": 1,
      "changeset": 53690774,
      "user": "Yeti-17",
      "uid": 6969191,
      "tags": {
        "name": "Ramding",
        "place": "hamlet"
      }
    },
    {
      "type": "node",
      "id": 5223155118,
      "lat": 27.906262,
      "lon": 86.3549155,
      "timestamp": "2017-11-11T13:32:49Z",
      "version": 1,
      "changeset": 53690774,
      "user": "Yeti-17",
      "uid": 6969191,
      "tags": {
        "name": "Nimare",
        "place": "hamlet"
      }
    },
    {
      "type": "node",
      "id": 5223278623,
      "lat": 27.8808303,
      "lon": 86.4269744,
      "timestamp": "2017-11-11T14:54:25Z",
      "version": 1,
      "changeset": 53692531,
      "user": "Yeti-17",
      "uid": 6969191,
      "tags": {
        "name": "Na-View Point Hotel Camp Site",
        "tourism": "camp_site"
      }
    },
    {
      "type": "node",
      "id": 5223345068,
      "lat": 27.8564717,
      "lon": 86.4320183,
      "timestamp": "2017-11-11T15:40:36Z",
      "version": 1,
      "changeset": 53693504,
      "user": "Yeti-17",
      "uid": 6969191,
      "tags": {
        "name": "Yalung Ri High Camp",
        "tourism": "camp_site"
      }
    },
    {
      "type": "node",
      "id": 5223345444,
      "lat": 27.8638145,
      "lon": 86.4393622,
      "timestamp": "2017-11-11T15:40:40Z",
      "version": 1,
      "changeset": 53693504,
      "user": "Yeti-17",
      "uid": 6969191,
      "tags": {
        "name": "Yalung Ri Base Camp",
        "tourism": "camp_site"
      }
    },
    {
      "type": "node",
      "id": 5223422673,
      "lat": 27.8589759,
      "lon": 86.4726216,
      "timestamp": "2017-11-11T16:35:10Z",
      "version": 1,
      "changeset": 53694820,
      "user": "Yeti-17",
      "uid": 6969191,
      "tags": {
        "tourism": "camp_site"
      }
    },
    {
      "type": "node",
      "id": 5223422674,
      "lat": 27.8632466,
      "lon": 86.4692903,
      "timestamp": "2017-11-11T16:35:10Z",
      "version": 1,
      "changeset": 53694820,
      "user": "Yeti-17",
      "uid": 6969191,
      "tags": {
        "tourism": "camp_site"
      }
    },
    {
      "type": "node",
      "id": 5641550709,
      "lat": 28.0575995,
      "lon": 86.343838,
      "timestamp": "2018-05-25T11:21:31Z",
      "version": 1,
      "changeset": 59268160,
      "user": "FreedSky",
      "uid": 1236135,
      "tags": {
        "name": "仓木坚村",
        "place": "village"
      }
    },
    {
      "type": "node",
      "id": 6434842785,
      "lat": 27.7724049,
      "lon": 85.9699729,
      "timestamp": "2019-04-29T01:51:30Z",
      "version": 1,
      "changeset": 69678299,
      "user": "deepak parajuli",
      "uid": 3686585,
      "tags": {
        "amenity": "drinking_water",
        "name:en": "Dahal niwas"
      }
    },
    {
      "type": "node",
      "id": 7992231991,
      "lat": 27.7857567,
      "lon": 85.9051721,
      "timestamp": "2021-02-21T02:30:57Z",
      "version": 2,
      "changeset": 99665782,
      "user": "Dass Kamatchi",
      "uid": 9162381,
      "tags": {
        "name": "Sanupalati",
        "place": "village"
      }
    },
    {
      "type": "node",
      "id": 8093282587,
      "lat": 28.0652903,
      "lon": 85.8273811,
      "timestamp": "2021-05-02T11:16:37Z",
      "version": 2,
      "changeset": 103989876,
      "user": "seichter",
      "uid": 66497,
      "tags": {
        "alt_name": "Chaksalo",
        "ele": "4620",
        "name": "Namaskar Pass",
        "natural": "saddle",
        "source:ele": "estimated from DEM"
      }
    },
    {
      "type": "node",
      "id": 8299591189,
      "lat": 27.7743685,
      "lon": 85.9380205,
      "timestamp": "2021-01-07T10:47:27Z",
      "version": 1,
      "changeset": 97103248,
      "user": "Sundar1",
      "uid": 9530130,
      "tags": {
        "name": "Dadagaun",
        "place": "hamlet"
      }
    },
    {
      "type": "node",
      "id": 8441938067,
      "lat": 27.7846311,
      "lon": 85.9119365,
      "timestamp": "2021-05-05T13:32:13Z",
      "version": 2,
      "changeset": 104188360,
      "user": "seichter",
      "uid": 66497,
      "tags": {
        "name": "Simle",
        "place": "village"
      }
    },
    {
      "type": "node",
      "id": 8441938068,
      "lat": 27.794331,
      "lon": 85.9344894,
      "timestamp": "2021-02-21T02:34:18Z",
      "version": 2,
      "changeset": 99665808,
      "user": "Dass Kamatchi",
      "uid": 9162381,
      "tags": {
        "name": "Karthali",
        "place": "village"
      }
    },
    {
      "type": "node",
      "id": 8465573209,
      "lat": 27.8426376,
      "lon": 85.8743282,
      "timestamp": "2021-02-28T10:37:42Z",
      "version": 1,
      "changeset": 100130726,
      "user": "Dass Kamatchi",
      "uid": 9162381,
      "tags": {
        "name": "Shyamsathu",
        "place": "village"
      }
    },
    {
      "type": "node",
      "id": 8694994654,
      "lat": 27.8545248,
      "lon": 85.8858746,
      "timestamp": "2021-05-03T20:41:29Z",
      "version": 1,
      "changeset": 104079349,
      "user": "seichter",
      "uid": 66497,
      "tags": {
        "name": "Gati",
        "place": "village"
      }
    },
    {
      "type": "node",
      "id": 8695021119,
      "lat": 27.9217917,
      "lon": 85.9215643,
      "timestamp": "2021-05-03T20:41:31Z",
      "version": 1,
      "changeset": 104079349,
      "user": "seichter",
      "uid": 66497,
      "tags": {
        "name": "Duguna",
        "place": "hamlet"
      }
    },
    {
      "type": "node",
      "id": 8699092777,
      "lat": 27.8845323,
      "lon": 85.8520613,
      "timestamp": "2022-04-06T13:02:11Z",
      "version": 2,
      "changeset": 119386654,
      "user": "Dass Kamatchi",
      "uid": 9162381,
      "tags": {
        "name": "Booma",
        "place": "hamlet"
      }
    },
    {
      "type": "node",
      "id": 8699092790,
      "lat": 27.8763593,
      "lon": 85.8615098,
      "timestamp": "2021-05-04T18:08:56Z",
      "version": 1,
      "changeset": 104140214,
      "user": "seichter",
      "uid": 66497,
      "tags": {
        "name": "Jyamling",
        "place": "hamlet"
      }
    },
    {
      "type": "node",
      "id": 8699092791,
      "lat": 27.8793596,
      "lon": 85.8643207,
      "timestamp": "2021-05-04T18:08:56Z",
      "version": 1,
      "changeset": 104140214,
      "user": "seichter",
      "uid": 66497,
      "tags": {
        "name": "Dhepche",
        "place": "hamlet"
      }
    },
    {
      "type": "node",
      "id": 8699093053,
      "lat": 27.8273726,
      "lon": 85.7902192,
      "timestamp": "2021-05-29T13:44:50Z",
      "version": 2,
      "changeset": 105534950,
      "user": "Rookie Pro Nigga",
      "uid": 12571990,
      "tags": {
        "name": "Tinghare",
        "place": "hamlet"
      }
    },
    {
      "type": "node",
      "id": 8699093054,
      "lat": 27.8330408,
      "lon": 85.7967832,
      "timestamp": "2021-05-04T18:08:57Z",
      "version": 1,
      "changeset": 104140214,
      "user": "seichter",
      "uid": 66497,
      "tags": {
        "name": "Shermatan",
        "place": "hamlet"
      }
    },
    {
      "type": "node",
      "id": 8699093055,
      "lat": 27.8319514,
      "lon": 85.8125501,
      "timestamp": "2021-05-04T18:08:57Z",
      "version": 1,
      "changeset": 104140214,
      "user": "seichter",
      "uid": 66497,
      "tags": {
        "name": "Patichaur",
        "place": "hamlet"
      }
    },
    {
      "type": "node",
      "id": 8699093056,
      "lat": 27.837302,
      "lon": 85.8098236,
      "timestamp": "2021-05-26T09:16:26Z",
      "version": 2,
      "changeset": 105344031,
      "user": "Anil Basnet",
      "uid": 3686666,
      "tags": {
        "name": "Bisinkhar",
        "place": "village"
      }
    },
    {
      "type": "node",
      "id": 8701271585,
      "lat": 27.8136068,
      "lon": 85.7924552,
      "timestamp": "2021-05-05T11:00:46Z",
      "version": 1,
      "changeset": 104180218,
      "user": "seichter",
      "uid": 66497,
      "tags": {
        "name": "Damsin",
        "place": "hamlet"
      }
    },
    {
      "type": "node",
      "id": 8701271596,
      "lat": 27.7739005,
      "lon": 85.7895952,
      "timestamp": "2021-05-05T11:00:46Z",
      "version": 1,
      "changeset": 104180218,
      "user": "seichter",
      "uid": 66497,
      "tags": {
        "name": "Dadagau",
        "place": "hamlet"
      }
    },
    {
      "type": "node",
      "id": 8701271597,
      "lat": 27.7816987,
      "lon": 85.799713,
      "timestamp": "2021-05-05T11:00:46Z",
      "version": 1,
      "changeset": 104180218,
      "user": "seichter",
      "uid": 66497,
      "tags": {
        "name": "Chilaune",
        "place": "hamlet"
      }
    },
    {
      "type": "node",
      "id": 8701271598,
      "lat": 27.7742165,
      "lon": 85.8162359,
      "timestamp": "2021-05-05T11:00:46Z",
      "version": 1,
      "changeset": 104180218,
      "user": "seichter",
      "uid": 66497,
      "tags": {
        "name": "Badarpa",
        "place": "hamlet"
      }
    },
    {
      "type": "node",
      "id": 8701271599,
      "lat": 27.7571644,
      "lon": 85.8183393,
      "timestamp": "2021-05-05T11:00:46Z",
      "version": 1,
      "changeset": 104180218,
      "user": "seichter",
      "uid": 66497,
      "tags": {
        "name": "Jalbari",
        "place": "hamlet"
      }
    },
    {
      "type": "node",
      "id": 8701271600,
      "lat": 27.7620749,
      "lon": 85.8136808,
      "timestamp": "2021-05-05T11:00:46Z",
      "version": 1,
      "changeset": 104180218,
      "user": "seichter",
      "uid": 66497,
      "tags": {
        "name": "Jogidada",
        "place": "hamlet"
      }
    },
    {
      "type": "node",
      "id": 8701271601,
      "lat": 27.7574387,
      "lon": 85.7843406,
      "timestamp": "2021-05-05T11:00:46Z",
      "version": 1,
      "changeset": 104180218,
      "user": "seichter",
      "uid": 66497,
      "tags": {
        "name": "Adhamara",
        "place": "hamlet"
      }
    },
    {
      "type": "node",
      "id": 8701271603,
      "lat": 27.7952929,
      "lon": 85.7926214,
      "timestamp": "2021-05-05T11:00:46Z",
      "version": 1,
      "changeset": 104180218,
      "user": "seichter",
      "uid": 66497,
      "tags": {
        "name": "Dhuskot",
        "place": "village"
      }
    },
    {
      "type": "node",
      "id": 8701271605,
      "lat": 27.8513033,
      "lon": 85.7885446,
      "timestamp": "2021-05-05T11:00:46Z",
      "version": 1,
      "changeset": 104180218,
      "user": "seichter",
      "uid": 66497,
      "tags": {
        "name": "Baramchi",
        "place": "hamlet"
      }
    },
    {
      "type": "node",
      "id": 8701678004,
      "lat": 27.8326242,
      "lon": 85.878168,
      "timestamp": "2021-05-05T13:32:13Z",
      "version": 1,
      "changeset": 104188360,
      "user": "seichter",
      "uid": 66497,
      "tags": {
        "name": "Dandakateri",
        "place": "hamlet"
      }
    },
    {
      "type": "node",
      "id": 8701678005,
      "lat": 27.8183229,
      "lon": 85.8699274,
      "timestamp": "2021-05-05T13:32:13Z",
      "version": 1,
      "changeset": 104188360,
      "user": "seichter",
      "uid": 66497,
      "tags": {
        "name": "Harre",
        "place": "hamlet"
      }
    },
    {
      "type": "node",
      "id": 8701678006,
      "lat": 27.815376,
      "lon": 85.8942176,
      "timestamp": "2021-05-05T13:32:13Z",
      "version": 1,
      "changeset": 104188360,
      "user": "seichter",
      "uid": 66497,
      "tags": {
        "name": "Kabre",
        "place": "hamlet"
      }
    },
    {
      "type": "node",
      "id": 8701678007,
      "lat": 27.8167569,
      "lon": 85.88198,
      "timestamp": "2021-05-05T13:32:13Z",
      "version": 1,
      "changeset": 104188360,
      "user": "seichter",
      "uid": 66497,
      "tags": {
        "name": "Khoran",
        "place": "hamlet"
      }
    },
    {
      "type": "node",
      "id": 8701688620,
      "lat": 27.8018427,
      "lon": 85.8998177,
      "timestamp": "2021-05-05T13:32:13Z",
      "version": 1,
      "changeset": 104188360,
      "user": "seichter",
      "uid": 66497,
      "tags": {
        "name": "Thulo Palati",
        "place": "village"
      }
    },
    {
      "type": "node",
      "id": 8702166790,
      "lat": 27.8842956,
      "lon": 85.8807743,
      "timestamp": "2021-05-05T16:21:59Z",
      "version": 1,
      "changeset": 104196812,
      "user": "seichter",
      "uid": 66497,
      "tags": {
        "name": "Baldun",
        "place": "hamlet"
      }
    },
    {
      "type": "node",
      "id": 8702166791,
      "lat": 27.8326143,
      "lon": 85.8516503,
      "timestamp": "2021-05-05T16:21:59Z",
      "version": 1,
      "changeset": 104196812,
      "user": "seichter",
      "uid": 66497,
      "tags": {
        "name": "Dadagau",
        "place": "village"
      }
    },
    {
      "type": "node",
      "id": 8702166792,
      "lat": 27.8337603,
      "lon": 85.8337042,
      "timestamp": "2021-05-24T10:06:40Z",
      "version": 2,
      "changeset": 105215679,
      "user": "Anil Basnet",
      "uid": 3686666,
      "tags": {
        "name": "Deurali",
        "place": "hamlet"
      }
    },
    {
      "type": "node",
      "id": 8702166793,
      "lat": 27.8277169,
      "lon": 85.8311033,
      "timestamp": "2021-05-05T16:21:59Z",
      "version": 1,
      "changeset": 104196812,
      "user": "seichter",
      "uid": 66497,
      "tags": {
        "name": "Ghalamsa",
        "place": "hamlet"
      }
    },
    {
      "type": "node",
      "id": 8702166794,
      "lat": 27.8222019,
      "lon": 85.8630631,
      "timestamp": "2021-05-05T16:21:59Z",
      "version": 1,
      "changeset": 104196812,
      "user": "seichter",
      "uid": 66497,
      "tags": {
        "name": "Sanbari",
        "place": "hamlet"
      }
    },
    {
      "type": "node",
      "id": 8702166795,
      "lat": 27.8145497,
      "lon": 85.8637295,
      "timestamp": "2021-05-05T16:21:59Z",
      "version": 1,
      "changeset": 104196812,
      "user": "seichter",
      "uid": 66497,
      "tags": {
        "name": "Khipin",
        "place": "village"
      }
    },
    {
      "type": "node",
      "id": 8702166796,
      "lat": 27.8212619,
      "lon": 85.8532655,
      "timestamp": "2021-05-05T16:21:59Z",
      "version": 1,
      "changeset": 104196812,
      "user": "seichter",
      "uid": 66497,
      "tags": {
        "name": "Chapleti",
        "place": "hamlet"
      }
    },
    {
      "type": "node",
      "id": 8702166797,
      "lat": 27.802408,
      "lon": 85.8231212,
      "timestamp": "2021-05-05T16:21:59Z",
      "version": 1,
      "changeset": 104196812,
      "user": "seichter",
      "uid": 66497,
      "tags": {
        "name": "Okhreni",
        "place": "hamlet"
      }
    },
    {
      "type": "node",
      "id": 8702386478,
      "lat": 27.9045481,
      "lon": 85.8436795,
      "timestamp": "2021-05-05T17:40:51Z",
      "version": 1,
      "changeset": 104200398,
      "user": "seichter",
      "uid": 66497,
      "tags": {
        "name": "Ghipche",
        "place": "village"
      }
    },
    {
      "type": "node",
      "id": 8702386479,
      "lat": 27.8964298,
      "lon": 85.872772,
      "timestamp": "2021-05-05T17:40:51Z",
      "version": 1,
      "changeset": 104200398,
      "user": "seichter",
      "uid": 66497,
      "tags": {
        "name": "Paku",
        "place": "hamlet"
      }
    },
    {
      "type": "node",
      "id": 8702386480,
      "lat": 27.9038606,
      "lon": 85.8794138,
      "timestamp": "2021-05-05T17:40:51Z",
      "version": 1,
      "changeset": 104200398,
      "user": "seichter",
      "uid": 66497,
      "tags": {
        "name": "Gumba",
        "place": "hamlet"
      }
    },
    {
      "type": "node",
      "id": 8702386481,
      "lat": 27.8961138,
      "lon": 85.8916626,
      "timestamp": "2021-05-05T17:40:51Z",
      "version": 1,
      "changeset": 104200398,
      "user": "seichter",
      "uid": 66497,
      "tags": {
        "name": "Sildum",
        "place": "hamlet"
      }
    },
    {
      "type": "node",
      "id": 8702386482,
      "lat": 27.9177116,
      "lon": 85.8585261,
      "timestamp": "2022-04-25T07:24:00Z",
      "version": 2,
      "changeset": 120151778,
      "user": "Dass Kamatchi",
      "uid": 9162381,
      "tags": {
        "name": "Tartun",
        "place": "hamlet"
      }
    },
    {
      "type": "node",
      "id": 8702386483,
      "lat": 27.9283466,
      "lon": 85.8992694,
      "timestamp": "2021-05-05T17:40:51Z",
      "version": 1,
      "changeset": 104200398,
      "user": "seichter",
      "uid": 66497,
      "tags": {
        "name": "Tasithan",
        "place": "hamlet"
      }
    },
    {
      "type": "node",
      "id": 8702386484,
      "lat": 27.9330857,
      "lon": 85.9353374,
      "timestamp": "2021-05-05T17:40:51Z",
      "version": 1,
      "changeset": 104200398,
      "user": "seichter",
      "uid": 66497,
      "tags": {
        "name": "Larcha",
        "place": "hamlet"
      }
    },
    {
      "type": "node",
      "id": 8702386485,
      "lat": 27.9246814,
      "lon": 85.9320245,
      "timestamp": "2021-05-05T17:40:51Z",
      "version": 1,
      "changeset": 104200398,
      "user": "seichter",
      "uid": 66497,
      "tags": {
        "name": "Dhumithan",
        "place": "hamlet"
      }
    },
    {
      "type": "node",
      "id": 8702386486,
      "lat": 27.9202886,
      "lon": 85.9319253,
      "timestamp": "2021-05-05T17:40:51Z",
      "version": 1,
      "changeset": 104200398,
      "user": "seichter",
      "uid": 66497,
      "tags": {
        "name": "Khukundol",
        "place": "village"
      }
    },
    {
      "type": "node",
      "id": 8702386487,
      "lat": 27.9125061,
      "lon": 85.9255994,
      "timestamp": "2021-05-05T17:40:51Z",
      "version": 1,
      "changeset": 104200398,
      "user": "seichter",
      "uid": 66497,
      "tags": {
        "name": "Jhirpu",
        "place": "hamlet"
      }
    },
    {
      "type": "node",
      "id": 8702386488,
      "lat": 27.9113682,
      "lon": 85.9386266,
      "timestamp": "2021-05-05T17:40:51Z",
      "version": 1,
      "changeset": 104200398,
      "user": "seichter",
      "uid": 66497,
      "tags": {
        "name": "Phulpin",
        "place": "hamlet"
      }
    },
    {
      "type": "node",
      "id": 8702386489,
      "lat": 27.9007198,
      "lon": 85.9340732,
      "timestamp": "2021-05-05T17:55:57Z",
      "version": 2,
      "changeset": 104200975,
      "user": "seichter",
      "uid": 66497,
      "tags": {
        "name": "Silinkatti",
        "place": "village"
      }
    },
    {
      "type": "node",
      "id": 8702386490,
      "lat": 27.883064,
      "lon": 85.9109493,
      "timestamp": "2021-08-19T05:50:18Z",
      "version": 2,
      "changeset": 109909028,
      "user": "Sundar1",
      "uid": 9530130,
      "tags": {
        "name": "Chaku",
        "place": "village"
      }
    },
    {
      "type": "node",
      "id": 8702386491,
      "lat": 27.8903293,
      "lon": 85.9029501,
      "timestamp": "2021-05-05T17:40:51Z",
      "version": 1,
      "changeset": 104200398,
      "user": "seichter",
      "uid": 66497,
      "tags": {
        "name": "Kanlan",
        "place": "hamlet"
      }
    },
    {
      "type": "node",
      "id": 8702426454,
      "lat": 27.8656578,
      "lon": 85.9334201,
      "timestamp": "2021-05-05T17:55:57Z",
      "version": 1,
      "changeset": 104200975,
      "user": "seichter",
      "uid": 66497,
      "tags": {
        "name": "Pokhari",
        "place": "village"
      }
    },
    {
      "type": "node",
      "id": 8702426455,
      "lat": 27.8710925,
      "lon": 85.9223541,
      "timestamp": "2021-05-05T17:55:57Z",
      "version": 1,
      "changeset": 104200975,
      "user": "seichter",
      "uid": 66497,
      "tags": {
        "name": "Marmin",
        "place": "village"
      }
    },
    {
      "type": "node",
      "id": 8702426502,
      "lat": 27.9003919,
      "lon": 85.9221584,
      "timestamp": "2021-08-19T05:50:18Z",
      "version": 2,
      "changeset": 109909028,
      "user": "Sundar1",
      "uid": 9530130,
      "tags": {
        "name": "Panthali",
        "place": "hamlet"
      }
    },
    {
      "type": "node",
      "id": 8702426503,
      "lat": 27.8893795,
      "lon": 85.9296824,
      "timestamp": "2021-05-05T17:55:57Z",
      "version": 1,
      "changeset": 104200975,
      "user": "seichter",
      "uid": 66497,
      "tags": {
        "name": "Narayanthan",
        "place": "village"
      }
    },
    {
      "type": "node",
      "id": 8702426504,
      "lat": 27.9061001,
      "lon": 85.914184,
      "timestamp": "2021-08-19T05:50:18Z",
      "version": 2,
      "changeset": 109909028,
      "user": "Sundar1",
      "uid": 9530130,
      "tags": {
        "name": "Tusare",
        "place": "hamlet"
      }
    },
    {
      "type": "node",
      "id": 8703133593,
      "lat": 27.9258527,
      "lon": 85.9588764,
      "timestamp": "2021-05-05T21:38:52Z",
      "version": 1,
      "changeset": 104208875,
      "user": "seichter",
      "uid": 66497,
      "tags": {
        "name": "Namtan",
        "place": "hamlet"
      }
    },
    {
      "type": "node",
      "id": 8710473442,
      "lat": 27.7713071,
      "lon": 85.9548595,
      "timestamp": "2021-05-07T17:53:26Z",
      "version": 1,
      "changeset": 104334347,
      "user": "seichter",
      "uid": 66497,
      "tags": {
        "name": "Chokati",
        "place": "village"
      }
    },
    {
      "type": "node",
      "id": 8710473443,
      "lat": 27.7703248,
      "lon": 85.9808822,
      "timestamp": "2021-05-07T17:53:26Z",
      "version": 1,
      "changeset": 104334347,
      "user": "seichter",
      "uid": 66497,
      "tags": {
        "name": "Tungathali",
        "place": "village"
      }
    },
    {
      "type": "node",
      "id": 8710473444,
      "lat": 27.7838302,
      "lon": 85.9775227,
      "timestamp": "2021-05-07T17:53:26Z",
      "version": 1,
      "changeset": 104334347,
      "user": "seichter",
      "uid": 66497,
      "tags": {
        "name": "Ghorthali",
        "place": "village"
      }
    },
    {
      "type": "node",
      "id": 8710473445,
      "lat": 27.8120896,
      "lon": 85.9916822,
      "timestamp": "2021-05-16T20:28:51Z",
      "version": 2,
      "changeset": 104784373,
      "user": "seichter",
      "uid": 66497,
      "tags": {
        "name": "Dolansa",
        "place": "hamlet"
      }
    },
    {
      "type": "node",
      "id": 8710473446,
      "lat": 27.8048569,
      "lon": 86.0549868,
      "timestamp": "2021-05-07T17:53:26Z",
      "version": 1,
      "changeset": 104334347,
      "user": "seichter",
      "uid": 66497,
      "tags": {
        "name": "Bhumisthangau",
        "place": "hamlet"
      }
    },
    {
      "type": "node",
      "id": 8710473447,
      "lat": 27.7985567,
      "lon": 86.0536815,
      "timestamp": "2021-05-07T17:53:26Z",
      "version": 1,
      "changeset": 104334347,
      "user": "seichter",
      "uid": 66497,
      "tags": {
        "name": "Pelegau",
        "place": "hamlet"
      }
    },
    {
      "type": "node",
      "id": 8710473448,
      "lat": 27.7905164,
      "lon": 86.0656028,
      "timestamp": "2021-05-07T17:53:26Z",
      "version": 1,
      "changeset": 104334347,
      "user": "seichter",
      "uid": 66497,
      "tags": {
        "name": "Tarebhir",
        "place": "hamlet"
      }
    },
    {
      "type": "node",
      "id": 8710473449,
      "lat": 27.7928581,
      "lon": 86.0736127,
      "timestamp": "2021-05-07T17:53:26Z",
      "version": 1,
      "changeset": 104334347,
      "user": "seichter",
      "uid": 66497,
      "tags": {
        "name": "Dhusikharka",
        "place": "hamlet"
      }
    },
    {
      "type": "node",
      "id": 8710473450,
      "lat": 27.7984816,
      "lon": 86.0967715,
      "timestamp": "2021-05-07T17:53:26Z",
      "version": 1,
      "changeset": 104334347,
      "user": "seichter",
      "uid": 66497,
      "tags": {
        "name": "Bunmadada",
        "place": "hamlet"
      }
    },
    {
      "type": "node",
      "id": 8710473451,
      "lat": 27.7984489,
      "lon": 86.1222195,
      "timestamp": "2021-05-07T17:53:26Z",
      "version": 1,
      "changeset": 104334347,
      "user": "seichter",
      "uid": 66497,
      "tags": {
        "name": "Thapagau",
        "place": "hamlet"
      }
    },
    {
      "type": "node",
      "id": 8710473452,
      "lat": 27.7916758,
      "lon": 86.12197,
      "timestamp": "2021-05-07T17:53:26Z",
      "version": 1,
      "changeset": 104334347,
      "user": "seichter",
      "uid": 66497,
      "tags": {
        "name": "Laisep",
        "place": "hamlet"
      }
    },
    {
      "type": "node",
      "id": 8710473453,
      "lat": 27.7541736,
      "lon": 86.1366157,
      "timestamp": "2021-05-07T17:53:26Z",
      "version": 1,
      "changeset": 104334347,
      "user": "seichter",
      "uid": 66497,
      "tags": {
        "name": "Karmathali",
        "place": "hamlet"
      }
    },
    {
      "type": "node",
      "id": 8710473454,
      "lat": 27.7651015,
      "lon": 86.1133592,
      "timestamp": "2021-05-07T17:53:26Z",
      "version": 1,
      "changeset": 104334347,
      "user": "seichter",
      "uid": 66497,
      "tags": {
        "name": "Dadagau",
        "place": "hamlet"
      }
    },
    {
      "type": "node",
      "id": 8710473455,
      "lat": 27.7659534,
      "lon": 86.1292635,
      "timestamp": "2021-05-07T17:53:26Z",
      "version": 1,
      "changeset": 104334347,
      "user": "seichter",
      "uid": 66497,
      "tags": {
        "name": "Sinkhu",
        "place": "hamlet"
      }
    },
    {
      "type": "node",
      "id": 8710473456,
      "lat": 27.7764012,
      "lon": 86.1183787,
      "timestamp": "2021-05-07T17:53:26Z",
      "version": 1,
      "changeset": 104334347,
      "user": "seichter",
      "uid": 66497,
      "tags": {
        "name": "Babare",
        "place": "village"
      }
    },
    {
      "type": "node",
      "id": 8710473457,
      "lat": 27.7830613,
      "lon": 86.1147054,
      "timestamp": "2021-05-07T17:53:26Z",
      "version": 1,
      "changeset": 104334347,
      "user": "seichter",
      "uid": 66497,
      "tags": {
        "name": "Cogane",
        "place": "hamlet"
      }
    },
    {
      "type": "node",
      "id": 8710473458,
      "lat": 27.7915215,
      "lon": 86.105671,
      "timestamp": "2021-05-07T17:53:26Z",
      "version": 1,
      "changeset": 104334347,
      "user": "seichter",
      "uid": 66497,
      "tags": {
        "name": "Kutisyau",
        "place": "hamlet"
      }
    },
    {
      "type": "node",
      "id": 8710473459,
      "lat": 27.7872797,
      "lon": 86.1041781,
      "timestamp": "2021-05-07T17:53:26Z",
      "version": 1,
      "changeset": 104334347,
      "user": "seichter",
      "uid": 66497,
      "tags": {
        "name": "Phusre",
        "place": "hamlet"
      }
    },
    {
      "type": "node",
      "id": 8710473460,
      "lat": 27.7872263,
      "lon": 86.0962511,
      "timestamp": "2021-05-07T17:53:26Z",
      "version": 1,
      "changeset": 104334347,
      "user": "seichter",
      "uid": 66497,
      "tags": {
        "name": "Kyanpal",
        "place": "hamlet"
      }
    },
    {
      "type": "node",
      "id": 8710473698,
      "lat": 27.7843804,
      "lon": 86.0845342,
      "timestamp": "2021-05-07T17:53:27Z",
      "version": 1,
      "changeset": 104334347,
      "user": "seichter",
      "uid": 66497,
      "tags": {
        "name": "Lapse",
        "place": "hamlet"
      }
    },
    {
      "type": "node",
      "id": 8710473699,
      "lat": 27.7732973,
      "lon": 86.0713343,
      "timestamp": "2021-05-07T17:53:27Z",
      "version": 1,
      "changeset": 104334347,
      "user": "seichter",
      "uid": 66497,
      "tags": {
        "name": "Golmagau",
        "place": "hamlet"
      }
    },
    {
      "type": "node",
      "id": 8710473700,
      "lat": 27.785013,
      "lon": 86.069825,
      "timestamp": "2021-05-07T17:53:27Z",
      "version": 1,
      "changeset": 104334347,
      "user": "seichter",
      "uid": 66497,
      "tags": {
        "name": "Benpa",
        "place": "hamlet"
      }
    },
    {
      "type": "node",
      "id": 8710473701,
      "lat": 27.791819,
      "lon": 86.0841094,
      "timestamp": "2021-05-07T17:53:27Z",
      "version": 1,
      "changeset": 104334347,
      "user": "seichter",
      "uid": 66497,
      "tags": {
        "name": "Begumpa",
        "place": "hamlet"
      }
    },
    {
      "type": "node",
      "id": 8710473702,
      "lat": 27.7984223,
      "lon": 86.087127,
      "timestamp": "2021-05-07T17:53:27Z",
      "version": 1,
      "changeset": 104334347,
      "user": "seichter",
      "uid": 66497,
      "tags": {
        "name": "Thamichagu",
        "place": "hamlet"
      }
    },
    {
      "type": "node",
      "id": 8710473703,
      "lat": 27.7991202,
      "lon": 86.1294233,
      "timestamp": "2021-05-07T17:53:27Z",
      "version": 1,
      "changeset": 104334347,
      "user": "seichter",
      "uid": 66497,
      "tags": {
        "name": "Bharentol",
        "place": "hamlet"
      }
    },
    {
      "type": "node",
      "id": 8710473704,
      "lat": 27.8104065,
      "lon": 86.1208242,
      "timestamp": "2021-05-07T17:53:27Z",
      "version": 1,
      "changeset": 104334347,
      "user": "seichter",
      "uid": 66497,
      "tags": {
        "name": "Yarsa",
        "place": "hamlet"
      }
    },
    {
      "type": "node",
      "id": 8710473705,
      "lat": 27.8179665,
      "lon": 86.1276189,
      "timestamp": "2021-05-07T17:53:27Z",
      "version": 1,
      "changeset": 104334347,
      "user": "seichter",
      "uid": 66497,
      "tags": {
        "name": "Pheldar",
        "place": "hamlet"
      }
    },
    {
      "type": "node",
      "id": 8710473706,
      "lat": 27.8063278,
      "lon": 86.1221232,
      "timestamp": "2021-05-07T17:53:27Z",
      "version": 1,
      "changeset": 104334347,
      "user": "seichter",
      "uid": 66497,
      "tags": {
        "alt_name": "Chilinkha",
        "name": "Chilankha",
        "place": "village",
        "wikidata": "Q3415734",
        "wikipedia": "en:Chilankha"
      }
    },
    {
      "type": "node",
      "id": 8710473769,
      "lat": 27.847744,
      "lon": 86.0766183,
      "timestamp": "2021-05-07T17:53:27Z",
      "version": 1,
      "changeset": 104334347,
      "user": "seichter",
      "uid": 66497,
      "tags": {
        "name": "Koyan",
        "place": "hamlet"
      }
    },
    {
      "type": "node",
      "id": 8710473770,
      "lat": 27.829165,
      "lon": 86.0582084,
      "timestamp": "2021-05-07T17:53:27Z",
      "version": 1,
      "changeset": 104334347,
      "user": "seichter",
      "uid": 66497,
      "tags": {
        "name": "Ajok",
        "place": "hamlet"
      }
    },
    {
      "type": "node",
      "id": 8710473771,
      "lat": 27.8403321,
      "lon": 86.0700187,
      "timestamp": "2021-05-07T17:53:27Z",
      "version": 1,
      "changeset": 104334347,
      "user": "seichter",
      "uid": 66497,
      "tags": {
        "name": "Gyalwasin",
        "place": "hamlet"
      }
    },
    {
      "type": "node",
      "id": 8710473772,
      "lat": 27.8372386,
      "lon": 86.0782556,
      "timestamp": "2021-05-07T17:53:27Z",
      "version": 1,
      "changeset": 104334347,
      "user": "seichter",
      "uid": 66497,
      "tags": {
        "name": "Bigu",
        "place": "village"
      }
    },
    {
      "type": "node",
      "id": 8710473773,
      "lat": 27.8411846,
      "lon": 86.0880423,
      "timestamp": "2021-05-07T17:53:27Z",
      "version": 1,
      "changeset": 104334347,
      "user": "seichter",
      "uid": 66497,
      "tags": {
        "name": "Nangara",
        "place": "hamlet"
      }
    },
    {
      "type": "node",
      "id": 8710473774,
      "lat": 27.8396645,
      "lon": 86.0963066,
      "timestamp": "2021-05-07T17:53:27Z",
      "version": 1,
      "changeset": 104334347,
      "user": "seichter",
      "uid": 66497,
      "tags": {
        "name": "Nagara",
        "place": "hamlet"
      }
    },
    {
      "type": "node",
      "id": 8710473775,
      "lat": 27.8431296,
      "lon": 86.0969721,
      "timestamp": "2021-05-07T17:53:27Z",
      "version": 1,
      "changeset": 104334347,
      "user": "seichter",
      "uid": 66497,
      "tags": {
        "name": "Dawithan",
        "place": "hamlet"
      }
    },
    {
      "type": "node",
      "id": 8710473776,
      "lat": 27.8445011,
      "lon": 86.113847,
      "timestamp": "2021-05-07T17:53:27Z",
      "version": 1,
      "changeset": 104334347,
      "user": "seichter",
      "uid": 66497,
      "tags": {
        "name": "Syakhu",
        "place": "hamlet"
      }
    },
    {
      "type": "node",
      "id": 8710473777,
      "lat": 27.8381924,
      "lon": 86.1045591,
      "timestamp": "2021-05-07T17:53:27Z",
      "version": 1,
      "changeset": 104334347,
      "user": "seichter",
      "uid": 66497,
      "tags": {
        "name": "Gosesa",
        "place": "hamlet"
      }
    },
    {
      "type": "node",
      "id": 8710473778,
      "lat": 27.8372408,
      "lon": 86.0974963,
      "timestamp": "2021-05-07T17:53:27Z",
      "version": 1,
      "changeset": 104334347,
      "user": "seichter",
      "uid": 66497,
      "tags": {
        "name": "Alampu",
        "place": "village"
      }
    },
    {
      "type": "node",
      "id": 8710473779,
      "lat": 27.8247361,
      "lon": 86.0944165,
      "timestamp": "2021-05-07T17:53:27Z",
      "version": 1,
      "changeset": 104334347,
      "user": "seichter",
      "uid": 66497,
      "tags": {
        "name": "Sanwa",
        "place": "hamlet"
      }
    },
    {
      "type": "node",
      "id": 8710473780,
      "lat": 27.8181937,
      "lon": 86.0894062,
      "timestamp": "2021-05-07T17:53:27Z",
      "version": 1,
      "changeset": 104334347,
      "user": "seichter",
      "uid": 66497,
      "tags": {
        "name": "Chagu",
        "place": "hamlet"
      }
    },
    {
      "type": "node",
      "id": 8710473781,
      "lat": 27.8284574,
      "lon": 86.0871699,
      "timestamp": "2021-05-07T17:53:27Z",
      "version": 1,
      "changeset": 104334347,
      "user": "seichter",
      "uid": 66497,
      "tags": {
        "name": "Amatol",
        "place": "hamlet"
      }
    },
    {
      "type": "node",
      "id": 8710473782,
      "lat": 27.8249488,
      "lon": 86.0802753,
      "timestamp": "2021-05-07T17:53:27Z",
      "version": 1,
      "changeset": 104334347,
      "user": "seichter",
      "uid": 66497,
      "tags": {
        "name": "Dadaghar",
        "place": "hamlet"
      }
    },
    {
      "type": "node",
      "id": 8719489228,
      "lat": 27.7399688,
      "lon": 85.8439059,
      "timestamp": "2021-05-10T19:04:34Z",
      "version": 1,
      "changeset": 104470620,
      "user": "seichter",
      "uid": 66497,
      "tags": {
        "name": "Lapse",
        "place": "hamlet"
      }
    },
    {
      "type": "node",
      "id": 8719489229,
      "lat": 27.7329835,
      "lon": 85.8229355,
      "timestamp": "2021-05-10T19:04:34Z",
      "version": 1,
      "changeset": 104470620,
      "user": "seichter",
      "uid": 66497,
      "tags": {
        "name": "Kuele",
        "place": "hamlet"
      }
    },
    {
      "type": "node",
      "id": 8722794213,
      "lat": 27.7681274,
      "lon": 85.8448327,
      "timestamp": "2021-05-11T19:32:47Z",
      "version": 1,
      "changeset": 104532184,
      "user": "seichter",
      "uid": 66497,
      "tags": {
        "name": "Chimlin",
        "place": "hamlet"
      }
    },
    {
      "type": "node",
      "id": 8722794214,
      "lat": 27.7668598,
      "lon": 85.855501,
      "timestamp": "2021-05-11T19:32:47Z",
      "version": 1,
      "changeset": 104532184,
      "user": "seichter",
      "uid": 66497,
      "tags": {
        "name": "Bhate",
        "place": "hamlet"
      }
    },
    {
      "type": "node",
      "id": 8722794215,
      "lat": 27.760568,
      "lon": 85.8319628,
      "timestamp": "2021-05-11T19:32:47Z",
      "version": 1,
      "changeset": 104532184,
      "user": "seichter",
      "uid": 66497,
      "tags": {
        "name": "Chimlinbesi",
        "place": "hamlet"
      }
    },
    {
      "type": "node",
      "id": 8722847879,
      "lat": 27.7811953,
      "lon": 85.8814546,
      "timestamp": "2021-05-11T19:52:13Z",
      "version": 1,
      "changeset": 104532980,
      "user": "seichter",
      "uid": 66497,
      "tags": {
        "name": "Ramche",
        "place": "village"
      }
    },
    {
      "type": "node",
      "id": 8725224584,
      "lat": 27.7763114,
      "lon": 85.8658886,
      "timestamp": "2021-05-12T13:35:22Z",
      "version": 1,
      "changeset": 104577759,
      "user": "seichter",
      "uid": 66497,
      "tags": {
        "name": "Bhirkhana",
        "place": "hamlet"
      }
    },
    {
      "type": "node",
      "id": 8725224585,
      "lat": 27.7721177,
      "lon": 85.8393714,
      "timestamp": "2021-05-12T13:35:22Z",
      "version": 1,
      "changeset": 104577759,
      "user": "seichter",
      "uid": 66497,
      "tags": {
        "name": "Upallo Chimlin",
        "place": "hamlet"
      }
    },
    {
      "type": "node",
      "id": 8725224586,
      "lat": 27.7732396,
      "lon": 85.8035482,
      "timestamp": "2021-05-12T13:35:22Z",
      "version": 1,
      "changeset": 104577759,
      "user": "seichter",
      "uid": 66497,
      "tags": {
        "name": "Karangaira",
        "place": "hamlet"
      }
    },
    {
      "type": "node",
      "id": 8725224588,
      "lat": 27.8000606,
      "lon": 85.7977837,
      "timestamp": "2021-05-12T13:35:22Z",
      "version": 1,
      "changeset": 104577759,
      "user": "seichter",
      "uid": 66497,
      "tags": {
        "name": "Dhuskot Banche",
        "place": "village"
      }
    },
    {
      "type": "node",
      "id": 8729329068,
      "lat": 27.7965623,
      "lon": 85.9158616,
      "timestamp": "2021-05-13T20:29:05Z",
      "version": 1,
      "changeset": 104658029,
      "user": "seichter",
      "uid": 66497,
      "tags": {
        "name": "Okhreni",
        "place": "village"
      }
    },
    {
      "type": "node",
      "id": 8729329069,
      "lat": 27.7909985,
      "lon": 85.9130074,
      "timestamp": "2021-05-13T20:29:05Z",
      "version": 1,
      "changeset": 104658029,
      "user": "seichter",
      "uid": 66497,
      "tags": {
        "name": "Sano Palati",
        "place": "village"
      }
    },
    {
      "type": "node",
      "id": 8729329070,
      "lat": 27.803316,
      "lon": 85.8847919,
      "timestamp": "2021-05-13T20:29:05Z",
      "version": 1,
      "changeset": 104658029,
      "user": "seichter",
      "uid": 66497,
      "tags": {
        "name": "Ghuman",
        "place": "hamlet"
      }
    },
    {
      "type": "node",
      "id": 8729329071,
      "lat": 27.7915669,
      "lon": 85.8902757,
      "timestamp": "2021-05-13T20:29:05Z",
      "version": 1,
      "changeset": 104658029,
      "user": "seichter",
      "uid": 66497,
      "tags": {
        "name": "Puranagau",
        "place": "hamlet"
      }
    },
    {
      "type": "node",
      "id": 8729395671,
      "lat": 27.8018928,
      "lon": 85.9182465,
      "timestamp": "2021-05-13T20:29:05Z",
      "version": 1,
      "changeset": 104658029,
      "user": "seichter",
      "uid": 66497,
      "tags": {
        "name": "Kyayun",
        "place": "village"
      }
    },
    {
      "type": "node",
      "id": 8729453717,
      "lat": 27.7863892,
      "lon": 85.8938632,
      "timestamp": "2021-05-13T20:54:36Z",
      "version": 1,
      "changeset": 104658862,
      "user": "seichter",
      "uid": 66497,
      "tags": {
        "name": "Titekhani",
        "place": "hamlet"
      }
    },
    {
      "type": "node",
      "id": 8729453718,
      "lat": 27.78739,
      "lon": 85.8980598,
      "timestamp": "2021-05-13T20:54:36Z",
      "version": 1,
      "changeset": 104658862,
      "user": "seichter",
      "uid": 66497,
      "tags": {
        "name": "Ratmate",
        "place": "village"
      }
    },
    {
      "type": "node",
      "id": 8736013686,
      "lat": 27.7791843,
      "lon": 85.9539116,
      "timestamp": "2021-05-16T11:34:49Z",
      "version": 1,
      "changeset": 104764767,
      "user": "seichter",
      "uid": 66497,
      "tags": {
        "name": "Bhumethan",
        "place": "hamlet"
      }
    },
    {
      "type": "node",
      "id": 8736013687,
      "lat": 27.7882733,
      "lon": 85.9635949,
      "timestamp": "2021-05-16T11:34:49Z",
      "version": 1,
      "changeset": 104764767,
      "user": "seichter",
      "uid": 66497,
      "tags": {
        "name": "Kabhre",
        "place": "hamlet"
      }
    },
    {
      "type": "node",
      "id": 8736013688,
      "lat": 27.7956309,
      "lon": 85.966684,
      "timestamp": "2021-05-16T11:34:49Z",
      "version": 1,
      "changeset": 104764767,
      "user": "seichter",
      "uid": 66497,
      "tags": {
        "name": "Timure",
        "place": "hamlet"
      }
    },
    {
      "type": "node",
      "id": 8736013689,
      "lat": 27.796043,
      "lon": 85.9771384,
      "timestamp": "2021-05-16T11:34:49Z",
      "version": 1,
      "changeset": 104764767,
      "user": "seichter",
      "uid": 66497,
      "tags": {
        "name": "Ripar",
        "place": "hamlet"
      }
    },
    {
      "type": "node",
      "id": 8736013690,
      "lat": 27.7855561,
      "lon": 85.9583897,
      "timestamp": "2021-05-16T11:34:49Z",
      "version": 1,
      "changeset": 104764767,
      "user": "seichter",
      "uid": 66497,
      "tags": {
        "name": "Baseri",
        "place": "hamlet"
      }
    },
    {
      "type": "node",
      "id": 8736013691,
      "lat": 27.8009472,
      "lon": 85.9474848,
      "timestamp": "2021-05-16T11:34:49Z",
      "version": 1,
      "changeset": 104764767,
      "user": "seichter",
      "uid": 66497,
      "tags": {
        "name": "Pokhare",
        "place": "village"
      }
    },
    {
      "type": "node",
      "id": 8758375125,
      "lat": 27.7950276,
      "lon": 85.9884118,
      "timestamp": "2021-05-23T17:26:33Z",
      "version": 1,
      "changeset": 105178072,
      "user": "seichter",
      "uid": 66497,
      "tags": {
        "name": "Chyanarsa",
        "place": "hamlet"
      }
    },
    {
      "type": "node",
      "id": 8760433411,
      "lat": 27.8922129,
      "lon": 85.8420272,
      "timestamp": "2021-08-19T05:50:18Z",
      "version": 2,
      "changeset": 109909028,
      "user": "Sundar1",
      "uid": 9530130,
      "tags": {
        "name": "जम्खोर",
        "name:en": "Jamkhor",
        "name:ne": "जम्खोर",
        "place": "hamlet"
      }
    },
    {
      "type": "node",
      "id": 8766281628,
      "lat": 27.8232642,
      "lon": 86.2102982,
      "timestamp": "2021-05-25T22:06:59Z",
      "version": 1,
      "changeset": 105317171,
      "user": "seichter",
      "uid": 66497,
      "tags": {
        "name": "Keore",
        "place": "hamlet"
      }
    },
    {
      "type": "node",
      "id": 8766281629,
      "lat": 27.8296473,
      "lon": 86.2145246,
      "timestamp": "2021-05-25T22:06:59Z",
      "version": 1,
      "changeset": 105317171,
      "user": "seichter",
      "uid": 66497,
      "tags": {
        "name": "Thadi",
        "place": "hamlet"
      }
    },
    {
      "type": "node",
      "id": 8770470184,
      "lat": 27.7959746,
      "lon": 86.1899072,
      "timestamp": "2021-05-26T22:58:58Z",
      "version": 1,
      "changeset": 105382758,
      "user": "seichter",
      "uid": 66497,
      "tags": {
        "name": "Yarsa",
        "place": "hamlet"
      }
    },
    {
      "type": "node",
      "id": 9211398843,
      "lat": 27.9256061,
      "lon": 86.1123955,
      "timestamp": "2021-10-30T03:03:11Z",
      "version": 1,
      "changeset": 113146683,
      "user": "NMYR",
      "uid": 13063448,
      "tags": {
        "ele": "4848",
        "mountain_pass": "yes",
        "name": "Phuma Bhanjyang",
        "natural": "saddle"
      }
    },
    {
      "type": "node",
      "id": 9211398906,
      "lat": 27.913774,
      "lon": 86.4490555,
      "timestamp": "2021-10-30T03:03:11Z",
      "version": 1,
      "changeset": 113146683,
      "user": "NMYR",
      "uid": 13063448,
      "tags": {
        "ele": "6145",
        "mountain_pass": "yes",
        "name": "Thangna Bhanjyang",
        "natural": "saddle"
      }
    },
    {
      "type": "node",
      "id": 9312125877,
      "lat": 27.7102407,
      "lon": 85.9409058,
      "timestamp": "2021-12-05T10:13:50Z",
      "version": 1,
      "changeset": 114576489,
      "user": "Anil Basnet",
      "uid": 3686666,
      "tags": {
        "name": "खरिढुङ्गा",
        "name:ne": "खरिढुङ्गा",
        "place": "village"
      }
    },
    {
      "type": "node",
      "id": 9556093417,
      "lat": 27.7474021,
      "lon": 86.0316827,
      "timestamp": "2022-03-05T14:13:12Z",
      "version": 1,
      "changeset": 118127784,
      "user": "srvbhattarai",
      "uid": 5084910,
      "tags": {
        "name": "Yangzom All In One Shop",
        "phone": "9864110546",
        "shop": "convenience"
      }
    },
    {
      "type": "node",
      "id": 9691453501,
      "lat": 27.91903,
      "lon": 85.8705767,
      "timestamp": "2022-04-25T07:25:32Z",
      "version": 2,
      "changeset": 120151847,
      "user": "Dass Kamatchi",
      "uid": 9162381,
      "tags": {
        "name": "Bagaam",
        "name:ne": "बग़ाम",
        "place": "village"
      }
    },
    {
      "type": "way",
      "id": 306788922,
      "timestamp": "2019-09-03T17:06:52Z",
      "version": 4,
      "changeset": 74051421,
      "user": "HubMiner",
      "uid": 238419,
      "center": {
        "lat": 27.7364548,
        "lon": 86.1637232
      },
      "nodes": [],
      "tags": {
        "name": "Tso-Rolpa Suppliers",
        "opening_hours": "09:00-19:00",
        "shop": "convenience"
      }
    },
    {
      "type": "way",
      "id": 312256876,
      "timestamp": "2014-11-11T15:11:49Z",
      "version": 1,
      "changeset": 26713543,
      "user": "Abhishek Dhungel",
      "uid": 1988930,
      "center": {
        "lat": 27.7368977,
        "lon": 86.1651733
      },
      "nodes": [],
      "tags": {
        "name": "Giri Ko Pasal",
        "shop": "convenience"
      }
    },
    {
      "type": "way",
      "id": 312264979,
      "timestamp": "2019-09-03T17:06:52Z",
      "version": 2,
      "changeset": 74051421,
      "user": "HubMiner",
      "uid": 238419,
      "center": {
        "lat": 27.7387645,
        "lon": 86.1634714
      },
      "nodes": [],
      "tags": {
        "name": "R R Ji Trade And Suppliers",
        "opening_hours": "08:00-17:00",
        "shop": "convenience"
      }
    },
    {
      "type": "way",
      "id": 340703916,
      "timestamp": "2021-06-02T03:54:48Z",
      "version": 6,
      "changeset": 105706442,
      "user": "SandipYadav1317",
      "uid": 12094182,
      "center": {
        "lat": 27.8987028,
        "lon": 85.837679
      },
      "nodes": [],
      "tags": {
        "name": "Bimbu",
        "place": "village"
      }
    },
    {
      "type": "way",
      "id": 340706389,
      "timestamp": "2021-06-23T17:53:01Z",
      "version": 9,
      "changeset": 106853498,
      "user": "SandipYadav1317",
      "uid": 12094182,
      "center": {
        "lat": 27.9190719,
        "lon": 85.8708663
      },
      "nodes": [],
      "tags": {
        "landuse": "residential",
        "name": "बगाम ( Bagam )",
        "place": "village"
      }
    },
    {
      "type": "way",
      "id": 340707437,
      "timestamp": "2021-06-20T09:18:19Z",
      "version": 5,
      "changeset": 106658118,
      "user": "Ananda7",
      "uid": 12094080,
      "center": {
        "lat": 27.9037902,
        "lon": 85.8585227
      },
      "nodes": [],
      "tags": {
        "name": "Sebung",
        "place": "village"
      }
    },
    {
      "type": "way",
      "id": 342132652,
      "timestamp": "2021-06-23T17:53:01Z",
      "version": 6,
      "changeset": 106853498,
      "user": "SandipYadav1317",
      "uid": 12094182,
      "center": {
        "lat": 27.9239094,
        "lon": 85.8646098
      },
      "nodes": [],
      "tags": {
        "landuse": "residential",
        "name": "छगम ( Chhagam )",
        "place": "village"
      }
    },
    {
      "type": "way",
      "id": 344532082,
      "timestamp": "2015-05-17T18:36:20Z",
      "version": 2,
      "changeset": 31235928,
      "user": "Tomas Daskovas",
      "uid": 2906213,
      "center": {
        "lat": 28.0915275,
        "lon": 86.1666616
      },
      "nodes": [],
      "tags": {
        "amenity": "shelter"
      }
    },
    {
      "type": "way",
      "id": 344532084,
      "timestamp": "2015-05-17T18:36:20Z",
      "version": 2,
      "changeset": 31235928,
      "user": "Tomas Daskovas",
      "uid": 2906213,
      "center": {
        "lat": 28.0902113,
        "lon": 86.1667882
      },
      "nodes": [],
      "tags": {
        "amenity": "shelter"
      }
    },
    {
      "type": "way",
      "id": 345787838,
      "timestamp": "2015-05-17T21:51:11Z",
      "version": 1,
      "changeset": 31240720,
      "user": "Tomas Daskovas",
      "uid": 2906213,
      "center": {
        "lat": 28.0569335,
        "lon": 86.1639624
      },
      "nodes": [],
      "tags": {
        "amenity": "shelter",
        "name": "Shelters"
      }
    },
    {
      "type": "way",
      "id": 345787840,
      "timestamp": "2015-05-17T21:51:11Z",
      "version": 1,
      "changeset": 31240720,
      "user": "Tomas Daskovas",
      "uid": 2906213,
      "center": {
        "lat": 28.0695554,
        "lon": 86.1629612
      },
      "nodes": [],
      "tags": {
        "amenity": "shelter",
        "name": "Shelters"
      }
    },
    {
      "type": "way",
      "id": 345788950,
      "timestamp": "2015-05-17T22:02:12Z",
      "version": 1,
      "changeset": 31240891,
      "user": "Tomas Daskovas",
      "uid": 2906213,
      "center": {
        "lat": 28.1091934,
        "lon": 86.1700092
      },
      "nodes": [],
      "tags": {
        "amenity": "shelter"
      }
    },
    {
      "type": "way",
      "id": 345791002,
      "timestamp": "2015-05-17T22:14:06Z",
      "version": 1,
      "changeset": 31241062,
      "user": "Tomas Daskovas",
      "uid": 2906213,
      "center": {
        "lat": 28.1172806,
        "lon": 86.1701862
      },
      "nodes": [],
      "tags": {
        "amenity": "shelter"
      }
    },
    {
      "type": "way",
      "id": 345791003,
      "timestamp": "2015-05-17T22:14:06Z",
      "version": 1,
      "changeset": 31241062,
      "user": "Tomas Daskovas",
      "uid": 2906213,
      "center": {
        "lat": 28.1414769,
        "lon": 86.1466859
      },
      "nodes": [],
      "tags": {
        "amenity": "shelter"
      }
    },
    {
      "type": "way",
      "id": 345791004,
      "timestamp": "2015-05-17T22:14:06Z",
      "version": 1,
      "changeset": 31241062,
      "user": "Tomas Daskovas",
      "uid": 2906213,
      "center": {
        "lat": 28.1461995,
        "lon": 86.1435882
      },
      "nodes": [],
      "tags": {
        "amenity": "shelter"
      }
    },
    {
      "type": "way",
      "id": 345910989,
      "timestamp": "2015-05-18T09:44:45Z",
      "version": 1,
      "changeset": 31249803,
      "user": "Tomas Daskovas",
      "uid": 2906213,
      "center": {
        "lat": 27.9567356,
        "lon": 86.2179223
      },
      "nodes": [],
      "tags": {
        "amenity": "shelter"
      }
    },
    {
      "type": "way",
      "id": 346213681,
      "timestamp": "2015-07-12T19:40:37Z",
      "version": 2,
      "changeset": 32587808,
      "user": "PotjePindakaas",
      "uid": 469975,
      "center": {
        "lat": 27.8300296,
        "lon": 85.892004
      },
      "nodes": [],
      "tags": {
        "brownfield:source_20150503": "DigitalGlobe",
        "damage:event": "nepal_earthquake_2015",
        "name": "Sotang",
        "place": "hamlet"
      }
    },
    {
      "type": "way",
      "id": 539859850,
      "timestamp": "2017-11-11T15:40:49Z",
      "version": 1,
      "changeset": 53693504,
      "user": "Yeti-17",
      "uid": 6969191,
      "center": {
        "lat": 27.8564302,
        "lon": 86.4318305
      },
      "nodes": [],
      "tags": {
        "amenity": "shelter",
        "building": "yes",
        "shelter_type": "basic_hut"
      }
    },
    {
      "type": "way",
      "id": 539870135,
      "timestamp": "2017-11-12T12:26:50Z",
      "version": 2,
      "changeset": 53711376,
      "user": "Yeti-17",
      "uid": 6969191,
      "center": {
        "lat": 27.8591831,
        "lon": 86.4724576
      },
      "nodes": [],
      "tags": {
        "building": "yes",
        "name": "Chukima Tea Shop",
        "tourism": "alpine_hut"
      }
    },
    {
      "type": "way",
      "id": 910300139,
      "timestamp": "2021-02-24T03:34:59Z",
      "version": 1,
      "changeset": 99865018,
      "user": "Dass Kamatchi",
      "uid": 9162381,
      "center": {
        "lat": 27.8785515,
        "lon": 85.8602025
      },
      "nodes": [],
      "tags": {
        "name": "Purkandada",
        "place": "village"
      }
    }
  ]
}