{
  "osm3s": {
    "timestamp_osm_date": "2021-08-06T23:59:59Z",
    "timestamp_osm_base": "2021-08-07T04:16:42Z",
    "copyright": "The data included in this document is from www.openstreetmap.org. The data is made available under ODbL."
  },
  "elements": [
    {
      "type": "node",
      "id": 14761317,
      "lat": 45.3884116,
      "lon": 2.922397,
      "timestamp": "2020-04-21T11:30:48Z",
      "version": 9,
      "changeset": 83877714,
      "user": "oc-OpenStreetMap",
      "uid": 4224320,
      "tags": {
        "addr:postcode": "63850",
        "name": "La Godivelle",
        "name:oc": "La Gaudivela",
        "place": "village",
        "source:name:oc": "ieo-bdtopoc"
      }
    },
    {
      "type": "node",
      "id": 17793529,
      "lat": 45.4199713,
      "lon": 2.8953464,
      "timestamp": "2015-01-18T09:13:30Z",
      "version": 4,
      "changeset": 28225635,
      "user": "geow",
      "uid": 223093,
      "tags": {
        "ele": "1155",
        "mountain_pass": "yes",
        "name": "Col de la Chaumoune",
        "natural": "saddle"
      }
    },
    {
      "type": "node",
      "id": 17805591,
      "lat": 45.3929719,
      "lon": 3.0442536,
      "timestamp": "2020-04-16T19:21:22Z",
      "version": 11,
      "changeset": 83664582,
      "user": "oc-OpenStreetMap",
      "uid": 4224320,
      "tags": {
        "addr:postcode": "63420",
        "name": "Mazoires",
        "name:oc": "Masoira",
        "place": "village",
        "ref:FR:SIREN": "216302208",
        "source:name:oc": "ieo-bdtopoc"
      }
    },
    {
      "type": "node",
      "id": 17808932,
      "lat": 45.3409885,
      "lon": 3.1008146,
      "timestamp": "2013-04-16T10:26:08Z",
      "version": 4,
      "changeset": 15747770,
      "user": "cquest",
      "uid": 158826,
      "tags": {
        "name": "Marzun",
        "place": "hamlet"
      }
    },
    {
      "type": "node",
      "id": 17809033,
      "lat": 45.3665395,
      "lon": 2.9960853,
      "timestamp": "2018-08-11T17:04:14Z",
      "version": 3,
      "changeset": 61570084,
      "user": "Zigeuner",
      "uid": 1256648,
      "tags": {
        "ele": "1317",
        "mountain_pass": "yes",
        "name": "Col de Vestizoux",
        "natural": "saddle",
        "source": "Observations personnelles"
      }
    },
    {
      "type": "node",
      "id": 17857941,
      "lat": 45.5639529,
      "lon": 2.8369646,
      "timestamp": "2017-09-25T00:07:28Z",
      "version": 7,
      "changeset": 52341577,
      "user": "nyuriks",
      "uid": 339581,
      "tags": {
        "ele": "1451",
        "mountain_pass": "yes",
        "name": "Col de la Croix Saint-Robert",
        "natural": "saddle",
        "wikidata": "Q2982164",
        "wikipedia": "fr:Col de la Croix Saint-Robert"
      }
    },
    {
      "type": "node",
      "id": 26691903,
      "lat": 45.5432973,
      "lon": 3.2502213,
      "timestamp": "2020-11-13T00:03:48Z",
      "version": 15,
      "changeset": 94023789,
      "user": "Olyon",
      "uid": 1443767,
      "tags": {
        "capital": "7",
        "fixme": "wrong limits",
        "name": "Issoire",
        "name:oc": "Le Soire",
        "place": "town",
        "population": "14822",
        "ref:FR:SIREN": "216301788",
        "source:name:oc": "ieo-bdtopoc"
      }
    },
    {
      "type": "node",
      "id": 26695332,
      "lat": 45.4030439,
      "lon": 3.3179282,
      "timestamp": "2020-04-19T11:35:56Z",
      "version": 12,
      "changeset": 83769597,
      "user": "oc-OpenStreetMap",
      "uid": 4224320,
      "tags": {
        "addr:postcode": "43250",
        "name": "Sainte-Florine",
        "name:oc": "Santa Florina",
        "place": "village",
        "population": "3066",
        "population:date": "2015-01-01",
        "ref:FR:SIREN": "214301855",
        "source:name:oc": "ieo-bdtopoc",
        "source:population": "INSEE"
      }
    },
    {
      "type": "node",
      "id": 26696550,
      "lat": 45.1132117,
      "lon": 2.868014,
      "timestamp": "2020-04-16T19:21:25Z",
      "version": 17,
      "changeset": 83664582,
      "user": "oc-OpenStreetMap",
      "uid": 4224320,
      "tags": {
        "addr:postcode": "15300",
        "name": "Murat",
        "name:oc": "Murat",
        "name:uk": "Мюра",
        "place": "village",
        "population": "1983",
        "ref:FR:SIREN": "211501382",
        "source:name:oc": "ieo-bdtopoc",
        "source:population": "INSEE 2013",
        "wikidata": "Q28681217",
        "wikipedia": "fr:Murat (Cantal)"
      }
    },
    {
      "type": "node",
      "id": 26697247,
      "lat": 45.293897,
      "lon": 3.3853711,
      "timestamp": "2020-11-13T00:03:48Z",
      "version": 19,
      "changeset": 94023789,
      "user": "Olyon",
      "uid": 1443767,
      "tags": {
        "addr:postcode": "43100",
        "capital": "7",
        "name": "Brioude",
        "name:oc": "Briude",
        "place": "town",
        "population": "6718",
        "ref:FR:SIREN": "214300402",
        "source:name:oc": "ieo-bdtopoc",
        "source:population": "INSEE 2016",
        "website": "http://www.brioude.fr",
        "wikidata": "Q203303",
        "wikipedia": "fr:Brioude"
      }
    },
    {
      "type": "node",
      "id": 26697270,
      "lat": 45.4508732,
      "lon": 3.3281712,
      "timestamp": "2019-11-25T16:59:18Z",
      "version": 13,
      "changeset": 77535526,
      "user": "StephaneP",
      "uid": 439947,
      "tags": {
        "addr:postcode": "63570",
        "alt_name": "Auzat-la-Combelle",
        "name": "Auzat-sur-Allier",
        "place": "village",
        "population": "2060",
        "ref:FR:SIREN": "216300228",
        "source:population": "INSEE 2013"
      }
    },
    {
      "type": "node",
      "id": 26697544,
      "lat": 45.4130887,
      "lon": 3.3294831,
      "timestamp": "2020-04-20T15:29:50Z",
      "version": 13,
      "changeset": 83830088,
      "user": "oc-OpenStreetMap",
      "uid": 4224320,
      "tags": {
        "addr:postcode": "63570",
        "name": "Brassac-les-Mines",
        "name:oc": "Braçac",
        "place": "village",
        "ref:FR:SIREN": "216300509",
        "source:name:oc": "ieo-bdtopoc"
      }
    },
    {
      "type": "node",
      "id": 26697643,
      "lat": 45.1001248,
      "lon": 3.4941798,
      "timestamp": "2020-04-21T11:30:52Z",
      "version": 11,
      "changeset": 83877714,
      "user": "oc-OpenStreetMap",
      "uid": 4224320,
      "tags": {
        "addr:postcode": "43300",
        "name": "Langeac",
        "name:oc": "Lanjac",
        "place": "village",
        "population": "3754",
        "population:date": "2015-01-01",
        "ref:FR:SIREN": "214301129",
        "source:name:oc": "ieo-bdtopoc",
        "source:population": "INSEE"
      }
    },
    {
      "type": "node",
      "id": 26858598,
      "lat": 45.509167,
      "lon": 3.284722,
      "timestamp": "2007-03-28T17:12:20Z",
      "version": 1,
      "changeset": 247310,
      "user": "Sven S_",
      "uid": 2566,
      "tags": {
        "created_by": "JOSM",
        "name": "Grange Fort",
        "tourism": "camp_site"
      }
    },
    {
      "type": "node",
      "id": 26859000,
      "lat": 45.571667,
      "lon": 2.930556,
      "timestamp": "2017-01-04T11:07:00Z",
      "version": 2,
      "changeset": 44895567,
      "user": "Hervé TUC",
      "uid": 922338,
      "tags": {
        "fee": "yes",
        "name": "Plage III",
        "tourism": "camp_site"
      }
    },
    {
      "type": "node",
      "id": 26864391,
      "lat": 45.5282398,
      "lon": 2.8140028,
      "timestamp": "2020-01-02T20:15:11Z",
      "version": 10,
      "changeset": 79129293,
      "user": "oc-OpenStreetMap",
      "uid": 4224320,
      "tags": {
        "ele": "1885",
        "name": "Puy de Sancy",
        "name:lt": "Piui de Sansi",
        "name:oc": "Puei de la Crotz",
        "natural": "volcano",
        "prominence": "1578",
        "source:name:oc": "ieo-bdtopoc",
        "wikidata": "Q778597",
        "wikipedia": "en:Puy de Sancy"
      }
    },
    {
      "type": "node",
      "id": 27273284,
      "lat": 45.4419729,
      "lon": 2.927524,
      "timestamp": "2020-04-20T18:58:47Z",
      "version": 11,
      "changeset": 83838518,
      "user": "oc-OpenStreetMap",
      "uid": 4224320,
      "tags": {
        "addr:postcode": "63610",
        "name": "Compains",
        "name:oc": "Compens",
        "place": "village",
        "source": "gns",
        "source:name:oc": "ieo-bdtopoc"
      }
    },
    {
      "type": "node",
      "id": 27273285,
      "lat": 45.3905142,
      "lon": 2.9935292,
      "timestamp": "2020-04-19T11:36:01Z",
      "version": 9,
      "changeset": 83769597,
      "user": "oc-OpenStreetMap",
      "uid": 4224320,
      "tags": {
        "addr:postcode": "63420",
        "name": "Saint-Alyre-ès-Montagne",
        "name:oc": "Sent Alire de la Montanha",
        "place": "village",
        "source": "gns",
        "source:name:oc": "ieo-bdtopoc"
      }
    },
    {
      "type": "node",
      "id": 27273286,
      "lat": 45.3887558,
      "lon": 3.1451084,
      "timestamp": "2020-04-20T15:29:52Z",
      "version": 9,
      "changeset": 83830088,
      "user": "oc-OpenStreetMap",
      "uid": 4224320,
      "tags": {
        "addr:postcode": "63420",
        "name": "Apchat",
        "name:oc": "Apchat",
        "place": "village",
        "source": "gns",
        "source:name:oc": "ieo-bdtopoc"
      }
    },
    {
      "type": "node",
      "id": 27273287,
      "lat": 45.3348123,
      "lon": 3.2668536,
      "timestamp": "2020-04-16T19:21:27Z",
      "version": 12,
      "changeset": 83664582,
      "user": "oc-OpenStreetMap",
      "uid": 4224320,
      "tags": {
        "addr:postcode": "43360",
        "name": "Lorlanges",
        "name:oc": "Lorlanja",
        "place": "village",
        "population": "364",
        "population:date": "2015-01-01",
        "source": "gns",
        "source:name:oc": "ieo-bdtopoc",
        "source:population": "INSEE"
      }
    },
    {
      "type": "node",
      "id": 27273288,
      "lat": 45.2442299,
      "lon": 3.1903536,
      "timestamp": "2017-04-01T13:52:01Z",
      "version": 5,
      "changeset": 47355990,
      "user": "Cyprien A",
      "uid": 5577229,
      "tags": {
        "name": "Bousselorgues",
        "place": "hamlet",
        "source": "gns"
      }
    },
    {
      "type": "node",
      "id": 27273289,
      "lat": 45.2513583,
      "lon": 3.1990713,
      "timestamp": "2020-04-16T19:21:27Z",
      "version": 17,
      "changeset": 83664582,
      "user": "oc-OpenStreetMap",
      "uid": 4224320,
      "tags": {
        "addr:postcode": "15500",
        "name": "Massiac",
        "name:oc": "Maciac",
        "place": "village",
        "population": "1829",
        "ref:FR:SIREN": "211501192",
        "source": "gns",
        "source:name:oc": "ieo-bdtopoc",
        "source:population": "INSEE 2013"
      }
    },
    {
      "type": "node",
      "id": 27273290,
      "lat": 45.3437012,
      "lon": 3.1765317,
      "timestamp": "2016-08-11T08:32:59Z",
      "version": 2,
      "changeset": 41383720,
      "user": "office de tourisme pays issoire",
      "uid": 4123043,
      "tags": {
        "name": "Bousselargues",
        "place": "hamlet"
      }
    },
    {
      "type": "node",
      "id": 27273356,
      "lat": 45.3304973,
      "lon": 3.0400629,
      "timestamp": "2020-04-20T15:29:52Z",
      "version": 9,
      "changeset": 83830088,
      "user": "oc-OpenStreetMap",
      "uid": 4224320,
      "tags": {
        "addr:postcode": "63420",
        "name": "Anzat-le-Luguet",
        "name:oc": "Antiac dau Luguet",
        "place": "village",
        "source:name:oc": "ieo-bdtopoc"
      }
    },
    {
      "type": "node",
      "id": 27273357,
      "lat": 45.3629126,
      "lon": 2.9724506,
      "timestamp": "2014-03-02T11:17:18Z",
      "version": 6,
      "changeset": 20862239,
      "user": "Jean Doose",
      "uid": 1794050,
      "tags": {
        "name": "Boutaresse",
        "place": "hamlet",
        "source": "gns"
      }
    },
    {
      "type": "node",
      "id": 27273358,
      "lat": 45.380851,
      "lon": 2.9691775,
      "timestamp": "2015-09-17T21:32:03Z",
      "version": 3,
      "changeset": 34092822,
      "user": "Rinaldum",
      "uid": 203790,
      "tags": {
        "name": "Jassy",
        "place": "hamlet",
        "source": "gns"
      }
    },
    {
      "type": "node",
      "id": 27273359,
      "lat": 45.4149544,
      "lon": 2.9613543,
      "timestamp": "2007-04-10T17:05:55Z",
      "version": 1,
      "changeset": 11246,
      "user": "Gabriel Ebner",
      "uid": 1359,
      "tags": {
        "created_by": "JOSM",
        "name": "Brion",
        "place": "hamlet",
        "source": "gns"
      }
    },
    {
      "type": "node",
      "id": 27273430,
      "lat": 45.4078704,
      "lon": 2.8270798,
      "timestamp": "2020-04-21T11:30:53Z",
      "version": 14,
      "changeset": 83877714,
      "user": "oc-OpenStreetMap",
      "uid": 4224320,
      "tags": {
        "addr:postcode": "63850",
        "name": "Égliseneuve-d'Entraigues",
        "name:oc": "Gleianèva d'Entraigas",
        "place": "village",
        "ref:FR:SIREN": "216301440",
        "source:name:oc": "ieo-bdtopoc"
      }
    },
    {
      "type": "node",
      "id": 27273431,
      "lat": 45.2088486,
      "lon": 2.8994253,
      "timestamp": "2013-04-16T10:21:10Z",
      "version": 5,
      "changeset": 15747770,
      "user": "cquest",
      "uid": 158826,
      "tags": {
        "name": "Cézerat",
        "place": "hamlet",
        "source": "cadastre-dgi-fr source : Direction Générale des Impôts - Cadastre. Mise à jour : 2012"
      }
    },
    {
      "type": "node",
      "id": 27273432,
      "lat": 45.1461294,
      "lon": 2.9722772,
      "timestamp": "2021-08-04T13:16:27Z",
      "version": 6,
      "changeset": 109147473,
      "user": "Truchin",
      "uid": 138059,
      "tags": {
        "name": "Moissac",
        "place": "village",
        "source": "cadastre-dgi-fr source : Direction Générale des Impôts - Cadastre. Mise à jour : 2013",
        "wikidata": "Q28040612"
      }
    },
    {
      "type": "node",
      "id": 27273433,
      "lat": 45.1561119,
      "lon": 2.9325724,
      "timestamp": "2020-03-18T18:41:07Z",
      "version": 14,
      "changeset": 82359925,
      "user": "Farot",
      "uid": 10617233,
      "tags": {
        "addr:postcode": "15170",
        "name": "Chalinargues",
        "name:oc": "Chinargues",
        "name:uk": "Шалінарг",
        "place": "village",
        "population": "430",
        "source": "cadastre-dgi-fr source : Direction Générale des Impôts - Cadastre. Mise à jour : 2011",
        "source:name:oc": "ieo-bdtopoc",
        "source:population": "INSEE 2013",
        "wikidata": "Q804882",
        "wikipedia": "fr:Chalinargues"
      }
    },
    {
      "type": "node",
      "id": 27273437,
      "lat": 45.5738254,
      "lon": 2.9426341,
      "timestamp": "2020-04-16T19:21:29Z",
      "version": 14,
      "changeset": 83664582,
      "user": "oc-OpenStreetMap",
      "uid": 4224320,
      "tags": {
        "addr:postcode": "63790",
        "name": "Murol",
        "name:oc": "Muròl",
        "place": "village",
        "ref:FR:SIREN": "216302471",
        "source": "gns",
        "source:name:oc": "ieo-bdtopoc"
      }
    },
    {
      "type": "node",
      "id": 27273634,
      "lat": 45.2768839,
      "lon": 3.0505563,
      "timestamp": "2013-04-16T10:25:39Z",
      "version": 5,
      "changeset": 15747770,
      "user": "cquest",
      "uid": 158826,
      "tags": {
        "name": "Lusargues",
        "place": "hamlet",
        "source": "cadastre-dgi-fr source : Direction Générale des Impôts - Cadastre. Mise à jour : 2012"
      }
    },
    {
      "type": "node",
      "id": 31933683,
      "lat": 45.2301228,
      "lon": 3.4733339,
      "timestamp": "2020-04-21T11:30:54Z",
      "version": 15,
      "changeset": 83877714,
      "user": "oc-OpenStreetMap",
      "uid": 4224320,
      "tags": {
        "addr:postcode": "43230",
        "name": "La Chomette",
        "name:oc": "La Chaumeta",
        "place": "village",
        "population": "154",
        "source:name:oc": "ieo-bdtopoc",
        "source:population": "INSEE 2016",
        "wikidata": "Q1065825",
        "wikipedia": "fr:La Chomette (Haute-Loire)"
      }
    },
    {
      "type": "node",
      "id": 291948923,
      "lat": 45.450724,
      "lon": 3.4736094,
      "timestamp": "2020-04-19T11:36:05Z",
      "version": 10,
      "changeset": 83769597,
      "user": "oc-OpenStreetMap",
      "uid": 4224320,
      "tags": {
        "addr:postcode": "63580",
        "name": "Sainte-Catherine",
        "name:oc": "Senta Catarina",
        "place": "village",
        "source:name:oc": "ieo-bdtopoc"
      }
    },
    {
      "type": "node",
      "id": 370853731,
      "lat": 45.4306409,
      "lon": 3.3397125,
      "timestamp": "2020-02-08T01:27:20Z",
      "version": 19,
      "changeset": 80713306,
      "user": "vincent_95",
      "uid": 49047,
      "tags": {
        "addr:postcode": "63570",
        "name": "Jumeaux",
        "place": "village",
        "ref:FR:SIREN": "216301820"
      }
    },
    {
      "type": "node",
      "id": 372660178,
      "lat": 45.4447292,
      "lon": 3.2854414,
      "timestamp": "2020-04-20T15:29:58Z",
      "version": 11,
      "changeset": 83830088,
      "user": "oc-OpenStreetMap",
      "uid": 4224320,
      "tags": {
        "addr:postcode": "63570",
        "name": "Beaulieu",
        "name:oc": "Bèuluòc",
        "place": "village",
        "source:name:oc": "ieo-bdtopoc"
      }
    },
    {
      "type": "node",
      "id": 372660193,
      "lat": 45.41666,
      "lon": 3.28333,
      "timestamp": "2020-04-20T18:58:59Z",
      "version": 9,
      "changeset": 83838518,
      "user": "oc-OpenStreetMap",
      "uid": 4224320,
      "tags": {
        "addr:postcode": "63340",
        "name": "Charbonnier-les-Mines",
        "name:oc": "Charbonèir",
        "place": "village",
        "source:name:oc": "ieo-bdtopoc"
      }
    },
    {
      "type": "node",
      "id": 372669037,
      "lat": 45.4280014,
      "lon": 3.3024658,
      "timestamp": "2013-04-16T10:18:03Z",
      "version": 6,
      "changeset": 15747770,
      "user": "cquest",
      "uid": 158826,
      "tags": {
        "name": "Bayard",
        "place": "hamlet"
      }
    },
    {
      "type": "node",
      "id": 372679328,
      "lat": 45.4504974,
      "lon": 3.3077356,
      "timestamp": "2015-02-14T11:20:11Z",
      "version": 11,
      "changeset": 28839045,
      "user": "lapinos03",
      "uid": 33634,
      "tags": {
        "addr:postcode": "63570",
        "name": "Saut du Loup",
        "place": "hamlet"
      }
    },
    {
      "type": "node",
      "id": 373098319,
      "lat": 45.4416964,
      "lon": 3.3030208,
      "timestamp": "2013-03-10T07:53:33Z",
      "version": 4,
      "changeset": 15310977,
      "user": "la colle",
      "uid": 530603,
      "tags": {
        "name": "La Combelle",
        "place": "hamlet"
      }
    },
    {
      "type": "node",
      "id": 375502995,
      "lat": 45.4743272,
      "lon": 3.3332332,
      "timestamp": "2020-04-21T11:31:03Z",
      "version": 9,
      "changeset": 83877714,
      "user": "oc-OpenStreetMap",
      "uid": 4224320,
      "tags": {
        "addr:postcode": "63570",
        "name": "Lamontgie",
        "name:oc": "La Mongiá",
        "place": "village",
        "source:name:oc": "ieo-bdtopoc"
      }
    },
    {
      "type": "node",
      "id": 375503811,
      "lat": 45.4802252,
      "lon": 3.3388981,
      "timestamp": "2013-04-16T10:21:50Z",
      "version": 5,
      "changeset": 15747770,
      "user": "cquest",
      "uid": 158826,
      "tags": {
        "name": "Feroussat",
        "place": "hamlet"
      }
    },
    {
      "type": "node",
      "id": 384972888,
      "lat": 45.4657797,
      "lon": 3.3420736,
      "timestamp": "2020-11-15T00:58:10Z",
      "version": 3,
      "changeset": 94126785,
      "user": "ËdzëronK",
      "uid": 211154,
      "tags": {
        "name": "Aubiat",
        "place": "hamlet"
      }
    },
    {
      "type": "node",
      "id": 421879110,
      "lat": 45.2894272,
      "lon": 3.4806524,
      "timestamp": "2019-11-25T17:00:53Z",
      "version": 9,
      "changeset": 77535736,
      "user": "StephaneP",
      "uid": 439947,
      "tags": {
        "addr:postcode": "43100",
        "name": "Javaugues",
        "place": "village",
        "population": "195",
        "source:population": "INSEE 2016",
        "wikidata": "Q1111771",
        "wikipedia": "fr:Javaugues"
      }
    },
    {
      "type": "node",
      "id": 421880040,
      "lat": 45.2623234,
      "lon": 3.4531751,
      "timestamp": "2020-04-21T11:31:11Z",
      "version": 9,
      "changeset": 83877714,
      "user": "oc-OpenStreetMap",
      "uid": 4224320,
      "tags": {
        "addr:postcode": "43100",
        "name": "Lavaudieu",
        "name:oc": "La Vaudieu",
        "place": "village",
        "population": "231",
        "population:date": "2015-01-01",
        "source:name:oc": "ieo-bdtopoc",
        "source:population": "INSEE"
      }
    },
    {
      "type": "node",
      "id": 421881491,
      "lat": 45.2623208,
      "lon": 3.4053692,
      "timestamp": "2020-04-19T18:04:19Z",
      "version": 10,
      "changeset": 83781067,
      "user": "oc-OpenStreetMap",
      "uid": 4224320,
      "tags": {
        "addr:postcode": "43100",
        "name": "Vieille-Brioude",
        "name:oc": "Vièlha Briude",
        "place": "village",
        "population": "1214",
        "population:date": "2015-01-01",
        "source:name:oc": "ieo-bdtopoc",
        "source:population": "INSEE"
      }
    },
    {
      "type": "node",
      "id": 424272250,
      "lat": 45.3153477,
      "lon": 3.4273123,
      "timestamp": "2020-04-21T11:31:12Z",
      "version": 11,
      "changeset": 83877714,
      "user": "oc-OpenStreetMap",
      "uid": 4224320,
      "tags": {
        "addr:postcode": "43100",
        "name": "Lamothe",
        "name:oc": "La Mòta",
        "place": "village",
        "population": "900",
        "population:date": "2019-01-01",
        "source:name:oc": "ieo-bdtopoc",
        "source:population": "INSEE",
        "wikidata": "Q275829",
        "wikipedia": "fr:Lamothe (Haute-Loire)"
      }
    },
    {
      "type": "node",
      "id": 424274342,
      "lat": 45.2895092,
      "lon": 3.4219908,
      "timestamp": "2019-11-25T17:00:53Z",
      "version": 9,
      "changeset": 77535736,
      "user": "StephaneP",
      "uid": 439947,
      "tags": {
        "addr:postcode": "43100",
        "name": "Fontannes",
        "place": "village",
        "population": "962",
        "source:population": "INSEE 2016",
        "website": "https://www.fontannes.fr",
        "wikidata": "Q1065766",
        "wikipedia": "fr:Fontannes"
      }
    },
    {
      "type": "node",
      "id": 435147076,
      "lat": 45.5537288,
      "lon": 3.5107866,
      "timestamp": "2020-01-03T18:35:35Z",
      "version": 3,
      "changeset": 79168965,
      "user": "McD2",
      "uid": 10615775,
      "tags": {
        "name": "Cher",
        "place": "hamlet"
      }
    },
    {
      "type": "node",
      "id": 435230917,
      "lat": 45.5502359,
      "lon": 3.4993455,
      "timestamp": "2020-04-20T18:59:02Z",
      "version": 11,
      "changeset": 83838518,
      "user": "oc-OpenStreetMap",
      "uid": 4224320,
      "tags": {
        "addr:postcode": "63490",
        "name": "Condat-lès-Montboissier",
        "name:oc": "Condat de Montboissèir",
        "place": "village",
        "source:name:oc": "ieo-bdtopoc"
      }
    },
    {
      "type": "node",
      "id": 435248211,
      "lat": 45.5616005,
      "lon": 3.5021644,
      "timestamp": "2013-12-14T12:05:48Z",
      "version": 2,
      "changeset": 19447315,
      "user": "RedFox",
      "uid": 10610,
      "tags": {
        "name": "Les Epines",
        "place": "hamlet"
      }
    },
    {
      "type": "node",
      "id": 443076903,
      "lat": 45.1476011,
      "lon": 3.4024621,
      "timestamp": "2020-04-21T11:31:15Z",
      "version": 12,
      "changeset": 83877714,
      "user": "oc-OpenStreetMap",
      "uid": 4224320,
      "tags": {
        "addr:postcode": "43380",
        "name": "Lavoûte-Chilhac",
        "name:oc": "La Vòuta (de Chilhac)",
        "place": "village",
        "population": "281",
        "population:date": "2015-01-01",
        "ref:FR:SIREN": "214301186",
        "source:name:oc": "ieo-bdtopoc",
        "source:population": "INSEE"
      }
    },
    {
      "type": "node",
      "id": 443208069,
      "lat": 45.2069628,
      "lon": 3.5155517,
      "timestamp": "2020-04-18T14:57:03Z",
      "version": 12,
      "changeset": 83745846,
      "user": "oc-OpenStreetMap",
      "uid": 4224320,
      "tags": {
        "addr:postcode": "43230",
        "name": "Paulhaguet",
        "name:oc": "Paulhaguet",
        "place": "village",
        "population": "887",
        "population:date": "2015-01-01",
        "ref:FR:SIREN": "214301483",
        "source:name:oc": "ieo-bdtopoc",
        "source:population": "INSEE"
      }
    },
    {
      "type": "node",
      "id": 449053907,
      "lat": 45.5365879,
      "lon": 2.8286827,
      "timestamp": "2018-08-20T14:24:12Z",
      "version": 3,
      "changeset": 61825453,
      "user": "Aroche",
      "uid": 50179,
      "tags": {
        "ele": "1785",
        "name": "Puy de Cacadogne",
        "natural": "peak",
        "wikidata": "Q31676127"
      }
    },
    {
      "type": "node",
      "id": 449053911,
      "lat": 45.5247967,
      "lon": 2.826486,
      "timestamp": "2019-12-14T07:26:26Z",
      "version": 5,
      "changeset": 78401202,
      "user": "kdkeller",
      "uid": 43207,
      "tags": {
        "ele": "1854",
        "name": "Puy Ferrand",
        "natural": "peak",
        "tourism": "viewpoint",
        "wikidata": "Q3411074"
      }
    },
    {
      "type": "node",
      "id": 563292724,
      "lat": 45.5114582,
      "lon": 2.8561577,
      "timestamp": "2019-08-01T13:12:53Z",
      "version": 11,
      "changeset": 72898389,
      "user": "rabeyroux",
      "uid": 805590,
      "tags": {
        "name": "Super Besse",
        "place": "village",
        "source": "cadastre-dgi-fr source : Direction Générale des Impôts - Cadastre. Mise à jour : 2009"
      }
    },
    {
      "type": "node",
      "id": 563310024,
      "lat": 45.496754,
      "lon": 2.8195991,
      "timestamp": "2015-01-18T09:13:32Z",
      "version": 4,
      "changeset": 28225635,
      "user": "geow",
      "uid": 223093,
      "tags": {
        "ele": "1372",
        "mountain_pass": "yes",
        "name": "Col de la Geneste",
        "natural": "saddle"
      }
    },
    {
      "type": "node",
      "id": 603362643,
      "lat": 45.5300807,
      "lon": 2.975395,
      "timestamp": "2020-04-19T11:36:14Z",
      "version": 11,
      "changeset": 83769597,
      "user": "oc-OpenStreetMap",
      "uid": 4224320,
      "tags": {
        "addr:postcode": "63610",
        "alt_name": "Saint-Pierre-Colamine",
        "name": "Lomprat",
        "name:oc": "Longprat",
        "place": "village",
        "source": "cadastre-dgi-fr source : Direction Générale des Impôts - Cadastre ; mise à jour : 2009",
        "source:name:oc": "ieo-bdtopoc"
      }
    },
    {
      "type": "node",
      "id": 603362714,
      "lat": 45.5393644,
      "lon": 2.9737457,
      "timestamp": "2010-01-03T00:32:35Z",
      "version": 1,
      "changeset": 3524481,
      "user": "ddn2",
      "uid": 186835,
      "tags": {
        "name": "Le Mont",
        "place": "hamlet"
      }
    },
    {
      "type": "node",
      "id": 603362738,
      "lat": 45.5439984,
      "lon": 2.9778456,
      "timestamp": "2010-01-03T00:32:36Z",
      "version": 1,
      "changeset": 3524481,
      "user": "ddn2",
      "uid": 186835,
      "tags": {
        "name": "La Borie",
        "place": "hamlet",
        "source": "cadastre-dgi-fr source : Direction Générale des Impôts - Cadastre ; mise à jour : 2009"
      }
    },
    {
      "type": "node",
      "id": 603362769,
      "lat": 45.5388619,
      "lon": 2.9921199,
      "timestamp": "2013-04-20T08:54:14Z",
      "version": 2,
      "changeset": 15794520,
      "user": "PhQ_Import_Cadastre",
      "uid": 1084855,
      "tags": {
        "name": "Jonas",
        "place": "hamlet",
        "source": "cadastre-dgi-fr source : Direction Générale des Impôts - Cadastre ; mise à jour : 2009"
      }
    },
    {
      "type": "node",
      "id": 603393330,
      "lat": 45.5290647,
      "lon": 2.9697564,
      "timestamp": "2021-07-29T16:09:32Z",
      "version": 2,
      "changeset": 108836101,
      "user": "r2d",
      "uid": 2210139,
      "tags": {
        "name": "Chastre",
        "place": "hamlet",
        "source": "cadastre-dgi-fr source : Direction Générale des Impôts - Cadastre ; mise à jour : 2009"
      }
    },
    {
      "type": "node",
      "id": 603437134,
      "lat": 45.5219147,
      "lon": 2.9658681,
      "timestamp": "2013-04-20T08:54:15Z",
      "version": 2,
      "changeset": 15794520,
      "user": "PhQ_Import_Cadastre",
      "uid": 1084855,
      "tags": {
        "name": "Ourcière",
        "place": "hamlet"
      }
    },
    {
      "type": "node",
      "id": 603903549,
      "lat": 45.5632036,
      "lon": 3.1053497,
      "timestamp": "2020-04-20T18:59:08Z",
      "version": 9,
      "changeset": 83838518,
      "user": "oc-OpenStreetMap",
      "uid": 4224320,
      "tags": {
        "addr:postcode": "63320",
        "name": "Clémensat",
        "name:oc": "Clemensac",
        "place": "village",
        "source:name:oc": "ieo-bdtopoc"
      }
    },
    {
      "type": "node",
      "id": 603903552,
      "lat": 45.5515749,
      "lon": 3.1048674,
      "timestamp": "2020-04-19T11:36:15Z",
      "version": 12,
      "changeset": 83769597,
      "user": "oc-OpenStreetMap",
      "uid": 4224320,
      "tags": {
        "addr:postcode": "63320",
        "name": "Saint-Floret",
        "name:oc": "Sent Floret",
        "place": "village",
        "source:name:oc": "ieo-bdtopoc"
      }
    },
    {
      "type": "node",
      "id": 613996456,
      "lat": 45.5208676,
      "lon": 2.9393296,
      "timestamp": "2010-01-15T01:59:20Z",
      "version": 1,
      "changeset": 3621651,
      "user": "ddn2",
      "uid": 186835,
      "tags": {
        "name": "Serre-Bas",
        "place": "hamlet",
        "source": "cadastre-dgi-fr source : Direction Générale des Impôts - Cadastre ; mise à jour : 2009"
      }
    },
    {
      "type": "node",
      "id": 614495375,
      "lat": 45.5265587,
      "lon": 2.9384133,
      "timestamp": "2017-04-23T05:44:50Z",
      "version": 2,
      "changeset": 48050883,
      "user": "NicolasDumoulin",
      "uid": 143932,
      "tags": {
        "name": "Serre-Haut",
        "place": "hamlet",
        "source": "cadastre-dgi-fr source : Direction Générale des Impôts - Cadastre ; mise à jour : 2009"
      }
    },
    {
      "type": "node",
      "id": 614495413,
      "lat": 45.5169473,
      "lon": 2.9511176,
      "timestamp": "2010-01-16T01:52:37Z",
      "version": 1,
      "changeset": 3628879,
      "user": "ddn2",
      "uid": 186835,
      "tags": {
        "name": "Thiaulaire",
        "place": "hamlet",
        "source": "cadastre-dgi-fr source : Direction Générale des Impôts - Cadastre ; mise à jour : 2009"
      }
    },
    {
      "type": "node",
      "id": 614495538,
      "lat": 45.5329795,
      "lon": 2.9567595,
      "timestamp": "2021-07-29T16:09:32Z",
      "version": 2,
      "changeset": 108836101,
      "user": "r2d",
      "uid": 2210139,
      "tags": {
        "name": "Montredon",
        "place": "hamlet",
        "source": "cadastre-dgi-fr source : Direction Générale des Impôts - Cadastre ; mise à jour : 2009"
      }
    },
    {
      "type": "node",
      "id": 616051547,
      "lat": 45.5193832,
      "lon": 2.9854051,
      "timestamp": "2010-01-18T00:51:50Z",
      "version": 1,
      "changeset": 3647303,
      "user": "ddn2",
      "uid": 186835,
      "tags": {
        "name": "Trossagne",
        "place": "hamlet",
        "source": "cadastre-dgi-fr source : Direction Générale des Impôts - Cadastre ; mise à jour : 2009"
      }
    },
    {
      "type": "node",
      "id": 616051548,
      "lat": 45.5239088,
      "lon": 2.9805445,
      "timestamp": "2010-01-18T00:51:50Z",
      "version": 1,
      "changeset": 3647303,
      "user": "ddn2",
      "uid": 186835,
      "tags": {
        "name": "Chevalière",
        "place": "hamlet",
        "source": "cadastre-dgi-fr source : Direction Générale des Impôts - Cadastre. Mise à jour : 2010"
      }
    },
    {
      "type": "node",
      "id": 616059782,
      "lat": 45.5309938,
      "lon": 2.9822302,
      "timestamp": "2021-07-28T20:53:30Z",
      "version": 5,
      "changeset": 108779854,
      "user": "r2d",
      "uid": 2210139,
      "tags": {
        "ele": "880",
        "mountain_pass": "yes",
        "name": "Col de la Feuille",
        "natural": "saddle"
      }
    },
    {
      "type": "node",
      "id": 616542759,
      "lat": 45.5490018,
      "lon": 2.977817,
      "timestamp": "2010-01-19T02:16:33Z",
      "version": 1,
      "changeset": 3655775,
      "user": "ddn2",
      "uid": 186835,
      "tags": {
        "name": "Roussat",
        "place": "hamlet",
        "source": "cadastre-dgi-fr source : Direction Générale des Impôts - Cadastre ; mise à jour : 2009"
      }
    },
    {
      "type": "node",
      "id": 616938329,
      "lat": 45.5440884,
      "lon": 3.0004151,
      "timestamp": "2020-11-15T11:42:40Z",
      "version": 7,
      "changeset": 94141850,
      "user": "ËdzëronK",
      "uid": 211154,
      "tags": {
        "name": "Le Cheix",
        "place": "village",
        "source": "cadastre-dgi-fr source : Direction Générale des Impôts - Cadastre ; mise à jour : 2009"
      }
    },
    {
      "type": "node",
      "id": 617441597,
      "lat": 45.558908,
      "lon": 3.0125821,
      "timestamp": "2010-01-21T02:07:40Z",
      "version": 1,
      "changeset": 3671947,
      "user": "ddn2",
      "uid": 186835,
      "tags": {
        "name": "Conche",
        "place": "hamlet",
        "source": "cadastre-dgi-fr source : Direction Générale des Impôts - Cadastre. Mise à jour : 2010"
      }
    },
    {
      "type": "node",
      "id": 618499784,
      "lat": 45.5420381,
      "lon": 3.0257045,
      "timestamp": "2010-01-23T01:42:31Z",
      "version": 1,
      "changeset": 3688726,
      "user": "ddn2",
      "uid": 186835,
      "tags": {
        "name": "La Bataille",
        "place": "hamlet",
        "source": "cadastre-dgi-fr source : Direction Générale des Impôts - Cadastre ; mise à jour : 2009"
      }
    },
    {
      "type": "node",
      "id": 618499836,
      "lat": 45.5498011,
      "lon": 3.0235681,
      "timestamp": "2013-12-13T11:34:23Z",
      "version": 6,
      "changeset": 19430993,
      "user": "RedFox",
      "uid": 10610,
      "tags": {
        "name": "Saint-Diéry Bas",
        "place": "hamlet",
        "source": "cadastre-dgi-fr source : Direction Générale des Impôts - Cadastre ; mise à jour : 2009"
      }
    },
    {
      "type": "node",
      "id": 618512582,
      "lat": 45.5451518,
      "lon": 3.0203765,
      "timestamp": "2020-04-19T11:36:15Z",
      "version": 12,
      "changeset": 83769597,
      "user": "oc-OpenStreetMap",
      "uid": 4224320,
      "tags": {
        "addr:postcode": "63320",
        "name": "Saint-Diéry",
        "name:oc": "Sent Desidri",
        "place": "village",
        "source": "cadastre-dgi-fr source : Direction Générale des Impôts - Cadastre. Mise à jour : 2010",
        "source:name:oc": "ieo-bdtopoc",
        "wikidata": "Q1095189",
        "wikipedia": "fr:Saint-Diéry"
      }
    },
    {
      "type": "node",
      "id": 619036650,
      "lat": 45.5365147,
      "lon": 3.0083024,
      "timestamp": "2013-12-13T11:34:23Z",
      "version": 8,
      "changeset": 19430993,
      "user": "RedFox",
      "uid": 10610,
      "tags": {
        "name": "Cotteuges",
        "place": "hamlet",
        "source": "cadastre-dgi-fr source : Direction Générale des Impôts - Cadastre ; mise à jour : 2009"
      }
    },
    {
      "type": "node",
      "id": 619036793,
      "lat": 45.5337409,
      "lon": 3.0186879,
      "timestamp": "2012-08-20T12:46:45Z",
      "version": 2,
      "changeset": 12795622,
      "user": "rabeyroux",
      "uid": 805590,
      "tags": {
        "name": "Lyns",
        "place": "hamlet",
        "source": "cadastre-dgi-fr source : Direction Générale des Impôts - Cadastre ; mise à jour : 2009"
      }
    },
    {
      "type": "node",
      "id": 619036846,
      "lat": 45.5320903,
      "lon": 3.0244812,
      "timestamp": "2010-01-24T03:02:17Z",
      "version": 1,
      "changeset": 3697673,
      "user": "ddn2",
      "uid": 186835,
      "tags": {
        "name": "Moulin Neuf",
        "place": "hamlet",
        "source": "cadastre-dgi-fr source : Direction Générale des Impôts - Cadastre. Mise à jour : 2010"
      }
    },
    {
      "type": "node",
      "id": 619550894,
      "lat": 45.5303332,
      "lon": 2.9941385,
      "timestamp": "2021-07-29T07:41:31Z",
      "version": 2,
      "changeset": 108802963,
      "user": "r2d",
      "uid": 2210139,
      "tags": {
        "name": "Verneuge",
        "place": "hamlet",
        "source": "cadastre-dgi-fr source : Direction Générale des Impôts - Cadastre. Mise à jour : 2010"
      }
    },
    {
      "type": "node",
      "id": 619575132,
      "lat": 45.5231809,
      "lon": 3.0193217,
      "timestamp": "2010-01-25T02:24:24Z",
      "version": 1,
      "changeset": 3707958,
      "user": "ddn2",
      "uid": 186835,
      "tags": {
        "name": "Bessolle",
        "place": "hamlet",
        "source": "cadastre-dgi-fr source : Direction Générale des Impôts - Cadastre ; mise à jour : 2009"
      }
    },
    {
      "type": "node",
      "id": 621147098,
      "lat": 45.3672762,
      "lon": 3.3049523,
      "timestamp": "2017-04-22T13:41:11Z",
      "version": 5,
      "changeset": 48033503,
      "user": "frodrigo",
      "uid": 25762,
      "tags": {
        "name": "Arvant",
        "place": "hamlet",
        "source": "cadastre-dgi-fr source : Direction Générale des Impôts - Cadastre ; mise à jour : 2010"
      }
    },
    {
      "type": "node",
      "id": 621539025,
      "lat": 45.50329,
      "lon": 2.9859954,
      "timestamp": "2010-01-28T02:29:58Z",
      "version": 1,
      "changeset": 3732968,
      "user": "ddn2",
      "uid": 186835,
      "tags": {
        "name": "Chananeille",
        "place": "hamlet",
        "source": "cadastre-dgi-fr source : Direction Générale des Impôts - Cadastre ; mise à jour : 2009"
      }
    },
    {
      "type": "node",
      "id": 622204865,
      "lat": 45.4990654,
      "lon": 2.97057,
      "timestamp": "2010-01-29T01:40:52Z",
      "version": 1,
      "changeset": 3740491,
      "user": "ddn2",
      "uid": 186835,
      "tags": {
        "name": "La Pouzière",
        "place": "hamlet"
      }
    },
    {
      "type": "node",
      "id": 622204914,
      "lat": 45.5039183,
      "lon": 2.9746681,
      "timestamp": "2010-01-29T01:40:54Z",
      "version": 1,
      "changeset": 3740491,
      "user": "ddn2",
      "uid": 186835,
      "tags": {
        "name": "Le Fayet",
        "place": "hamlet",
        "source": "cadastre-dgi-fr source : Direction Générale des Impôts - Cadastre ; mise à jour : 2009"
      }
    },
    {
      "type": "node",
      "id": 624865420,
      "lat": 45.5210753,
      "lon": 3.022896,
      "timestamp": "2010-02-01T00:43:06Z",
      "version": 1,
      "changeset": 3764642,
      "user": "ddn2",
      "uid": 186835,
      "tags": {
        "name": "Pradelle",
        "place": "hamlet",
        "source": "cadastre-dgi-fr source : Direction Générale des Impôts - Cadastre ; mise à jour : 2009"
      }
    },
    {
      "type": "node",
      "id": 628311892,
      "lat": 45.5637444,
      "lon": 3.0541465,
      "timestamp": "2013-04-16T10:22:04Z",
      "version": 4,
      "changeset": 15747770,
      "user": "cquest",
      "uid": 158826,
      "tags": {
        "name": "Fontenille",
        "place": "hamlet",
        "source": "cadastre-dgi-fr source : Direction Générale des Impôts - Cadastre. Mise à jour : 2010"
      }
    },
    {
      "type": "node",
      "id": 631339007,
      "lat": 45.5481353,
      "lon": 3.0351699,
      "timestamp": "2010-02-06T02:16:07Z",
      "version": 1,
      "changeset": 3802317,
      "user": "ddn2",
      "uid": 186835,
      "tags": {
        "name": "Laumont",
        "place": "hamlet",
        "source": "cadastre-dgi-fr source : Direction Générale des Impôts - Cadastre ; mise à jour : 2009"
      }
    },
    {
      "type": "node",
      "id": 631339379,
      "lat": 45.5495596,
      "lon": 3.0446433,
      "timestamp": "2019-11-25T17:01:15Z",
      "version": 9,
      "changeset": 77535736,
      "user": "StephaneP",
      "uid": 439947,
      "tags": {
        "addr:postcode": "63320",
        "name": "Creste",
        "place": "village",
        "population": "52",
        "source": "cadastre-dgi-fr source : Direction Générale des Impôts - Cadastre ; mise à jour : 2009",
        "source:population": "INSEE 2013"
      }
    },
    {
      "type": "node",
      "id": 633019419,
      "lat": 45.5773237,
      "lon": 3.0571942,
      "timestamp": "2020-11-15T14:41:46Z",
      "version": 10,
      "changeset": 94149804,
      "user": "ËdzëronK",
      "uid": 211154,
      "tags": {
        "addr:postcode": "63320",
        "name": "Grandeyrolles",
        "name:oc": "Grandeirolas",
        "place": "village",
        "source": "cadastre-dgi-fr source : Direction Générale des Impôts - Cadastre ; mise à jour : 2009",
        "source:name:oc": "ieo-bdtopoc"
      }
    },
    {
      "type": "node",
      "id": 633806491,
      "lat": 45.5808608,
      "lon": 3.0436605,
      "timestamp": "2010-02-09T01:32:05Z",
      "version": 1,
      "changeset": 3828645,
      "user": "ddn2",
      "uid": 186835,
      "tags": {
        "name": "Thone-le-Jeune",
        "place": "hamlet",
        "source": "cadastre-dgi-fr source : Direction Générale des Impôts - Cadastre ; mise à jour : 2009"
      }
    },
    {
      "type": "node",
      "id": 636166270,
      "lat": 45.5697372,
      "lon": 3.0339255,
      "timestamp": "2020-02-08T01:27:20Z",
      "version": 10,
      "changeset": 80713306,
      "user": "vincent_95",
      "uid": 49047,
      "tags": {
        "addr:postcode": "63320",
        "name": "Verrières",
        "place": "village",
        "source": "cadastre-dgi-fr source : Direction Générale des Impôts - Cadastre. mise à jour : 2009"
      }
    },
    {
      "type": "node",
      "id": 653028078,
      "lat": 45.495593,
      "lon": 2.848299,
      "timestamp": "2010-11-14T00:41:11Z",
      "version": 2,
      "changeset": 6363330,
      "user": "ddn2",
      "uid": 186835,
      "tags": {
        "name": "Source de Vassivière",
        "natural": "spring"
      }
    },
    {
      "type": "node",
      "id": 657113278,
      "lat": 45.4839758,
      "lon": 2.9351979,
      "timestamp": "2015-03-25T11:55:06Z",
      "version": 5,
      "changeset": 29725302,
      "user": "JBacc1",
      "uid": 704348,
      "tags": {
        "name": "Anglard",
        "place": "hamlet",
        "source": "cadastre-dgi-fr source : Direction Générale des Impôts - Cadastre ; mise à jour : 2009"
      }
    },
    {
      "type": "node",
      "id": 658949698,
      "lat": 45.4861569,
      "lon": 2.9200897,
      "timestamp": "2010-03-02T01:27:03Z",
      "version": 1,
      "changeset": 4013930,
      "user": "ddn2",
      "uid": 186835,
      "tags": {
        "name": "Péalat",
        "place": "hamlet",
        "source": "cadastre-dgi-fr source : Direction Générale des Impôts - Cadastre ; mise à jour : 2009"
      }
    },
    {
      "type": "node",
      "id": 660539042,
      "lat": 45.5115738,
      "lon": 2.9329614,
      "timestamp": "2020-04-20T15:30:04Z",
      "version": 14,
      "changeset": 83830088,
      "user": "oc-OpenStreetMap",
      "uid": 4224320,
      "tags": {
        "name": "Besse",
        "name:oc": "Beça",
        "old_name": "Besse-en-Chandesse",
        "place": "village",
        "postal_code": "63610",
        "source": "cadastre-dgi-fr source : Direction Générale des Impôts - Cadastre. Mise à jour : 2010",
        "source:name": "Le 2 avril 1961, Besse devient Besse-en-Chandesse; le 1er juillet 1973, Besse-en-Chandesse fusionne avec Saint-Anastaise pour former Besse-et-Saint-Anastaise",
        "source:name:oc": "ieo-bdtopoc",
        "wikidata": "Q326043",
        "wikipedia": "fr:Besse-et-Saint-Anastaise"
      }
    },
    {
      "type": "node",
      "id": 660539155,
      "lat": 45.5096871,
      "lon": 2.9469486,
      "timestamp": "2015-03-17T11:21:03Z",
      "version": 2,
      "changeset": 29537626,
      "user": "JBacc1",
      "uid": 704348,
      "tags": {
        "name": "Combes",
        "place": "hamlet",
        "source": "cadastre-dgi-fr source : Direction Générale des Impôts - Cadastre ; mise à jour : 2009"
      }
    },
    {
      "type": "node",
      "id": 663101627,
      "lat": 45.4657792,
      "lon": 2.9572416,
      "timestamp": "2010-03-09T00:02:03Z",
      "version": 1,
      "changeset": 4077475,
      "user": "ddn2",
      "uid": 186835,
      "tags": {
        "name": "Les Chirouzes",
        "place": "hamlet",
        "source": "cadastre-dgi-fr source : Direction Générale des Impôts - Cadastre ; mise à jour : 2009"
      }
    },
    {
      "type": "node",
      "id": 663892274,
      "lat": 45.472344,
      "lon": 2.9736123,
      "timestamp": "2012-07-17T06:07:09Z",
      "version": 2,
      "changeset": 12257731,
      "user": "la colle",
      "uid": 530603,
      "tags": {
        "name": "Saint-Anastaise",
        "place": "hamlet",
        "source": "cadastre-dgi-fr source : Direction Générale des Impôts - Cadastre ; mise à jour : 2009"
      }
    },
    {
      "type": "node",
      "id": 664284534,
      "lat": 45.4929617,
      "lon": 2.9889321,
      "timestamp": "2010-03-11T23:37:00Z",
      "version": 1,
      "changeset": 4102563,
      "user": "ddn2",
      "uid": 186835,
      "tags": {
        "name": "La Veissière",
        "place": "hamlet",
        "source": "cadastre-dgi-fr source : Direction Générale des Impôts - Cadastre ; mise à jour : 2009"
      }
    },
    {
      "type": "node",
      "id": 664304923,
      "lat": 45.4836639,
      "lon": 2.9856045,
      "timestamp": "2010-06-09T21:34:43Z",
      "version": 2,
      "changeset": 4949649,
      "user": "Dam63",
      "uid": 58700,
      "tags": {
        "name": "Lignerolles",
        "place": "hamlet",
        "source": "cadastre-dgi-fr source : Direction Générale des Impôts - Cadastre ; mise à jour : 2009"
      }
    },
    {
      "type": "node",
      "id": 668429182,
      "lat": 45.4470755,
      "lon": 2.951654,
      "timestamp": "2010-03-18T00:40:51Z",
      "version": 1,
      "changeset": 4158215,
      "user": "ddn2",
      "uid": 186835,
      "tags": {
        "name": "Marsol",
        "place": "hamlet",
        "source": "cadastre-dgi-fr source : Direction Générale des Impôts - Cadastre ; mise à jour : 2009;cadastre-dgi-fr source : Direction Générale des Impôts - Cadastre. Mise à jour : 2010"
      }
    },
    {
      "type": "node",
      "id": 669763286,
      "lat": 45.4439308,
      "lon": 2.9156961,
      "timestamp": "2010-03-19T15:47:54Z",
      "version": 1,
      "changeset": 4171187,
      "user": "ddn2",
      "uid": 186835,
      "tags": {
        "name": "Chaumiane",
        "place": "hamlet",
        "source": "cadastre-dgi-fr source : Direction Générale des Impôts - Cadastre ; mise à jour : 2009;cadastre-dgi-fr source : Direction Générale des Impôts - Cadastre. Mise à jour : 2010"
      }
    },
    {
      "type": "node",
      "id": 670192849,
      "lat": 45.3900876,
      "lon": 2.9138637,
      "timestamp": "2018-08-10T10:05:02Z",
      "version": 5,
      "changeset": 61529105,
      "user": "Aroche",
      "uid": 50179,
      "tags": {
        "description": "Borne en granit gravée IGN (1954) - Point vu en place en 2000",
        "ele": "1291.89",
        "man_made": "survey_point",
        "name": "Montagne de Janson",
        "natural": "volcano",
        "note": "Ne pas déplacer ce point, cf. - Do not move this node, see - http://wiki.openstreetmap.org/wiki/WikiProject_France/Repères_Géodésiques#Permanence_des_rep.C3.A8res",
        "ref": "6316901 - 1",
        "source": "©IGN 2010 dans le cadre de la cartographie réglementaire",
        "url": "http://geodesie.ign.fr/fiches/index.php?module=e&action=fichepdf&source=carte&sit_no=6316901",
        "wikidata": "Q31670041"
      }
    },
    {
      "type": "node",
      "id": 670193177,
      "lat": 45.5729331,
      "lon": 2.8399613,
      "timestamp": "2021-03-07T21:05:18Z",
      "version": 4,
      "changeset": 100592052,
      "user": "GeoMechain",
      "uid": 10398640,
      "tags": {
        "description": "Borne en granit gravée IGN (1954) - Point vu en place en 1955",
        "ele": "1738.23",
        "man_made": "survey_point",
        "name": "Puy de l'Angle",
        "natural": "peak",
        "note": "Ne pas déplacer ce point, cf. - Do not move this node, see - http://wiki.openstreetmap.org/wiki/WikiProject_France/Repères_Géodésiques#Permanence_des_rep.C3.A8res",
        "ref": "6323602 - 1",
        "source": "©IGN 2010 dans le cadre de la cartographie réglementaire",
        "url": "http://geodesie.ign.fr/fiches/index.php?module=e&action=fichepdf&source=carte&sit_no=6323602",
        "wikidata": "Q31670331"
      }
    },
    {
      "type": "node",
      "id": 672561329,
      "lat": 45.4239292,
      "lon": 2.9158852,
      "timestamp": "2010-03-23T01:37:03Z",
      "version": 1,
      "changeset": 4208717,
      "user": "ddn2",
      "uid": 186835,
      "tags": {
        "name": "Cureyre",
        "place": "hamlet",
        "source": "cadastre-dgi-fr source : Direction Générale des Impôts - Cadastre ; mise à jour : 2009;cadastre-dgi-fr source : Direction Générale des Impôts - Cadastre. Mise à jour : 2010"
      }
    },
    {
      "type": "node",
      "id": 672561631,
      "lat": 45.4363113,
      "lon": 2.9573265,
      "timestamp": "2010-03-23T01:37:11Z",
      "version": 1,
      "changeset": 4208717,
      "user": "ddn2",
      "uid": 186835,
      "tags": {
        "name": "Belleguette",
        "place": "hamlet",
        "source": "cadastre-dgi-fr source : Direction Générale des Impôts - Cadastre ; mise à jour : 2009;cadastre-dgi-fr source : Direction Générale des Impôts - Cadastre. Mise à jour : 2010"
      }
    },
    {
      "type": "node",
      "id": 673843336,
      "lat": 45.4137242,
      "lon": 2.9613853,
      "timestamp": "2021-03-07T21:05:17Z",
      "version": 3,
      "changeset": 100592052,
      "user": "GeoMechain",
      "uid": 10398640,
      "tags": {
        "ele": "1273",
        "name": "La Motte",
        "natural": "peak",
        "source": "cadastre-dgi-fr source : Direction Générale des Impôts - Cadastre;mise à jour : 2009;cadastre-dgi-fr source : Direction Générale des Impôts - Cadastre. Mise à jour : 2010",
        "wikidata": "Q31670077"
      }
    },
    {
      "type": "node",
      "id": 676217593,
      "lat": 45.5712859,
      "lon": 2.8980689,
      "timestamp": "2021-01-04T10:34:18Z",
      "version": 10,
      "changeset": 96899652,
      "user": "ËdzëronK",
      "uid": 211154,
      "tags": {
        "addr:postcode": "63790",
        "name": "Chambon-sur-Lac",
        "name:oc": "Chambon (del Lac)",
        "place": "village",
        "source:name:oc": "ieo-bdtopoc"
      }
    },
    {
      "type": "node",
      "id": 765394652,
      "lat": 45.5506224,
      "lon": 2.8801431,
      "timestamp": "2010-06-06T02:09:57Z",
      "version": 1,
      "changeset": 4913821,
      "user": "ddn2",
      "uid": 186835,
      "tags": {
        "name": "Montmie",
        "place": "hamlet",
        "source": "cadastre-dgi-fr source : Direction Générale des Impôts - Cadastre ; mise à jour : 2009;cadastre-dgi-fr source : Direction Générale des Impôts - Cadastre. Mise à jour : 2010"
      }
    },
    {
      "type": "node",
      "id": 765394734,
      "lat": 45.5568522,
      "lon": 2.9023084,
      "timestamp": "2010-06-06T02:09:59Z",
      "version": 1,
      "changeset": 4913821,
      "user": "ddn2",
      "uid": 186835,
      "tags": {
        "name": "Montaleix",
        "place": "hamlet",
        "source": "cadastre-dgi-fr source : Direction Générale des Impôts - Cadastre ; mise à jour : 2009;cadastre-dgi-fr source : Direction Générale des Impôts - Cadastre. Mise à jour : 2010"
      }
    },
    {
      "type": "node",
      "id": 766182824,
      "lat": 45.5583639,
      "lon": 2.8854467,
      "timestamp": "2010-06-07T01:38:57Z",
      "version": 1,
      "changeset": 4924334,
      "user": "ddn2",
      "uid": 186835,
      "tags": {
        "name": "Voissières",
        "place": "hamlet",
        "source": "cadastre-dgi-fr source : Direction Générale des Impôts - Cadastre ; mise à jour : 2009;cadastre-dgi-fr source : Direction Générale des Impôts - Cadastre. Mise à jour : 2010"
      }
    },
    {
      "type": "node",
      "id": 766183334,
      "lat": 45.5549688,
      "lon": 2.8691249,
      "timestamp": "2020-12-28T15:20:29Z",
      "version": 2,
      "changeset": 96545102,
      "user": "Hervé TUC",
      "uid": 922338,
      "tags": {
        "name": "Moneaux",
        "place": "hamlet"
      }
    },
    {
      "type": "node",
      "id": 768744578,
      "lat": 45.4984673,
      "lon": 3.1720442,
      "timestamp": "2020-04-20T15:30:04Z",
      "version": 9,
      "changeset": 83830088,
      "user": "oc-OpenStreetMap",
      "uid": 4224320,
      "tags": {
        "addr:postcode": "63340",
        "name": "Antoingt",
        "name:oc": "Antonh",
        "place": "village",
        "source:name:oc": "ieo-bdtopoc"
      }
    },
    {
      "type": "node",
      "id": 773392418,
      "lat": 45.5668369,
      "lon": 2.8860295,
      "timestamp": "2010-06-16T01:28:48Z",
      "version": 1,
      "changeset": 4996998,
      "user": "ddn2",
      "uid": 186835,
      "tags": {
        "name": "Pré Naud",
        "place": "hamlet",
        "source": "cadastre-dgi-fr source : Direction Générale des Impôts - Cadastre ; mise à jour : 2009;cadastre-dgi-fr source : Direction Générale des Impôts - Cadastre. Mise à jour : 2010"
      }
    },
    {
      "type": "node",
      "id": 783634164,
      "lat": 45.574281,
      "lon": 2.8673521,
      "timestamp": "2013-02-07T14:04:30Z",
      "version": 2,
      "changeset": 14945046,
      "user": "jean_bernard",
      "uid": 190699,
      "tags": {
        "name": "Surains",
        "place": "hamlet",
        "source": "cadastre-dgi-fr source : Direction Générale des Impôts - Cadastre ; mise à jour : 2009;cadastre-dgi-fr source : Direction Générale des Impôts - Cadastre. Mise à jour : 2010"
      }
    },
    {
      "type": "node",
      "id": 790988467,
      "lat": 45.4940606,
      "lon": 3.007511,
      "timestamp": "2015-02-06T12:16:58Z",
      "version": 2,
      "changeset": 28649896,
      "user": "LGENDRONNEAU",
      "uid": 1434102,
      "tags": {
        "name": "La Valette",
        "place": "hamlet"
      }
    },
    {
      "type": "node",
      "id": 793710931,
      "lat": 45.453547,
      "lon": 2.9927194,
      "timestamp": "2010-06-27T21:51:18Z",
      "version": 1,
      "changeset": 5093600,
      "user": "Dam63",
      "uid": 58700,
      "tags": {
        "name": "Vauzelles",
        "place": "hamlet"
      }
    },
    {
      "type": "node",
      "id": 793717849,
      "lat": 45.4984228,
      "lon": 3.1564459,
      "timestamp": "2010-09-24T18:16:09Z",
      "version": 2,
      "changeset": 5865178,
      "user": "Manu1400",
      "uid": 181135,
      "tags": {
        "name": "Mazerat",
        "place": "hamlet"
      }
    },
    {
      "type": "node",
      "id": 793772057,
      "lat": 45.4819025,
      "lon": 3.0993448,
      "timestamp": "2020-04-20T18:59:11Z",
      "version": 10,
      "changeset": 83838518,
      "user": "oc-OpenStreetMap",
      "uid": 4224320,
      "tags": {
        "addr:postcode": "63340",
        "name": "Dauzat-sur-Vodable",
        "name:oc": "Dausat de Vodable",
        "place": "village",
        "source:name:oc": "ieo-bdtopoc"
      }
    },
    {
      "type": "node",
      "id": 793772058,
      "lat": 45.4380728,
      "lon": 3.0048579,
      "timestamp": "2020-02-08T01:27:20Z",
      "version": 10,
      "changeset": 80713306,
      "user": "vincent_95",
      "uid": 49047,
      "tags": {
        "addr:postcode": "63420",
        "name": "Roche-Charles-la-Mayrand",
        "place": "village",
        "wikidata": "Q269084",
        "wikipedia": "fr:Roche-Charles-la-Mayrand"
      }
    },
    {
      "type": "node",
      "id": 793772059,
      "lat": 45.4597473,
      "lon": 3.0601144,
      "timestamp": "2010-06-27T22:59:47Z",
      "version": 1,
      "changeset": 5093972,
      "user": "Dam63",
      "uid": 58700,
      "tags": {
        "name": "Genelière",
        "place": "hamlet"
      }
    },
    {
      "type": "node",
      "id": 793772060,
      "lat": 45.4766883,
      "lon": 3.090628,
      "timestamp": "2020-11-15T11:42:40Z",
      "version": 2,
      "changeset": 94141850,
      "user": "ËdzëronK",
      "uid": 211154,
      "tags": {
        "name": "Moulet",
        "place": "hamlet"
      }
    },
    {
      "type": "node",
      "id": 793824307,
      "lat": 45.5072537,
      "lon": 3.1456468,
      "timestamp": "2020-04-19T18:04:26Z",
      "version": 12,
      "changeset": 83781067,
      "user": "oc-OpenStreetMap",
      "uid": 4224320,
      "tags": {
        "addr:postcode": "63500",
        "name": "Vodable",
        "name:oc": "Vodable",
        "place": "village",
        "source:name:oc": "ieo-bdtopoc"
      }
    },
    {
      "type": "node",
      "id": 793824411,
      "lat": 45.5156368,
      "lon": 3.1732776,
      "timestamp": "2020-04-19T18:04:27Z",
      "version": 10,
      "changeset": 83781067,
      "user": "oc-OpenStreetMap",
      "uid": 4224320,
      "tags": {
        "addr:postcode": "63500",
        "name": "Solignat",
        "name:oc": "Solenhac",
        "place": "village",
        "source:name:oc": "ieo-bdtopoc"
      }
    },
    {
      "type": "node",
      "id": 793826883,
      "lat": 45.5788729,
      "lon": 2.8854941,
      "timestamp": "2020-03-28T01:22:46Z",
      "version": 5,
      "changeset": 82738074,
      "user": "Olyon",
      "uid": 1443767,
      "tags": {
        "name": "Bressouleille",
        "place": "hamlet",
        "source": "cadastre-dgi-fr source : Direction Générale des Impôts - Cadastre ; mise à jour : 2009;cadastre-dgi-fr source : Direction Générale des Impôts - Cadastre. Mise à jour : 2010"
      }
    },
    {
      "type": "node",
      "id": 796623560,
      "lat": 45.5764613,
      "lon": 2.9124757,
      "timestamp": "2010-06-30T01:39:53Z",
      "version": 1,
      "changeset": 5110378,
      "user": "ddn2",
      "uid": 186835,
      "tags": {
        "name": "Fougerousse",
        "place": "hamlet",
        "source": "cadastre-dgi-fr source : Direction Générale des Impôts - Cadastre ; mise à jour : 2009;cadastre-dgi-fr source : Direction Générale des Impôts - Cadastre. Mise à jour : 2010"
      }
    },
    {
      "type": "node",
      "id": 813245866,
      "lat": 45.359312,
      "lon": 2.8245094,
      "timestamp": "2010-07-12T11:49:18Z",
      "version": 1,
      "changeset": 5198251,
      "user": "NicolasDumoulin",
      "uid": 143932,
      "tags": {
        "name": "Margniat",
        "place": "hamlet",
        "source": "cadastre-dgi-fr source : Direction Générale des Impôts - Cadastre ; mise à jour : 2010"
      }
    },
    {
      "type": "node",
      "id": 813561426,
      "lat": 45.5494127,
      "lon": 2.9343917,
      "timestamp": "2011-01-22T03:21:47Z",
      "version": 2,
      "changeset": 7046756,
      "user": "ddn2",
      "uid": 186835,
      "tags": {
        "name": "Le Breuil",
        "place": "hamlet",
        "source": "cadastre-dgi-fr source : Direction Générale des Impôts - Cadastre ; mise à jour : 2010"
      }
    },
    {
      "type": "node",
      "id": 813561428,
      "lat": 45.5558683,
      "lon": 2.9479109,
      "timestamp": "2011-01-23T03:35:06Z",
      "version": 2,
      "changeset": 7057662,
      "user": "ddn2",
      "uid": 186835,
      "tags": {
        "name": "Bessole",
        "place": "hamlet",
        "source": "cadastre-dgi-fr source : Direction Générale des Impôts - Cadastre ; mise à jour : 2010"
      }
    },
    {
      "type": "node",
      "id": 813561429,
      "lat": 45.5610883,
      "lon": 2.9303324,
      "timestamp": "2010-07-12T15:22:06Z",
      "version": 1,
      "changeset": 5199961,
      "user": "NicolasDumoulin",
      "uid": 143932,
      "tags": {
        "name": "Jassat",
        "place": "hamlet",
        "source": "cadastre-dgi-fr source : Direction Générale des Impôts - Cadastre ; mise à jour : 2010"
      }
    },
    {
      "type": "node",
      "id": 813561430,
      "lat": 45.5336082,
      "lon": 2.9267631,
      "timestamp": "2011-01-26T02:36:21Z",
      "version": 2,
      "changeset": 7090027,
      "user": "ddn2",
      "uid": 186835,
      "tags": {
        "name": "Le Verdier",
        "place": "hamlet",
        "source": "cadastre-dgi-fr source : Direction Générale des Impôts - Cadastre ; mise à jour : 2010"
      }
    },
    {
      "type": "node",
      "id": 813561431,
      "lat": 45.5515932,
      "lon": 2.9403943,
      "timestamp": "2020-04-19T18:04:27Z",
      "version": 10,
      "changeset": 83781067,
      "user": "oc-OpenStreetMap",
      "uid": 4224320,
      "tags": {
        "addr:postcode": "63790",
        "name": "Saint-Victor-la-Rivière",
        "name:oc": "Sant Victor (de ?)",
        "place": "village",
        "source": "cadastre-dgi-fr source : Direction Générale des Impôts - Cadastre ; mise à jour : 2010",
        "source:name:oc": "ieo-bdtopoc"
      }
    },
    {
      "type": "node",
      "id": 813561432,
      "lat": 45.5452735,
      "lon": 2.9010762,
      "timestamp": "2011-01-20T02:49:56Z",
      "version": 2,
      "changeset": 7026597,
      "user": "ddn2",
      "uid": 186835,
      "tags": {
        "name": "Courbanges",
        "place": "hamlet",
        "source": "cadastre-dgi-fr source : Direction Générale des Impôts - Cadastre ; mise à jour : 2010"
      }
    },
    {
      "type": "node",
      "id": 813561433,
      "lat": 45.5609223,
      "lon": 2.9714174,
      "timestamp": "2011-01-24T02:39:31Z",
      "version": 2,
      "changeset": 7069352,
      "user": "ddn2",
      "uid": 186835,
      "tags": {
        "name": "Roche Romaine",
        "place": "hamlet",
        "source": "cadastre-dgi-fr source : Direction Générale des Impôts - Cadastre ; mise à jour : 2010"
      }
    },
    {
      "type": "node",
      "id": 822121955,
      "lat": 45.5008954,
      "lon": 3.002025,
      "timestamp": "2015-03-02T11:48:31Z",
      "version": 2,
      "changeset": 29196894,
      "user": "LGENDRONNEAU",
      "uid": 1434102,
      "tags": {
        "name": "Marcenat",
        "place": "hamlet"
      }
    },
    {
      "type": "node",
      "id": 824797813,
      "lat": 45.4685213,
      "lon": 2.9879764,
      "timestamp": "2020-02-08T01:27:20Z",
      "version": 8,
      "changeset": 80713306,
      "user": "vincent_95",
      "uid": 49047,
      "tags": {
        "addr:postcode": "63610",
        "name": "Valbeleix",
        "place": "village"
      }
    },
    {
      "type": "node",
      "id": 848265434,
      "lat": 45.452796,
      "lon": 3.3154085,
      "timestamp": "2019-10-06T19:17:01Z",
      "version": 8,
      "changeset": 75348838,
      "user": "Copticrain",
      "uid": 7192188,
      "tags": {
        "addr:city": "Auzat-la-Combelle",
        "addr:housenumber": "10",
        "addr:postcode": "63570",
        "addr:street": "Place de l'église",
        "name": "La Petite Épicerie",
        "opening_hours": "Mo-Sa 07:30-12:00,15:00-19:00",
        "organic": "only",
        "payment:cash": "yes",
        "payment:credit_cards": "yes",
        "shop": "supermarket"
      }
    },
    {
      "type": "node",
      "id": 859013752,
      "lat": 45.197441,
      "lon": 3.3836544,
      "timestamp": "2020-04-19T18:04:28Z",
      "version": 8,
      "changeset": 83781067,
      "user": "oc-OpenStreetMap",
      "uid": 4224320,
      "tags": {
        "addr:postcode": "43380",
        "name": "Villeneuve-d'Allier",
        "name:oc": "Vilanòva d'Alèir",
        "place": "village",
        "population": "293",
        "population:date": "2015-01-01",
        "source:name:oc": "ieo-bdtopoc",
        "source:population": "INSEE"
      }
    },
    {
      "type": "node",
      "id": 860337107,
      "lat": 45.576,
      "lon": 2.9314074,
      "timestamp": "2014-08-20T21:25:44Z",
      "version": 3,
      "changeset": 24896678,
      "user": "miredo",
      "uid": 211406,
      "tags": {
        "name": "Le Marais",
        "place": "hamlet"
      }
    },
    {
      "type": "node",
      "id": 866537961,
      "lat": 45.5739056,
      "lon": 2.9427972,
      "timestamp": "2020-03-27T05:20:34Z",
      "version": 4,
      "changeset": 82693630,
      "user": "Olyon",
      "uid": 1443767,
      "tags": {
        "addr:street": "Rue Chabrol",
        "brand": "Vival",
        "brand:wikidata": "Q7937525",
        "name": "Vival",
        "operator": "Vival",
        "shop": "convenience"
      }
    },
    {
      "type": "node",
      "id": 869083612,
      "lat": 45.1856004,
      "lon": 3.3690981,
      "timestamp": "2015-03-19T23:58:35Z",
      "version": 3,
      "changeset": 29603539,
      "user": "lapinos03",
      "uid": 33634,
      "tags": {
        "name": "Condros",
        "place": "hamlet"
      }
    },
    {
      "type": "node",
      "id": 869166933,
      "lat": 45.2096096,
      "lon": 3.3934539,
      "timestamp": "2013-12-14T10:05:52Z",
      "version": 2,
      "changeset": 19445642,
      "user": "RedFox",
      "uid": 10610,
      "tags": {
        "name": "Jazindes",
        "place": "hamlet"
      }
    },
    {
      "type": "node",
      "id": 869292548,
      "lat": 45.4767144,
      "lon": 3.1870364,
      "timestamp": "2020-04-19T18:04:28Z",
      "version": 10,
      "changeset": 83781067,
      "user": "oc-OpenStreetMap",
      "uid": 4224320,
      "tags": {
        "addr:postcode": "63340",
        "alt_name": "Villeneuve",
        "name": "Villeneuve Lembron",
        "name:oc": "Vilanòva de Lembron",
        "place": "village",
        "source:name:oc": "ieo-bdtopoc"
      }
    },
    {
      "type": "node",
      "id": 876768395,
      "lat": 45.2638003,
      "lon": 3.1276204,
      "timestamp": "2020-04-20T15:30:06Z",
      "version": 7,
      "changeset": 83830088,
      "user": "oc-OpenStreetMap",
      "uid": 4224320,
      "tags": {
        "addr:postcode": "15500",
        "name": "Auriac-l'Église",
        "name:oc": "Auriac (de la Glèisa)",
        "place": "village",
        "population": "205",
        "source:name:oc": "ieo-bdtopoc",
        "source:population": "INSEE 2013"
      }
    },
    {
      "type": "node",
      "id": 876768450,
      "lat": 45.2745029,
      "lon": 2.8633193,
      "timestamp": "2020-04-21T11:31:21Z",
      "version": 7,
      "changeset": 83877714,
      "user": "oc-OpenStreetMap",
      "uid": 4224320,
      "tags": {
        "addr:postcode": "15160",
        "name": "Landeyrat",
        "name:oc": "Landairac",
        "place": "village",
        "population": "102",
        "source:name:oc": "ieo-bdtopoc",
        "source:population": "INSEE 2013"
      }
    },
    {
      "type": "node",
      "id": 876768486,
      "lat": 45.2286939,
      "lon": 2.9352539,
      "timestamp": "2020-04-20T15:30:08Z",
      "version": 11,
      "changeset": 83830088,
      "user": "oc-OpenStreetMap",
      "uid": 4224320,
      "tags": {
        "addr:postcode": "15160",
        "name": "Allanche",
        "name:oc": "Alancha",
        "name:uk": "Алланш",
        "place": "village",
        "population": "891",
        "source": "cadastre-dgi-fr source : Direction Générale des Impôts - Cadastre. Mise à jour : 2012",
        "source:name:oc": "ieo-bdtopoc",
        "source:population": "INSEE 2013",
        "wikidata": "Q645566",
        "wikipedia": "fr:Allanche"
      }
    },
    {
      "type": "node",
      "id": 876768517,
      "lat": 45.1249896,
      "lon": 2.9091779,
      "timestamp": "2020-04-19T18:04:29Z",
      "version": 7,
      "changeset": 83781067,
      "user": "oc-OpenStreetMap",
      "uid": 4224320,
      "tags": {
        "addr:postcode": "15300",
        "name": "Virargues",
        "name:oc": "Vairargues",
        "place": "village",
        "population": "141",
        "source": "Approximatif, d'après carte du Cantal de Levasseur de 1860, orthographe corrigé avec INSEE 2010",
        "source:name:oc": "ieo-bdtopoc",
        "source:population": "INSEE 2013"
      }
    },
    {
      "type": "node",
      "id": 876768557,
      "lat": 45.3131342,
      "lon": 3.0705185,
      "timestamp": "2021-06-25T19:35:03Z",
      "version": 11,
      "changeset": 106981113,
      "user": "Futur3r",
      "uid": 12121621,
      "tags": {
        "addr:postcode": "43450",
        "name": "Leyvaux",
        "name:oc": "Las Vaus",
        "place": "hamlet",
        "population": "31",
        "source:name:oc": "ieo-bdtopoc",
        "source:population": "INSEE 2013",
        "wikidata": "Q805662",
        "wikipedia": "fr:Leyvaux"
      }
    },
    {
      "type": "node",
      "id": 876768558,
      "lat": 45.1868992,
      "lon": 3.1621874,
      "timestamp": "2020-04-19T11:36:21Z",
      "version": 7,
      "changeset": 83769597,
      "user": "oc-OpenStreetMap",
      "uid": 4224320,
      "tags": {
        "addr:postcode": "15500",
        "name": "Saint-Mary-le-Plain",
        "name:oc": "Sant Mari del Plan",
        "place": "village",
        "population": "154",
        "source:name:oc": "ieo-bdtopoc",
        "source:population": "INSEE 2013"
      }
    },
    {
      "type": "node",
      "id": 876768581,
      "lat": 45.3066131,
      "lon": 2.8277601,
      "timestamp": "2020-08-30T15:32:50Z",
      "version": 9,
      "changeset": 90148619,
      "user": "Pymouss",
      "uid": 66675,
      "tags": {
        "addr:postcode": "15190",
        "name": "Marcenat",
        "name:oc": "Marcenac",
        "place": "village",
        "population": "515",
        "source:name:oc": "ieo-bdtopoc",
        "source:population": "INSEE 2013"
      }
    },
    {
      "type": "node",
      "id": 876768626,
      "lat": 45.3448578,
      "lon": 2.8670503,
      "timestamp": "2020-04-16T19:21:44Z",
      "version": 8,
      "changeset": 83664582,
      "user": "oc-OpenStreetMap",
      "uid": 4224320,
      "tags": {
        "addr:postcode": "15190",
        "name": "Montgreleix",
        "name:oc": "Montgarlés",
        "place": "village",
        "population": "42",
        "source:name:oc": "ieo-bdtopoc",
        "source:population": "INSEE 2013"
      }
    },
    {
      "type": "node",
      "id": 876768671,
      "lat": 45.1529429,
      "lon": 2.8819371,
      "timestamp": "2020-03-18T18:41:07Z",
      "version": 13,
      "changeset": 82359925,
      "user": "Farot",
      "uid": 10617233,
      "tags": {
        "addr:postcode": "15300",
        "name": "Chavagnac",
        "name:oc": "Chavanhac",
        "name:uk": "Шаваньяк",
        "place": "village",
        "population": "104",
        "source": "cadastre-dgi-fr source : Direction Générale des Impôts - Cadastre. Mise à jour : 2011",
        "source:name:oc": "ieo-bdtopoc",
        "source:population": "INSEE 2013",
        "wikidata": "Q805040",
        "wikipedia": "fr:Chavagnac (Cantal)"
      }
    },
    {
      "type": "node",
      "id": 876768675,
      "lat": 45.093511,
      "lon": 2.9880118,
      "timestamp": "2020-04-20T18:59:14Z",
      "version": 9,
      "changeset": 83838518,
      "user": "oc-OpenStreetMap",
      "uid": 4224320,
      "tags": {
        "addr:postcode": "15170",
        "name": "Coltines",
        "name:oc": "Coltina",
        "name:uk": "Кольтін",
        "place": "village",
        "population": "454",
        "source": "cadastre-dgi-fr source : Direction Générale des Impôts - Cadastre. Mise à jour : 2011",
        "source:name:oc": "ieo-bdtopoc",
        "source:population": "INSEE 2013",
        "wikidata": "Q533678",
        "wikipedia": "fr:Coltines"
      }
    },
    {
      "type": "node",
      "id": 876768705,
      "lat": 45.2671855,
      "lon": 2.9935654,
      "timestamp": "2020-04-19T18:04:31Z",
      "version": 7,
      "changeset": 83781067,
      "user": "oc-OpenStreetMap",
      "uid": 4224320,
      "tags": {
        "addr:postcode": "15160",
        "name": "Vèze",
        "name:oc": "Vesac",
        "place": "village",
        "population": "66",
        "source:name:oc": "ieo-bdtopoc",
        "source:population": "INSEE 2013"
      }
    },
    {
      "type": "node",
      "id": 876768717,
      "lat": 45.2164361,
      "lon": 3.0867516,
      "timestamp": "2020-04-20T18:59:15Z",
      "version": 6,
      "changeset": 83838518,
      "user": "oc-OpenStreetMap",
      "uid": 4224320,
      "tags": {
        "addr:postcode": "15500",
        "name": "Charmensac",
        "name:oc": "Charmençac",
        "place": "village",
        "population": "86",
        "source": "cadastre-dgi-fr source : Direction Générale des Impôts - Cadastre ; mise à jour : 2012",
        "source:name:oc": "ieo-bdtopoc",
        "source:population": "INSEE 2013"
      }
    },
    {
      "type": "node",
      "id": 876768726,
      "lat": 45.1271741,
      "lon": 3.1513975,
      "timestamp": "2020-04-19T18:04:32Z",
      "version": 6,
      "changeset": 83781067,
      "user": "oc-OpenStreetMap",
      "uid": 4224320,
      "tags": {
        "addr:postcode": "15500",
        "name": "Vieillespesse",
        "name:oc": "Vièlhespessa",
        "place": "village",
        "population": "257",
        "source:name:oc": "ieo-bdtopoc",
        "source:population": "INSEE 2013"
      }
    },
    {
      "type": "node",
      "id": 876768732,
      "lat": 45.1771304,
      "lon": 3.2426906,
      "timestamp": "2020-04-21T11:31:23Z",
      "version": 7,
      "changeset": 83877714,
      "user": "oc-OpenStreetMap",
      "uid": 4224320,
      "tags": {
        "addr:postcode": "15500",
        "name": "La Chapelle-Laurent",
        "name:oc": "La Chapèla Laurenç",
        "place": "village",
        "population": "334",
        "source": "cadastre-dgi-fr source : Direction Générale des Impôts - Cadastre ; mise à jour : 2011",
        "source:name:oc": "ieo-bdtopoc",
        "source:population": "INSEE 2013"
      }
    },
    {
      "type": "node",
      "id": 876768735,
      "lat": 45.2622743,
      "lon": 3.0393095,
      "timestamp": "2020-04-16T19:21:45Z",
      "version": 6,
      "changeset": 83664582,
      "user": "oc-OpenStreetMap",
      "uid": 4224320,
      "tags": {
        "addr:postcode": "15500",
        "name": "Molèdes",
        "name:oc": "Molèdas",
        "place": "village",
        "population": "98",
        "source:name:oc": "ieo-bdtopoc",
        "source:population": "INSEE 2013"
      }
    },
    {
      "type": "node",
      "id": 876768738,
      "lat": 45.1649223,
      "lon": 3.1865324,
      "timestamp": "2020-04-19T11:36:22Z",
      "version": 8,
      "changeset": 83769597,
      "user": "oc-OpenStreetMap",
      "uid": 4224320,
      "tags": {
        "addr:postcode": "15500",
        "name": "Saint-Poncy",
        "name:oc": "Sant Pònci",
        "place": "village",
        "population": "329",
        "source:name:oc": "ieo-bdtopoc",
        "source:population": "INSEE 2013"
      }
    },
    {
      "type": "node",
      "id": 876768865,
      "lat": 45.1012408,
      "lon": 2.8713348,
      "timestamp": "2013-08-21T14:33:49Z",
      "version": 4,
      "changeset": 17441792,
      "user": "yoko99",
      "uid": 582049,
      "tags": {
        "name": "Bredons",
        "place": "hamlet",
        "source": "cadastre-dgi-fr source : Direction Générale des Impôts - Cadastre. Mise à jour : 2012"
      }
    },
    {
      "type": "node",
      "id": 876768875,
      "lat": 45.1095746,
      "lon": 2.9786198,
      "timestamp": "2020-11-07T23:42:09Z",
      "version": 4,
      "changeset": 93724101,
      "user": "ËdzëronK",
      "uid": 211154,
      "tags": {
        "name": "Secourieux",
        "place": "hamlet",
        "source": "Approximatif, d'après carte du Cantal de Levasseur de 1860, orthographe corrigé avec INSEE 2010"
      }
    },
    {
      "type": "node",
      "id": 876768891,
      "lat": 45.202708,
      "lon": 3.0281935,
      "timestamp": "2020-04-18T14:57:08Z",
      "version": 6,
      "changeset": 83745846,
      "user": "oc-OpenStreetMap",
      "uid": 4224320,
      "tags": {
        "addr:postcode": "15170",
        "name": "Peyrusse",
        "name:oc": "Peirussa",
        "place": "village",
        "population": "164",
        "source": "cadastre-dgi-fr source : Direction Générale des Impôts - Cadastre. Mise à jour : 2011",
        "source:name:oc": "ieo-bdtopoc",
        "source:population": "INSEE 2013"
      }
    },
    {
      "type": "node",
      "id": 876768911,
      "lat": 45.297199,
      "lon": 3.0740667,
      "timestamp": "2013-03-10T07:47:33Z",
      "version": 3,
      "changeset": 15310977,
      "user": "la colle",
      "uid": 530603,
      "tags": {
        "name": "Lussaud",
        "place": "hamlet",
        "source": "cadastre-dgi-fr source : Direction Générale des Impôts - Cadastre. Mise à jour : 2012"
      }
    },
    {
      "type": "node",
      "id": 876768944,
      "lat": 45.2308671,
      "lon": 3.1270913,
      "timestamp": "2020-12-04T23:01:29Z",
      "version": 10,
      "changeset": 95318580,
      "user": "ËdzëronK",
      "uid": 211154,
      "tags": {
        "addr:postcode": "15500",
        "name": "Molompize",
        "name:oc": "Molompise",
        "place": "village",
        "population": "299",
        "source:name:oc": "ieo-bdtopoc",
        "source:population": "INSEE 2013"
      }
    },
    {
      "type": "node",
      "id": 876768996,
      "lat": 45.2258392,
      "lon": 2.8169745,
      "timestamp": "2020-04-19T18:04:36Z",
      "version": 10,
      "changeset": 83781067,
      "user": "oc-OpenStreetMap",
      "uid": 4224320,
      "tags": {
        "addr:postcode": "15300",
        "name": "Ségur-les-Villas",
        "name:oc": "Segur (de Vilars)",
        "name:uk": "Сегюр-ле-Вілла",
        "place": "village",
        "population": "228",
        "source:name:oc": "ieo-bdtopoc",
        "wikidata": "Q734594",
        "wikipedia": "fr:Ségur-les-Villas"
      }
    },
    {
      "type": "node",
      "id": 876769040,
      "lat": 45.1203717,
      "lon": 2.959567,
      "timestamp": "2020-03-18T18:41:07Z",
      "version": 5,
      "changeset": 82359925,
      "user": "Farot",
      "uid": 10617233,
      "tags": {
        "addr:postcode": "15170",
        "name": "Celles",
        "name:oc": "Cèlas",
        "place": "village",
        "population": "241",
        "source:name:oc": "ieo-bdtopoc"
      }
    },
    {
      "type": "node",
      "id": 876769050,
      "lat": 45.1078393,
      "lon": 2.8959849,
      "timestamp": "2020-11-07T23:42:09Z",
      "version": 9,
      "changeset": 93724101,
      "user": "ËdzëronK",
      "uid": 211154,
      "tags": {
        "addr:postcode": "15300",
        "name": "La Chapelle-d'Alagnon",
        "name:oc": "La Chapèla d'Alanhon",
        "place": "village",
        "population": "239",
        "source:name:oc": "ieo-bdtopoc",
        "source:population": "INSEE 2013"
      }
    },
    {
      "type": "node",
      "id": 876769051,
      "lat": 45.1140035,
      "lon": 3.0465015,
      "timestamp": "2020-04-19T18:04:36Z",
      "version": 7,
      "changeset": 83781067,
      "user": "oc-OpenStreetMap",
      "uid": 4224320,
      "tags": {
        "addr:postcode": "15170",
        "name": "Talizat",
        "name:oc": "Talisac",
        "place": "village",
        "population": "581",
        "source:name:oc": "ieo-bdtopoc"
      }
    },
    {
      "type": "node",
      "id": 876769065,
      "lat": 45.2080691,
      "lon": 3.1577399,
      "timestamp": "2020-04-20T15:30:12Z",
      "version": 6,
      "changeset": 83830088,
      "user": "oc-OpenStreetMap",
      "uid": 4224320,
      "tags": {
        "addr:postcode": "15500",
        "name": "Bonnac",
        "name:oc": "Bonnac",
        "place": "village",
        "population": "162",
        "source:name:oc": "ieo-bdtopoc",
        "source:population": "INSEE 2013"
      }
    },
    {
      "type": "node",
      "id": 876769078,
      "lat": 45.2765105,
      "lon": 3.1007297,
      "timestamp": "2020-04-21T11:31:26Z",
      "version": 5,
      "changeset": 83877714,
      "user": "oc-OpenStreetMap",
      "uid": 4224320,
      "tags": {
        "addr:postcode": "15500",
        "name": "Laurie",
        "name:oc": "Làuria",
        "place": "village",
        "population": "94",
        "source:name:oc": "ieo-bdtopoc"
      }
    },
    {
      "type": "node",
      "id": 876769080,
      "lat": 45.1132021,
      "lon": 3.2104961,
      "timestamp": "2020-04-21T11:31:26Z",
      "version": 6,
      "changeset": 83877714,
      "user": "oc-OpenStreetMap",
      "uid": 4224320,
      "tags": {
        "addr:postcode": "15500",
        "name": "Lastic",
        "name:oc": "Lastic",
        "place": "village",
        "population": "108",
        "source": "cadastre-dgi-fr source : Direction Générale des Impôts - Cadastre - mise à jour : 2012",
        "source:name:oc": "ieo-bdtopoc",
        "source:population": "INSEE 2013"
      }
    },
    {
      "type": "node",
      "id": 876769184,
      "lat": 45.2260349,
      "lon": 2.8901145,
      "timestamp": "2020-04-19T18:04:38Z",
      "version": 9,
      "changeset": 83781067,
      "user": "oc-OpenStreetMap",
      "uid": 4224320,
      "tags": {
        "addr:postcode": "15160",
        "name": "Vernols",
        "name:oc": "Vernòls",
        "name:uk": "Верноль",
        "place": "village",
        "population": "67",
        "source:name:oc": "ieo-bdtopoc",
        "source:population": "INSEE 2013",
        "wikidata": "Q584222",
        "wikipedia": "fr:Vernols"
      }
    },
    {
      "type": "node",
      "id": 876769207,
      "lat": 45.1420571,
      "lon": 3.005727,
      "timestamp": "2020-04-21T11:31:28Z",
      "version": 5,
      "changeset": 83877714,
      "user": "oc-OpenStreetMap",
      "uid": 4224320,
      "tags": {
        "addr:postcode": "15170",
        "name": "Joursac",
        "name:oc": "Jorçac",
        "place": "village",
        "population": "167",
        "source": "gps jcp",
        "source:name:oc": "ieo-bdtopoc"
      }
    },
    {
      "type": "node",
      "id": 876769219,
      "lat": 45.2698402,
      "lon": 2.923706,
      "timestamp": "2020-04-18T14:57:10Z",
      "version": 8,
      "changeset": 83745846,
      "user": "oc-OpenStreetMap",
      "uid": 4224320,
      "tags": {
        "addr:postcode": "15160",
        "name": "Pradiers",
        "name:oc": "Pradèirs",
        "place": "village",
        "population": "92",
        "source": "cadastre-dgi-fr source : Direction Générale des Impôts - Cadastre. Mise à jour : 2012",
        "source:name:oc": "ieo-bdtopoc",
        "source:population": "INSEE 2013"
      }
    },
    {
      "type": "node",
      "id": 876769220,
      "lat": 45.1830079,
      "lon": 3.0588549,
      "timestamp": "2020-11-08T11:25:51Z",
      "version": 11,
      "changeset": 93735281,
      "user": "ËdzëronK",
      "uid": 211154,
      "tags": {
        "addr:postcode": "15170",
        "name": "Ferrières",
        "name:oc": "Ferreiras e Sant Mari",
        "old_name": "Saint-Mary-le-Cros",
        "place": "village",
        "population": "256",
        "source:name:oc": "ieo-bdtopoc"
      }
    },
    {
      "type": "node",
      "id": 876769234,
      "lat": 45.1726719,
      "lon": 2.9692326,
      "timestamp": "2020-03-18T18:41:07Z",
      "version": 6,
      "changeset": 82359925,
      "user": "Farot",
      "uid": 10617233,
      "tags": {
        "addr:postcode": "15170",
        "name": "Sainte-Anastasie",
        "name:oc": "Senta Ostàsia",
        "place": "village",
        "population": "140",
        "source": "cadastre-dgi-fr source : Direction Générale des Impôts - Cadastre. Mise à jour : 2012",
        "source:name:oc": "ieo-bdtopoc",
        "source:population": "INSEE 2013"
      }
    },
    {
      "type": "node",
      "id": 876769257,
      "lat": 45.1452179,
      "lon": 3.2641964,
      "timestamp": "2020-04-20T18:59:21Z",
      "version": 6,
      "changeset": 83838518,
      "user": "oc-OpenStreetMap",
      "uid": 4224320,
      "tags": {
        "addr:postcode": "15500",
        "name": "Celoux",
        "name:oc": "Celós",
        "place": "village",
        "population": "78",
        "source:name:oc": "ieo-bdtopoc",
        "source:population": "INSEE 2013"
      }
    },
    {
      "type": "node",
      "id": 927749886,
      "lat": 45.3189631,
      "lon": 3.1696593,
      "timestamp": "2020-04-20T15:30:14Z",
      "version": 9,
      "changeset": 83830088,
      "user": "oc-OpenStreetMap",
      "uid": 4224320,
      "tags": {
        "addr:postcode": "43450",
        "name": "Blesle",
        "name:oc": "Blèila",
        "place": "village",
        "population": "635",
        "source:name:oc": "ieo-bdtopoc",
        "source:population": "INSEE 2016",
        "website": "https://www.blesle.fr",
        "wikidata": "Q472992",
        "wikipedia": "fr:Blesle"
      }
    },
    {
      "type": "node",
      "id": 937884009,
      "lat": 45.5273398,
      "lon": 2.8177227,
      "timestamp": "2020-12-28T15:11:12Z",
      "version": 5,
      "changeset": 96544636,
      "user": "Hervé TUC",
      "uid": 922338,
      "tags": {
        "ele": "1785",
        "mountain_pass": "yes",
        "name": "Col de la Cabane",
        "natural": "saddle"
      }
    },
    {
      "type": "node",
      "id": 938124949,
      "lat": 45.491164,
      "lon": 3.1528133,
      "timestamp": "2020-02-16T19:58:59Z",
      "version": 3,
      "changeset": 81080495,
      "user": "Olyon",
      "uid": 1443767,
      "tags": {
        "name": "Longchamp",
        "place": "hamlet"
      }
    },
    {
      "type": "node",
      "id": 938124953,
      "lat": 45.4740301,
      "lon": 3.1492856,
      "timestamp": "2020-02-16T19:58:59Z",
      "version": 3,
      "changeset": 81080495,
      "user": "Olyon",
      "uid": 1443767,
      "tags": {
        "name": "Pouzeix",
        "place": "hamlet"
      }
    },
    {
      "type": "node",
      "id": 942775442,
      "lat": 45.5450514,
      "lon": 3.1619369,
      "timestamp": "2020-04-16T19:21:49Z",
      "version": 9,
      "changeset": 83664582,
      "user": "oc-OpenStreetMap",
      "uid": 4224320,
      "tags": {
        "addr:postcode": "63320",
        "name": "Meilhaud",
        "name:oc": "Melhau",
        "place": "village",
        "source:name:oc": "ieo-bdtopoc"
      }
    },
    {
      "type": "node",
      "id": 942775457,
      "lat": 45.5272208,
      "lon": 3.1308918,
      "timestamp": "2020-04-19T18:04:39Z",
      "version": 9,
      "changeset": 83781067,
      "user": "oc-OpenStreetMap",
      "uid": 4224320,
      "tags": {
        "addr:postcode": "63320",
        "alt_name": "Tourzel-Ronzières",
        "name": "Tourzel",
        "name:oc": "Torsèi de Rongiera",
        "place": "village",
        "source:name:oc": "ieo-bdtopoc"
      }
    },
    {
      "type": "node",
      "id": 942775470,
      "lat": 45.5172487,
      "lon": 3.1326849,
      "timestamp": "2014-12-20T01:21:25Z",
      "version": 4,
      "changeset": 27581281,
      "user": "Olyon",
      "uid": 1443767,
      "tags": {
        "name": "Ronzières",
        "place": "hamlet"
      }
    },
    {
      "type": "node",
      "id": 942784351,
      "lat": 45.5379657,
      "lon": 3.0462695,
      "timestamp": "2020-04-19T18:04:40Z",
      "version": 12,
      "changeset": 83781067,
      "user": "oc-OpenStreetMap",
      "uid": 4224320,
      "tags": {
        "name": "Saurier",
        "name:oc": "Saurier",
        "place": "village",
        "postal_code": "63320",
        "source:name:oc": "ieo-bdtopoc"
      }
    },
    {
      "type": "node",
      "id": 954730776,
      "lat": 45.5380985,
      "lon": 2.8187811,
      "timestamp": "2015-04-26T16:58:48Z",
      "version": 2,
      "changeset": 30509850,
      "user": "b_mortgat",
      "uid": 587405,
      "tags": {
        "name": "Source de la Dordogne",
        "natural": "spring"
      }
    },
    {
      "type": "node",
      "id": 967690239,
      "lat": 45.466095,
      "lon": 3.3986955,
      "timestamp": "2020-04-21T11:31:30Z",
      "version": 10,
      "changeset": 83877714,
      "user": "oc-OpenStreetMap",
      "uid": 4224320,
      "tags": {
        "addr:postcode": "63580",
        "name": "La Chapelle-sur-Usson",
        "name:oc": "La Chapèla D'Usson",
        "place": "village",
        "ref:FR:SIREN": "216300889",
        "source": "Orthophotographie CRAIG/TopoGEODIS 2009",
        "source:name:oc": "ieo-bdtopoc"
      }
    },
    {
      "type": "node",
      "id": 969134185,
      "lat": 45.5086443,
      "lon": 2.8262063,
      "timestamp": "2021-03-07T21:05:16Z",
      "version": 2,
      "changeset": 100592052,
      "user": "GeoMechain",
      "uid": 10398640,
      "tags": {
        "ele": "1721",
        "name": "Puy de Paillaret",
        "natural": "peak",
        "source": "CRAIG",
        "wikidata": "Q31635050"
      }
    },
    {
      "type": "node",
      "id": 978098700,
      "lat": 45.5219081,
      "lon": 3.0901291,
      "timestamp": "2010-11-06T02:22:31Z",
      "version": 1,
      "changeset": 6299704,
      "user": "Dam63",
      "uid": 58700,
      "tags": {
        "name": "Félines",
        "place": "hamlet"
      }
    },
    {
      "type": "node",
      "id": 979490295,
      "lat": 45.4973587,
      "lon": 3.1316699,
      "timestamp": "2010-11-06T19:21:49Z",
      "version": 1,
      "changeset": 6305351,
      "user": "Dam63",
      "uid": 58700,
      "tags": {
        "name": "La Violle Haute",
        "place": "hamlet"
      }
    },
    {
      "type": "node",
      "id": 979490328,
      "lat": 45.5001283,
      "lon": 3.1344828,
      "timestamp": "2012-09-07T19:49:43Z",
      "version": 2,
      "changeset": 13027161,
      "user": "rabeyroux",
      "uid": 805590,
      "tags": {
        "name": "Colamine",
        "place": "hamlet"
      }
    },
    {
      "type": "node",
      "id": 979490348,
      "lat": 45.4978699,
      "lon": 3.1336314,
      "timestamp": "2010-11-06T19:21:51Z",
      "version": 1,
      "changeset": 6305351,
      "user": "Dam63",
      "uid": 58700,
      "tags": {
        "name": "La Violle Basse",
        "place": "hamlet"
      }
    },
    {
      "type": "node",
      "id": 979514072,
      "lat": 45.5493815,
      "lon": 3.1343277,
      "timestamp": "2020-04-19T18:04:40Z",
      "version": 9,
      "changeset": 83781067,
      "user": "oc-OpenStreetMap",
      "uid": 4224320,
      "tags": {
        "addr:postcode": "63320",
        "name": "Saint-Vincent",
        "name:oc": "Sant Vincent",
        "place": "village",
        "source:name:oc": "ieo-bdtopoc"
      }
    },
    {
      "type": "node",
      "id": 986391411,
      "lat": 45.3932043,
      "lon": 2.8801485,
      "timestamp": "2020-04-21T11:31:30Z",
      "version": 8,
      "changeset": 83877714,
      "user": "oc-OpenStreetMap",
      "uid": 4224320,
      "tags": {
        "addr:postcode": "63850",
        "name": "Espinchal",
        "name:oc": "Espinchal",
        "place": "village",
        "source": "cadastre-dgi-fr source : Direction Générale des Impôts - Cadastre. Mise à jour : 2010",
        "source:name:oc": "ieo-bdtopoc"
      }
    },
    {
      "type": "node",
      "id": 990064148,
      "lat": 45.3620828,
      "lon": 3.2218838,
      "timestamp": "2020-04-21T11:31:31Z",
      "version": 7,
      "changeset": 83877714,
      "user": "oc-OpenStreetMap",
      "uid": 4224320,
      "tags": {
        "addr:postcode": "43410",
        "census": "2006",
        "name": "Léotoing",
        "name:oc": "Lauton",
        "place": "village",
        "population": "238",
        "population:date": "2015-01-01",
        "ref:FR:SIREN": "214301210",
        "source:name:oc": "ieo-bdtopoc",
        "source:population": "INSEE"
      }
    },
    {
      "type": "node",
      "id": 990064729,
      "lat": 45.3559964,
      "lon": 3.2199754,
      "timestamp": "2010-11-15T14:26:43Z",
      "version": 1,
      "changeset": 6377805,
      "user": "Pantoine",
      "uid": 339468,
      "tags": {
        "name": "Lanau",
        "place": "hamlet"
      }
    },
    {
      "type": "node",
      "id": 990069439,
      "lat": 45.4041606,
      "lon": 3.1260365,
      "timestamp": "2020-04-20T15:30:16Z",
      "version": 13,
      "changeset": 83830088,
      "user": "oc-OpenStreetMap",
      "uid": 4224320,
      "tags": {
        "addr:postcode": "63420",
        "alt_name": "Ardes-sur-Couze",
        "census": "2006",
        "name": "Ardes",
        "name:oc": "Ardes",
        "place": "village",
        "ref:FR:SIREN": "216300095",
        "source:name:oc": "ieo-bdtopoc"
      }
    },
    {
      "type": "node",
      "id": 990260016,
      "lat": 45.4578993,
      "lon": 3.5035134,
      "timestamp": "2018-06-08T20:36:51Z",
      "version": 3,
      "changeset": 59678543,
      "user": "Luc2758",
      "uid": 8358130,
      "tags": {
        "name": "Le Chuchadi",
        "place": "hamlet"
      }
    },
    {
      "type": "node",
      "id": 990464152,
      "lat": 45.571822,
      "lon": 2.9557697,
      "timestamp": "2013-03-09T21:47:30Z",
      "version": 2,
      "changeset": 15307861,
      "user": "la colle",
      "uid": 530603,
      "tags": {
        "name": "Groire",
        "place": "hamlet"
      }
    },
    {
      "type": "node",
      "id": 994965098,
      "lat": 45.5452784,
      "lon": 3.4239181,
      "timestamp": "2010-11-19T17:22:10Z",
      "version": 1,
      "changeset": 6408651,
      "user": "Jean Luc",
      "uid": 336355,
      "tags": {
        "name": "Le Bouchet",
        "place": "hamlet"
      }
    },
    {
      "type": "node",
      "id": 994965578,
      "lat": 45.5505152,
      "lon": 3.3933679,
      "timestamp": "2020-02-08T01:27:20Z",
      "version": 12,
      "changeset": 80713306,
      "user": "vincent_95",
      "uid": 49047,
      "tags": {
        "addr:postcode": "63490",
        "name": "Saint-Quentin-sur-Sauxillanges",
        "place": "village",
        "source": "Orthophotographie CRAIG/TopoGEODIS 2009"
      }
    },
    {
      "type": "node",
      "id": 995842241,
      "lat": 45.5155001,
      "lon": 3.4985049,
      "timestamp": "2017-11-28T15:08:53Z",
      "version": 3,
      "changeset": 54151691,
      "user": "Wawit",
      "uid": 7084300,
      "tags": {
        "name": "Le Faux",
        "place": "hamlet"
      }
    },
    {
      "type": "node",
      "id": 996178992,
      "lat": 45.4957182,
      "lon": 3.3514918,
      "timestamp": "2010-11-20T14:46:30Z",
      "version": 1,
      "changeset": 6414721,
      "user": "Jean Luc",
      "uid": 336355,
      "tags": {
        "name": "Sarpoil",
        "place": "hamlet",
        "source": "Orthophotographie CRAIG/TopoGEODIS 2009"
      }
    },
    {
      "type": "node",
      "id": 1030637858,
      "lat": 45.3398134,
      "lon": 2.9418382,
      "timestamp": "2015-01-18T09:13:25Z",
      "version": 4,
      "changeset": 28225635,
      "user": "geow",
      "uid": 223093,
      "tags": {
        "ele": "1291",
        "mountain_pass": "yes",
        "name": "Col de Chamaroux",
        "natural": "saddle"
      }
    },
    {
      "type": "node",
      "id": 1105232014,
      "lat": 45.2112211,
      "lon": 3.4835504,
      "timestamp": "2019-11-25T17:01:48Z",
      "version": 6,
      "changeset": 77535779,
      "user": "StephaneP",
      "uid": 439947,
      "tags": {
        "addr:postcode": "43230",
        "name": "Salzuit",
        "place": "village",
        "population": "363",
        "population:date": "2015-01-01",
        "ref:FR:SIREN": "214302325",
        "source": "cadastre-dgi-fr source : Direction Générale des Impôts - Cadastre. Mise à jour : 2011",
        "source:population": "INSEE"
      }
    },
    {
      "type": "node",
      "id": 1108516059,
      "lat": 45.5626625,
      "lon": 2.9380623,
      "timestamp": "2012-02-12T13:46:17Z",
      "version": 2,
      "changeset": 10663085,
      "user": "didier2020",
      "uid": 300459,
      "tags": {
        "name": "La Ribeyre",
        "place": "hamlet",
        "source": "cadastre-dgi-fr source : Direction Générale des Impôts - Cadastre ; mise à jour : 2010"
      }
    },
    {
      "type": "node",
      "id": 1119579345,
      "lat": 45.5471327,
      "lon": 2.9467225,
      "timestamp": "2011-01-25T02:39:52Z",
      "version": 1,
      "changeset": 7080059,
      "user": "ddn2",
      "uid": 186835,
      "tags": {
        "name": "Champ Monière",
        "place": "hamlet",
        "source": "cadastre-dgi-fr source : Direction Générale des Impôts - Cadastre ; mise à jour : 2009;cadastre-dgi-fr source : Direction Générale des Impôts - Cadastre ; mise à jour : 2010"
      }
    },
    {
      "type": "node",
      "id": 1119579355,
      "lat": 45.5490284,
      "lon": 2.9660704,
      "timestamp": "2011-01-25T02:39:53Z",
      "version": 1,
      "changeset": 7080059,
      "user": "ddn2",
      "uid": 186835,
      "tags": {
        "name": "Maisse",
        "place": "hamlet",
        "source": "cadastre-dgi-fr source : Direction Générale des Impôts - Cadastre ; mise à jour : 2009;cadastre-dgi-fr source : Direction Générale des Impôts - Cadastre ; mise à jour : 2010"
      }
    },
    {
      "type": "node",
      "id": 1119579617,
      "lat": 45.5443064,
      "lon": 2.9572378,
      "timestamp": "2011-01-25T02:40:06Z",
      "version": 1,
      "changeset": 7080059,
      "user": "ddn2",
      "uid": 186835,
      "tags": {
        "name": "Chatelguison",
        "place": "hamlet",
        "source": "cadastre-dgi-fr source : Direction Générale des Impôts - Cadastre ; mise à jour : 2009;cadastre-dgi-fr source : Direction Générale des Impôts - Cadastre ; mise à jour : 2010"
      }
    },