{
  "osm3s": {
    "timestamp_osm_date": "2022-08-26T23:59:59Z",
    "timestamp_osm_base": "2022-08-27T04:47:30Z",
    "copyright": "The data included in this document is from www.openstreetmap.org. The data is made available under ODbL."
  },
  "elements": [
    {
      "type": "node",
      "id": 3703016843,
      "lat": 52.8852723,
      "lon": -117.0432557,
      "timestamp": "2015-08-18T14:36:17Z",
      "version": 1,
      "changeset": 33416781,
      "user": "Shawn Benbow",
      "uid": 29712,
      "tags": {
        "source": "NRCan-CanVec-10.0",
        "tourism": "camp_site"
      }
    },
    {
      "type": "node",
      "id": 3704918974,
      "lat": 52.724595,
      "lon": -117.1345659,
      "timestamp": "2020-09-15T02:37:22Z",
      "version": 3,
      "changeset": 90891666,
      "user": "Sebastiaan",
      "uid": 12396,
      "tags": {
        "name": "Southesk Pass",
        "natural": "saddle",
        "source": "NRCan-CanVec-10.0"
      }
    },
    {
      "type": "node",
      "id": 3968468943,
      "lat": 52.4883052,
      "lon": -117.4091362,
      "timestamp": "2016-01-26T14:23:25Z",
      "version": 1,
      "changeset": 36818075,
      "user": "Viajero Perdido",
      "uid": 2365330,
      "tags": {
        "name": "Avalanche",
        "tourism": "camp_site"
      }
    },
    {
      "type": "node",
      "id": 4045048563,
      "lat": 52.8298833,
      "lon": -116.7918742,
      "timestamp": "2016-03-07T03:24:41Z",
      "version": 1,
      "changeset": 37657511,
      "user": "Viajero Perdido",
      "uid": 2365330,
      "tags": {
        "alt_name": "Mountain Cree Camp",
        "name": "Smallboy Camp",
        "place": "hamlet"
      }
    },
    {
      "type": "node",
      "id": 7924146682,
      "lat": 52.815903,
      "lon": -117.2851103,
      "timestamp": "2020-09-19T20:05:33Z",
      "version": 1,
      "changeset": 91160237,
      "user": "Sebastiaan",
      "uid": 12396,
      "tags": {
        "backcountry": "yes",
        "capacity": "4",
        "name": "Medicine Tent",
        "operator": "Parks Canada",
        "reservation": "required",
        "tents": "yes",
        "tourism": "camp_site"
      }
    },
    {
      "type": "node",
      "id": 7924146683,
      "lat": 52.7071922,
      "lon": -117.1014396,
      "timestamp": "2020-09-19T20:05:33Z",
      "version": 1,
      "changeset": 91160237,
      "user": "Sebastiaan",
      "uid": 12396,
      "tags": {
        "backcountry": "yes",
        "capacity": "4",
        "name": "Cairn Pass",
        "operator": "Parks Canada",
        "reservation": "required",
        "tents": "yes",
        "tourism": "camp_site"
      }
    },
    {
      "type": "node",
      "id": 7924146684,
      "lat": 52.7638071,
      "lon": -117.1996679,
      "timestamp": "2020-09-19T20:05:33Z",
      "version": 1,
      "changeset": 91160237,
      "user": "Sebastiaan",
      "uid": 12396,
      "tags": {
        "backcountry": "yes",
        "capacity": "4",
        "name": "La Grace",
        "operator": "Parks Canada",
        "reservation": "required",
        "tents": "yes",
        "tourism": "camp_site"
      }
    },
    {
      "type": "node",
      "id": 7924191803,
      "lat": 52.8435101,
      "lon": -117.3945536,
      "timestamp": "2020-09-19T20:41:59Z",
      "version": 1,
      "changeset": 91160867,
      "user": "Sebastiaan",
      "uid": 12396,
      "tags": {
        "backcountry": "yes",
        "name": "Rocky Forks Horse",
        "operator": "Parks Canada",
        "source": "Parks Canada Brochure",
        "tourism": "camp_site"
      }
    },
    {
      "type": "node",
      "id": 7924191804,
      "lat": 52.8435201,
      "lon": -117.3936302,
      "timestamp": "2020-09-19T20:41:59Z",
      "version": 1,
      "changeset": 91160867,
      "user": "Sebastiaan",
      "uid": 12396,
      "tags": {
        "backcountry": "yes",
        "capacity": "4",
        "name": "Rocky Forks",
        "operator": "Parks Canada",
        "reservation": "required",
        "source": "Parks Canada Brochure",
        "tents": "yes",
        "tourism": "camp_site"
      }
    },
    {
      "type": "node",
      "id": 7924191806,
      "lat": 52.5591319,
      "lon": -116.9029529,
      "timestamp": "2020-09-19T20:41:59Z",
      "version": 1,
      "changeset": 91160867,
      "user": "Sebastiaan",
      "uid": 12396,
      "tags": {
        "backcountry": "yes",
        "capacity": "4",
        "name": "Isaac Creek",
        "operator": "Parks Canada",
        "reservation": "required",
        "source": "Parks Canada Brochure",
        "tents": "yes",
        "tourism": "camp_site"
      }
    },
    {
      "type": "node",
      "id": 7924191807,
      "lat": 52.6541022,
      "lon": -116.8582063,
      "timestamp": "2020-09-19T20:41:59Z",
      "version": 1,
      "changeset": 91160867,
      "user": "Sebastiaan",
      "uid": 12396,
      "tags": {
        "backcountry": "yes",
        "capacity": "4",
        "name": "Southesk",
        "operator": "Parks Canada",
        "reservation": "required",
        "source": "Parks Canada Brochure",
        "tents": "yes",
        "tourism": "camp_site"
      }
    },
    {
      "type": "node",
      "id": 7924191808,
      "lat": 52.6565085,
      "lon": -116.9587183,
      "timestamp": "2020-09-19T20:41:59Z",
      "version": 1,
      "changeset": 91160867,
      "user": "Sebastiaan",
      "uid": 12396,
      "tags": {
        "backcountry": "yes",
        "capacity": "4",
        "name": "Cairn River",
        "operator": "Parks Canada",
        "reservation": "required",
        "source": "Parks Canada Brochure",
        "tents": "yes",
        "tourism": "camp_site"
      }
    },
    {
      "type": "node",
      "id": 7924191809,
      "lat": 52.7922893,
      "lon": -117.2530456,
      "timestamp": "2020-09-19T20:41:59Z",
      "version": 1,
      "changeset": 91160867,
      "user": "Sebastiaan",
      "uid": 12396,
      "tags": {
        "backcountry": "yes",
        "name": "Medicine Tent Horse",
        "operator": "Parks Canada",
        "source": "Parks Canada Brochure",
        "tourism": "camp_site"
      }
    }
  ]
}