{
  "osm3s": {
    "timestamp_osm_date": "2022-08-26T23:59:59Z",
    "timestamp_osm_base": "2022-08-27T04:47:30Z",
    "copyright": "The data included in this document is from www.openstreetmap.org. The data is made available under ODbL."
  },
  "elements": [
    {
      "type": "node",
      "id": 2204801981,
      "lat": 52.4175455,
      "lon": -117.3907225,
      "timestamp": "2013-03-16T15:34:07Z",
      "version": 1,
      "changeset": 15385249,
      "user": "Peter Maiwald",
      "uid": 90528,
      "tags": {
        "name": "Jonas Creek",
        "tourism": "camp_site"
      }
    },
    {
      "type": "node",
      "id": 2906687852,
      "lat": 52.1078836,
      "lon": -116.860574,
      "timestamp": "2019-12-12T20:08:34Z",
      "version": 2,
      "changeset": 78336407,
      "user": "Viajero Perdido",
      "uid": 2365330,
      "tags": {
        "name": "Sunset Pass",
        "natural": "saddle",
        "source": "NRCan-CanVec-10.0"
      }
    },
    {
      "type": "node",
      "id": 2908432738,
      "lat": 52.2404921,
      "lon": -116.9737738,
      "timestamp": "2019-12-12T20:08:34Z",
      "version": 2,
      "changeset": 78336407,
      "user": "Viajero Perdido",
      "uid": 2365330,
      "tags": {
        "name": "Cline Pass",
        "natural": "saddle",
        "source": "NRCan-CanVec-10.0"
      }
    },
    {
      "type": "node",
      "id": 3005596914,
      "lat": 52.2361551,
      "lon": -117.213461,
      "timestamp": "2018-08-20T09:42:31Z",
      "version": 3,
      "changeset": 61817263,
      "user": "Kunz",
      "uid": 215756,
      "tags": {
        "name": "Wilcox Pass",
        "natural": "saddle",
        "source": "NRCan-CanVec-10.0"
      }
    },
    {
      "type": "node",
      "id": 3613667338,
      "lat": 52.0774422,
      "lon": -117.2108624,
      "timestamp": "2015-06-23T22:09:01Z",
      "version": 1,
      "changeset": 32171890,
      "user": "mrCWEP",
      "uid": 2903107,
      "tags": {
        "source": "NRCan-CanVec-10.0",
        "tourism": "camp_site"
      }
    },
    {
      "type": "node",
      "id": 3613985017,
      "lat": 52.2206126,
      "lon": -117.0267636,
      "timestamp": "2016-03-11T18:51:17Z",
      "version": 3,
      "changeset": 37768770,
      "user": "brendan714",
      "uid": 1944290,
      "tags": {
        "name": "Cataract Pass",
        "natural": "saddle",
        "source": "NRCan-CanVec-10.0"
      }
    },
    {
      "type": "node",
      "id": 3613985018,
      "lat": 52.2408347,
      "lon": -117.0927192,
      "timestamp": "2018-08-20T09:32:33Z",
      "version": 3,
      "changeset": 61816954,
      "user": "Kunz",
      "uid": 215756,
      "tags": {
        "name": "Nigel Pass",
        "natural": "saddle",
        "source": "NRCan-CanVec-10.0"
      }
    },
    {
      "type": "node",
      "id": 3613985022,
      "lat": 52.2111812,
      "lon": -117.1575532,
      "timestamp": "2019-04-01T15:04:41Z",
      "version": 3,
      "changeset": 68758055,
      "user": "ManelG",
      "uid": 2491053,
      "tags": {
        "name": "Sunwapta Pass",
        "natural": "saddle",
        "source": "NRCan-CanVec-10.0"
      }
    },
    {
      "type": "node",
      "id": 3704825839,
      "lat": 52.3338844,
      "lon": -117.1686447,
      "timestamp": "2019-12-12T20:08:34Z",
      "version": 2,
      "changeset": 78336407,
      "user": "Viajero Perdido",
      "uid": 2365330,
      "tags": {
        "name": "Jonas Pass",
        "natural": "saddle",
        "source": "NRCan-CanVec-10.0"
      }
    },
    {
      "type": "node",
      "id": 3704825848,
      "lat": 52.3845679,
      "lon": -117.1713375,
      "timestamp": "2019-12-12T20:08:34Z",
      "version": 2,
      "changeset": 78336407,
      "user": "Viajero Perdido",
      "uid": 2365330,
      "tags": {
        "name": "Poboktan Pass",
        "natural": "saddle",
        "source": "NRCan-CanVec-10.0"
      }
    },
    {
      "type": "node",
      "id": 3704825851,
      "lat": 52.254161,
      "lon": -117.2312304,
      "timestamp": "2019-12-12T20:08:34Z",
      "version": 2,
      "changeset": 78336407,
      "user": "Viajero Perdido",
      "uid": 2365330,
      "tags": {
        "name": "Wilcox Pass",
        "natural": "saddle",
        "source": "NRCan-CanVec-10.0"
      }
    },
    {
      "type": "node",
      "id": 3704841615,
      "lat": 52.2995163,
      "lon": -117.0543224,
      "timestamp": "2015-08-19T14:26:25Z",
      "version": 1,
      "changeset": 33440957,
      "user": "Shawn Benbow",
      "uid": 29712,
      "tags": {
        "source": "NRCan-CanVec-10.0",
        "tourism": "camp_site"
      }
    },
    {
      "type": "node",
      "id": 4211306336,
      "lat": 52.3777273,
      "lon": -117.2045108,
      "timestamp": "2016-05-27T21:37:21Z",
      "version": 1,
      "changeset": 39614319,
      "user": "Viajero Perdido",
      "uid": 2365330,
      "tags": {
        "name": "Jonas Shoulder",
        "natural": "saddle"
      }
    },
    {
      "type": "node",
      "id": 4311836506,
      "lat": 52.4005465,
      "lon": -117.0355438,
      "timestamp": "2016-07-19T20:38:43Z",
      "version": 1,
      "changeset": 40879961,
      "user": "Viajero Perdido",
      "uid": 2365330,
      "tags": {
        "ele": "1816",
        "name": "Brazeau Lake",
        "tourism": "camp_site"
      }
    },
    {
      "type": "node",
      "id": 4311836507,
      "lat": 52.3936006,
      "lon": -117.0058249,
      "timestamp": "2016-07-19T20:38:43Z",
      "version": 1,
      "changeset": 40879961,
      "user": "Viajero Perdido",
      "uid": 2365330,
      "tags": {
        "ele": "1737",
        "name": "Brazeau River",
        "note": "Who do you believe? Parks Canada campground coords, or NRCan trail coords on other side of river?",
        "tourism": "camp_site"
      }
    },
    {
      "type": "node",
      "id": 4311836508,
      "lat": 52.2805662,
      "lon": -117.076664,
      "timestamp": "2021-07-06T13:10:35Z",
      "version": 2,
      "changeset": 107499514,
      "user": "FS99A",
      "uid": 2444125,
      "tags": {
        "ele": "1935",
        "name": "Four Point",
        "operator": "Parks Canada",
        "tourism": "camp_site"
      }
    },
    {
      "type": "node",
      "id": 4311836509,
      "lat": 52.3816603,
      "lon": -117.1180485,
      "timestamp": "2016-07-19T20:38:43Z",
      "version": 1,
      "changeset": 40879961,
      "user": "Viajero Perdido",
      "uid": 2365330,
      "tags": {
        "ele": "2012",
        "name": "John-John Creek",
        "tourism": "camp_site"
      }
    },
    {
      "type": "node",
      "id": 4311836510,
      "lat": 52.3955499,
      "lon": -117.207197,
      "timestamp": "2021-07-06T13:12:26Z",
      "version": 2,
      "changeset": 107499623,
      "user": "FS99A",
      "uid": 2444125,
      "tags": {
        "ele": "2094",
        "fee": "yes",
        "name": "Jonas Cutoff",
        "operator": "Parks Canada",
        "tourism": "camp_site"
      }
    },
    {
      "type": "node",
      "id": 4311836512,
      "lat": 52.4665945,
      "lon": -117.3493268,
      "timestamp": "2021-07-08T21:37:03Z",
      "version": 3,
      "changeset": 107661914,
      "user": "FS99A",
      "uid": 2444125,
      "tags": {
        "ele": "1916",
        "name": "Poboktan Campground",
        "operator": "Parks Canada",
        "tourism": "camp_site"
      }
    },
    {
      "type": "node",
      "id": 4354259607,
      "lat": 52.2610371,
      "lon": -117.1031045,
      "timestamp": "2016-08-17T16:06:54Z",
      "version": 1,
      "changeset": 41515423,
      "user": "Viajero Perdido",
      "uid": 2365330,
      "tags": {
        "ele": "2016",
        "name": "Boulder Creek",
        "tourism": "camp_site"
      }
    },
    {
      "type": "node",
      "id": 4354259608,
      "lat": 52.4463454,
      "lon": -117.3015404,
      "timestamp": "2020-06-22T20:53:37Z",
      "version": 2,
      "changeset": 86998624,
      "user": "melaniegaiagps",
      "uid": 10385927,
      "tags": {
        "ele": "1773",
        "name": "Waterfalls",
        "tourism": "camp_site"
      }
    },
    {
      "type": "node",
      "id": 4713565491,
      "lat": 52.1262187,
      "lon": -116.8700155,
      "timestamp": "2017-03-02T15:47:12Z",
      "version": 1,
      "changeset": 46525398,
      "user": "MFitch",
      "uid": 3426310,
      "tags": {
        "name": "Pinto Lake primitive campground",
        "name:en": "Pinto Lake primitive campground",
        "tourism": "camp_site"
      }
    },
    {
      "type": "node",
      "id": 4952058494,
      "lat": 52.0879325,
      "lon": -116.8952355,
      "timestamp": "2020-07-22T00:23:28Z",
      "version": 2,
      "changeset": 88316303,
      "user": "MFitch",
      "uid": 3426310,
      "tags": {
        "backcountry": "yes",
        "capacity": "4",
        "drinking_water": "no",
        "fee": "yes",
        "internet_access": "no",
        "name": "No5 - Norman Creek",
        "name:en": "Norman Lake Campground - No5",
        "openfire": "yes",
        "operator": "Parks Canada",
        "tents": "yes",
        "tourism": "camp_site"
      }
    },
    {
      "type": "node",
      "id": 6129363037,
      "lat": 52.0771793,
      "lon": -117.2132164,
      "timestamp": "2018-12-10T21:57:40Z",
      "version": 1,
      "changeset": 65357696,
      "user": "BTH",
      "uid": 481447,
      "tags": {
        "name": "Castleguard Cave (approximate location)",
        "natural": "cave_entrance"
      }
    },
    {
      "type": "node",
      "id": 7924191805,
      "lat": 52.4700006,
      "lon": -116.9021946,
      "timestamp": "2020-09-19T20:41:59Z",
      "version": 1,
      "changeset": 91160867,
      "user": "Sebastiaan",
      "uid": 12396,
      "tags": {
        "backcountry": "yes",
        "capacity": "4",
        "name": "Arete",
        "operator": "Parks Canada",
        "reservation": "required",
        "source": "Parks Canada Brochure",
        "tents": "yes",
        "tourism": "camp_site"
      }
    },
    {
      "type": "node",
      "id": 9970065034,
      "lat": 52.2191979,
      "lon": -117.1754679,
      "timestamp": "2022-08-22T14:18:30Z",
      "version": 1,
      "changeset": 125229698,
      "user": "Paydayclown",
      "uid": 6898283,
      "tags": {
        "amenity": "drinking_water"
      }
    },
    {
      "type": "node",
      "id": 9970103518,
      "lat": 52.2180686,
      "lon": -117.1770742,
      "timestamp": "2022-08-22T14:18:32Z",
      "version": 1,
      "changeset": 125229698,
      "user": "Paydayclown",
      "uid": 6898283,
      "tags": {
        "amenity": "drinking_water"
      }
    },
    {
      "type": "way",
      "id": 613339518,
      "timestamp": "2020-02-05T00:41:04Z",
      "version": 2,
      "changeset": 80558441,
      "user": "zzptichka",
      "uid": 215433,
      "center": {
        "lat": 52.219179,
        "lon": -117.1758091
      },
      "nodes": [],
      "tags": {
        "capacity": "46",
        "fee": "yes",
        "internet_access": "no",
        "name": "Wilcox Creek Campground",
        "operator": "Parks Canada",
        "tourism": "camp_site",
        "website": "https://www.pc.gc.ca/en/pn-np/ab/jasper/activ/passez-stay/camping"
      }
    },
    {
      "type": "way",
      "id": 733428975,
      "timestamp": "2019-10-10T23:28:06Z",
      "version": 1,
      "changeset": 75536789,
      "user": "zzptichka",
      "uid": 215433,
      "center": {
        "lat": 52.2203855,
        "lon": -117.2044322
      },
      "nodes": [],
      "tags": {
        "description": "Tenting only.",
        "fee": "yes",
        "internet_access": "no",
        "name": "Columbia Icefield",
        "operator": "Parks Canada",
        "tourism": "camp_site",
        "website": "https://www.pc.gc.ca/en/pn-np/ab/jasper/activ/passez-stay/camping"
      }
    },
    {
      "type": "way",
      "id": 769779825,
      "timestamp": "2020-02-05T00:39:29Z",
      "version": 1,
      "changeset": 80558427,
      "user": "zzptichka",
      "uid": 215433,
      "center": {
        "lat": 52.4166062,
        "lon": -117.3951723
      },
      "nodes": [],
      "tags": {
        "capacity": "26",
        "name": "Jonas Creek Campground",
        "tourism": "camp_site"
      }
    }
  ]
}