{
  "osm3s": {
    "timestamp_osm_date": "2022-08-27T23:59:59Z",
    "timestamp_osm_base": "2022-08-28T04:44:09Z",
    "copyright": "The data included in this document is from www.openstreetmap.org. The data is made available under ODbL."
  },
  "elements": [
    {
      "type": "node",
      "id": 51970243,
      "lat": 51.433333,
      "lon": -117.0500085,
      "timestamp": "2012-07-19T01:15:38Z",
      "version": 5,
      "changeset": 12303541,
      "user": "OSMF Redaction Account",
      "uid": 722137,
      "tags": {
        "is_in": "British Columbia",
        "name": "Blaeberry",
        "place": "hamlet"
      }
    },
    {
      "type": "node",
      "id": 51971610,
      "lat": 51.2982585,
      "lon": -116.9642785,
      "timestamp": "2020-09-28T05:15:52Z",
      "version": 11,
      "changeset": 91610894,
      "user": "jcob250",
      "uid": 9600671,
      "tags": {
        "name": "Golden",
        "place": "town"
      }
    },
    {
      "type": "node",
      "id": 349315731,
      "lat": 51.298243,
      "lon": -117.0499267,
      "timestamp": "2020-08-07T17:00:11Z",
      "version": 5,
      "changeset": 89102653,
      "user": "ingalls",
      "uid": 305985,
      "tags": {
        "leisure": "sports_centre",
        "name": "Kicking Horse Mountain Resort",
        "place": "village",
        "sport": "skiing",
        "url": "http://www.kickinghorseresort.com/"
      }
    },
    {
      "type": "node",
      "id": 1570460208,
      "lat": 51.3079179,
      "lon": -117.0600792,
      "timestamp": "2011-12-31T04:49:52Z",
      "version": 1,
      "changeset": 10251830,
      "user": "MuddyHikers",
      "uid": 577328,
      "tags": {
        "amenity": "shelter",
        "name": "Cabin"
      }
    },
    {
      "type": "node",
      "id": 1570460209,
      "lat": 51.3057917,
      "lon": -117.0590385,
      "timestamp": "2011-12-31T04:49:52Z",
      "version": 1,
      "changeset": 10251830,
      "user": "MuddyHikers",
      "uid": 577328,
      "tags": {
        "amenity": "shelter",
        "name": "Dawn Mountain Day Lodge"
      }
    },
    {
      "type": "node",
      "id": 1889298487,
      "lat": 51.2138656,
      "lon": -117.27466,
      "timestamp": "2012-08-30T03:21:06Z",
      "version": 1,
      "changeset": 12912827,
      "user": "MuddyHikers",
      "uid": 577328,
      "tags": {
        "tourism": "camp_site"
      }
    },
    {
      "type": "node",
      "id": 1889301733,
      "lat": 51.2670966,
      "lon": -117.2986674,
      "timestamp": "2012-08-30T03:22:23Z",
      "version": 1,
      "changeset": 12912827,
      "user": "MuddyHikers",
      "uid": 577328,
      "tags": {
        "tourism": "camp_site"
      }
    },
    {
      "type": "node",
      "id": 3385463685,
      "lat": 51.3478827,
      "lon": -117.1926773,
      "timestamp": "2015-03-06T04:21:33Z",
      "version": 1,
      "changeset": 29281893,
      "user": "alester",
      "uid": 307202,
      "tags": {
        "tourism": "camp_site"
      }
    },
    {
      "type": "node",
      "id": 3387140915,
      "lat": 51.5010041,
      "lon": -117.1843717,
      "timestamp": "2018-11-27T19:06:29Z",
      "version": 2,
      "changeset": 64948257,
      "user": "Bernd_BDP",
      "uid": 38617,
      "tags": {
        "access": "yes",
        "fee": "no",
        "internet_access": "no",
        "name": "Waitabit Creek Recreation Site",
        "tourism": "camp_site"
      }
    },
    {
      "type": "node",
      "id": 3387140916,
      "lat": 51.5156035,
      "lon": -116.9574336,
      "timestamp": "2015-03-07T06:17:50Z",
      "version": 1,
      "changeset": 29302872,
      "user": "alester",
      "uid": 307202,
      "tags": {
        "tourism": "camp_site"
      }
    },
    {
      "type": "node",
      "id": 3387140917,
      "lat": 51.5298384,
      "lon": -116.8873246,
      "timestamp": "2015-03-07T06:17:50Z",
      "version": 1,
      "changeset": 29302872,
      "user": "alester",
      "uid": 307202,
      "tags": {
        "tourism": "camp_site"
      }
    },
    {
      "type": "node",
      "id": 3387140918,
      "lat": 51.5313723,
      "lon": -117.257524,
      "timestamp": "2015-03-07T06:17:50Z",
      "version": 1,
      "changeset": 29302872,
      "user": "alester",
      "uid": 307202,
      "tags": {
        "tourism": "camp_site"
      }
    },
    {
      "type": "node",
      "id": 3387140922,
      "lat": 51.5673555,
      "lon": -117.3880647,
      "timestamp": "2021-11-09T04:01:26Z",
      "version": 2,
      "changeset": 113546664,
      "user": "MuddyHikers",
      "uid": 577328,
      "tags": {
        "capacity": "3",
        "caravans": "yes",
        "name": "Susan Lake",
        "tents": "yes",
        "tourism": "camp_site"
      }
    },
    {
      "type": "node",
      "id": 3387140925,
      "lat": 51.5928924,
      "lon": -117.421655,
      "timestamp": "2015-03-07T06:17:50Z",
      "version": 1,
      "changeset": 29302872,
      "user": "alester",
      "uid": 307202,
      "tags": {
        "tourism": "camp_site"
      }
    },
    {
      "type": "node",
      "id": 3752165739,
      "lat": 51.5104296,
      "lon": -116.9616712,
      "timestamp": "2021-01-11T18:50:53Z",
      "version": 2,
      "changeset": 97325474,
      "user": "Rps333",
      "uid": 596047,
      "tags": {
        "tourism": "camp_site"
      }
    },
    {
      "type": "node",
      "id": 3752165770,
      "lat": 51.5283635,
      "lon": -116.8916074,
      "timestamp": "2015-09-20T22:01:32Z",
      "version": 1,
      "changeset": 34150560,
      "user": "Viajero Perdido",
      "uid": 2365330,
      "tags": {
        "tourism": "camp_site"
      }
    },
    {
      "type": "node",
      "id": 4106621303,
      "lat": 51.2978226,
      "lon": -116.9470634,
      "timestamp": "2016-04-07T22:20:30Z",
      "version": 1,
      "changeset": 38393625,
      "user": "Cat-Box",
      "uid": 650014,
      "tags": {
        "amenity": "drinking_water"
      }
    },
    {
      "type": "node",
      "id": 4106621304,
      "lat": 51.2977866,
      "lon": -116.9471013,
      "timestamp": "2016-04-07T22:20:30Z",
      "version": 1,
      "changeset": 38393625,
      "user": "Cat-Box",
      "uid": 650014,
      "tags": {
        "amenity": "drinking_water"
      }
    },
    {
      "type": "node",
      "id": 4106621305,
      "lat": 51.2967175,
      "lon": -116.947044,
      "timestamp": "2016-04-07T22:20:30Z",
      "version": 1,
      "changeset": 38393625,
      "user": "Cat-Box",
      "uid": 650014,
      "tags": {
        "amenity": "drinking_water"
      }
    },
    {
      "type": "node",
      "id": 4106621307,
      "lat": 51.2966389,
      "lon": -116.9478074,
      "timestamp": "2020-12-15T19:25:19Z",
      "version": 2,
      "changeset": 95896578,
      "user": "Andrewtf",
      "uid": 12232073,
      "tags": {
        "amenity": "drinking_water"
      }
    },
    {
      "type": "node",
      "id": 4106621308,
      "lat": 51.2972263,
      "lon": -116.947701,
      "timestamp": "2020-12-15T19:25:19Z",
      "version": 2,
      "changeset": 95896578,
      "user": "Andrewtf",
      "uid": 12232073,
      "tags": {
        "amenity": "drinking_water"
      }
    },
    {
      "type": "node",
      "id": 4106621309,
      "lat": 51.297098,
      "lon": -116.9483115,
      "timestamp": "2016-04-07T22:20:30Z",
      "version": 1,
      "changeset": 38393625,
      "user": "Cat-Box",
      "uid": 650014,
      "tags": {
        "amenity": "drinking_water"
      }
    },
    {
      "type": "way",
      "id": 73925444,
      "timestamp": "2018-02-09T14:56:52Z",
      "version": 9,
      "changeset": 56218753,
      "user": "Matthew Darwin",
      "uid": 5633991,
      "center": {
        "lat": 51.3008281,
        "lon": -116.946275
      },
      "nodes": [],
      "tags": {
        "addr:city": "Golden",
        "addr:housenumber": "1430",
        "addr:postcode": "V0A 1H1",
        "addr:street": "Golden View Road",
        "capacity": "110",
        "fee": "yes",
        "landuse": "tourism",
        "name": "Whispering Spruce Campground",
        "phone": "+1-250-344-6680",
        "tourism": "camp_site",
        "website": "http://www.whisperingsprucecampground.com/"
      }
    },
    {
      "type": "way",
      "id": 144459616,
      "timestamp": "2019-09-18T21:32:16Z",
      "version": 3,
      "changeset": 74646221,
      "user": "Rps333",
      "uid": 596047,
      "center": {
        "lat": 51.3152697,
        "lon": -116.9739067
      },
      "nodes": [],
      "tags": {
        "addr:city": "Golden",
        "addr:housenumber": "1319",
        "addr:postcode": "V0A 1H0",
        "addr:street": "Trans-Canada Highway",
        "brand": "Shell",
        "brand:wikidata": "Q154950",
        "brand:wikipedia": "en:Royal Dutch Shell",
        "building": "retail",
        "name": "Shell",
        "phone": "+1-250-344-6613",
        "shop": "convenience",
        "source": "local_knowledge"
      }
    },
    {
      "type": "way",
      "id": 144459648,
      "timestamp": "2022-03-19T17:44:31Z",
      "version": 2,
      "changeset": 118674068,
      "user": "Rhodez",
      "uid": 13847282,
      "center": {
        "lat": 51.3173944,
        "lon": -116.974823
      },
      "nodes": [],
      "tags": {
        "brand": "Petro-Canada",
        "brand:wikidata": "Q1208279",
        "brand:wikipedia": "en:Petro-Canada",
        "building": "retail",
        "name": "Petro-Canada",
        "shop": "convenience",
        "source": "local_knowledge"
      }
    },
    {
      "type": "way",
      "id": 166907839,
      "timestamp": "2019-12-15T14:06:01Z",
      "version": 5,
      "changeset": 78430644,
      "user": "Rps333",
      "uid": 596047,
      "center": {
        "lat": 51.299887,
        "lon": -116.9652842
      },
      "nodes": [],
      "tags": {
        "addr:city": "Golden",
        "addr:housenumber": "410",
        "addr:postcode": "V0A 1H0",
        "addr:street": "9 Avenue North",
        "brand": "7-Eleven",
        "brand:wikidata": "Q259340",
        "brand:wikipedia": "en:7-Eleven",
        "building": "retail",
        "internet_access": "yes",
        "internet_access:fee": "no",
        "name": "7-Eleven",
        "opening_hours": "24/7",
        "operator": "7-Eleven",
        "shop": "convenience",
        "source": "local_knowledge",
        "website": "http://7eleven.ca"
      }
    },
    {
      "type": "way",
      "id": 178584746,
      "timestamp": "2019-12-12T00:15:47Z",
      "version": 2,
      "changeset": 78284285,
      "user": "Viajero Perdido",
      "uid": 2365330,
      "center": {
        "lat": 51.2607973,
        "lon": -117.3155385
      },
      "nodes": [],
      "tags": {
        "building": "yes",
        "name": "Purcell Mountain Lodge",
        "tourism": "alpine_hut",
        "website": "http://purcellmountainlodge.com/"
      }
    },
    {
      "type": "way",
      "id": 222375160,
      "timestamp": "2020-08-06T14:53:07Z",
      "version": 5,
      "changeset": 89045830,
      "user": "ingalls",
      "uid": 305985,
      "center": {
        "lat": 51.2945071,
        "lon": -116.9620828
      },
      "nodes": [],
      "tags": {
        "brand": "Save-On-Foods",
        "brand:wikidata": "Q7427974",
        "brand:wikipedia": "en:Save-On-Foods",
        "building": "retail",
        "name": "Save-On-Foods",
        "opening_hours": "Mo-Su 08:00-22:00",
        "shop": "supermarket",
        "source:name": "local_knowledge"
      }
    },
    {
      "type": "way",
      "id": 222375164,
      "timestamp": "2020-08-06T14:53:07Z",
      "version": 2,
      "changeset": 89045830,
      "user": "ingalls",
      "uid": 305985,
      "center": {
        "lat": 51.3109022,
        "lon": -116.9689426
      },
      "nodes": [],
      "tags": {
        "building": "retail",
        "name": "Fasgas",
        "shop": "convenience",
        "source:name": "local_knowledge"
      }
    },
    {
      "type": "way",
      "id": 301172665,
      "timestamp": "2018-12-30T19:00:58Z",
      "version": 7,
      "changeset": 65894773,
      "user": "Bernd_BDP",
      "uid": 38617,
      "center": {
        "lat": 51.2970971,
        "lon": -116.9494948
      },
      "nodes": [],
      "tags": {
        "addr:city": "Golden",
        "addr:housenumber": "1407",
        "addr:postcode": "V0A 1H0",
        "addr:street": "9th Street South",
        "capacity": "72",
        "fee": "yes",
        "internet_access": "yes",
        "name": "Golden Municipal Campground",
        "operator": "Town of Golden",
        "phone": "+1-250-344-5412",
        "power_supply": "yes",
        "sanitary_dump_station": "yes",
        "tourism": "camp_site",
        "website": "http://www.goldenmunicipalcampground.com"
      }
    },
    {
      "type": "way",
      "id": 302629171,
      "timestamp": "2019-03-04T19:10:21Z",
      "version": 2,
      "changeset": 67779013,
      "user": "b-jazz-bot",
      "uid": 9451067,
      "center": {
        "lat": 51.2633955,
        "lon": -116.984156
      },
      "nodes": [],
      "tags": {
        "name": "Cedar Lake Recreation Site",
        "tourism": "camp_site",
        "website": "https://www.csrd.bc.ca/services/parks-recreation/parks-listing/cedar-lake-recreation-site"
      }
    },
    {
      "type": "way",
      "id": 316621949,
      "timestamp": "2014-12-10T04:40:17Z",
      "version": 1,
      "changeset": 27369976,
      "user": "MuddyHikers",
      "uid": 577328,
      "center": {
        "lat": 51.4754641,
        "lon": -116.9724782
      },
      "nodes": [],
      "tags": {
        "tourism": "camp_site"
      }
    },
    {
      "type": "way",
      "id": 516881665,
      "timestamp": "2020-08-05T19:47:36Z",
      "version": 2,
      "changeset": 88998795,
      "user": "ingalls",
      "uid": 305985,
      "center": {
        "lat": 51.3025533,
        "lon": -116.9685534
      },
      "nodes": [],
      "tags": {
        "addr:city": "Golden",
        "addr:housenumber": "624",
        "addr:postcode": "V0A 1H0",
        "addr:street": "9 Avenue North",
        "brand": "IGA",
        "brand:wikidata": "Q3146662",
        "brand:wikipedia": "en:IGA (supermarkets)",
        "building": "yes",
        "name": "IGA",
        "name:de": "IGA",
        "name:en": "IGA",
        "name:fr": "IGA",
        "opening_hours": "Mo-Su 08:00-22:00",
        "shop": "supermarket"
      }
    },
    {
      "type": "way",
      "id": 624234672,
      "timestamp": "2018-09-09T15:35:04Z",
      "version": 1,
      "changeset": 62427920,
      "user": "rabon",
      "uid": 1972608,
      "center": {
        "lat": 51.2444918,
        "lon": -116.9258263
      },
      "nodes": [],
      "tags": {
        "amenity": "shelter",
        "building": "yes",
        "shelter_type": "basic_hut"
      }
    },
    {
      "type": "way",
      "id": 1001217327,
      "timestamp": "2021-11-10T22:03:06Z",
      "version": 1,
      "changeset": 113627765,
      "user": "MuddyHikers",
      "uid": 577328,
      "center": {
        "lat": 51.5071939,
        "lon": -117.2275748
      },
      "nodes": [],
      "tags": {
        "capacity": "12",
        "caravans": "yes",
        "name": "Bluewater Creek Recreation Site",
        "tents": "yes",
        "tourism": "camp_site"
      }
    }
  ]
}