{
  "osm3s": {
    "timestamp_osm_date": "2022-07-06T23:59:59Z",
    "timestamp_osm_base": "2022-07-07T04:26:25Z",
    "copyright": "The data included in this document is from www.openstreetmap.org. The data is made available under ODbL."
  },
  "elements": [
    {
      "type": "node",
      "id": 54640212,
      "lat": 34.3092344,
      "lon": -117.0062033,
      "timestamp": "2021-11-20T22:38:17Z",
      "version": 5,
      "changeset": 114042694,
      "user": "release_candidate",
      "uid": 1239795,
      "tags": {
        "camp_site": "basic",
        "caravans": "no",
        "drinking_water": "no",
        "impromptu": "yes",
        "name": "Yellow Post #6",
        "openfire": "permit",
        "reservation": "no",
        "tents": "yes",
        "toilets": "no",
        "tourism": "camp_site",
        "website": "https://www.fs.usda.gov/recarea/sbnf/recarea/?recid=74095"
      }
    },
    {
      "type": "node",
      "id": 150933472,
      "lat": 34.4263886,
      "lon": -117.3008784,
      "timestamp": "2017-03-05T01:47:24Z",
      "version": 6,
      "changeset": 46585811,
      "user": "happy5214",
      "uid": 199837,
      "tags": {
        "census:population": "83351;2006",
        "ele": "971",
        "gnis:Class": "Populated Place",
        "gnis:County": "San Bernardino",
        "gnis:County_num": "071",
        "gnis:ST_alpha": "CA",
        "gnis:ST_num": "06",
        "gnis:id": "1652720",
        "name": "Hesperia",
        "place": "town",
        "population": "83351",
        "wikidata": "Q773516"
      }
    },
    {
      "type": "node",
      "id": 150934417,
      "lat": 34.6241591,
      "lon": -117.2069882,
      "timestamp": "2018-02-18T15:24:20Z",
      "version": 3,
      "changeset": 56465867,
      "user": "Edward",
      "uid": 364,
      "tags": {
        "ele": "941",
        "gnis:Class": "Populated Place",
        "gnis:County": "San Bernardino",
        "gnis:County_num": "071",
        "gnis:ST_alpha": "CA",
        "gnis:ST_num": "06",
        "gnis:id": "239178",
        "import_uuid": "bb7269ee-502a-5391-8056-e3ce0e66489c",
        "is_in": "San Bernardino,California,Calif.,CA,USA",
        "name": "Bell Mountain",
        "place": "hamlet",
        "wikidata": "Q4883213"
      }
    },
    {
      "type": "node",
      "id": 150934663,
      "lat": 34.7438754,
      "lon": -117.324492,
      "timestamp": "2018-12-18T13:56:37Z",
      "version": 4,
      "changeset": 65581804,
      "user": "happy5214",
      "uid": 199837,
      "tags": {
        "ele": "742",
        "gnis:Class": "Populated Place",
        "gnis:County": "San Bernardino",
        "gnis:County_num": "071",
        "gnis:ST_alpha": "CA",
        "gnis:ST_num": "06",
        "gnis:id": "243339",
        "name": "Helendale",
        "place": "hamlet",
        "wikidata": "Q517340"
      }
    },
    {
      "type": "node",
      "id": 150935519,
      "lat": 34.3911125,
      "lon": -117.2175428,
      "timestamp": "2008-12-06T13:34:42Z",
      "version": 2,
      "changeset": 145015,
      "user": "davidearl",
      "uid": 3582,
      "tags": {
        "ele": "964",
        "gnis:Class": "Populated Place",
        "gnis:County": "San Bernardino",
        "gnis:County_num": "071",
        "gnis:ST_alpha": "CA",
        "gnis:ST_num": "06",
        "gnis:id": "1841709",
        "import_uuid": "bb7269ee-502a-5391-8056-e3ce0e66489c",
        "is_in": "San Bernardino,California,Calif.,CA,USA",
        "name": "Apple Valley Highlands",
        "place": "hamlet"
      }
    },
    {
      "type": "node",
      "id": 150937470,
      "lat": 34.5361067,
      "lon": -117.2911565,
      "timestamp": "2021-11-08T00:32:34Z",
      "version": 12,
      "changeset": 113500241,
      "user": "kas__",
      "uid": 13648514,
      "tags": {
        "census:population": "2015",
        "ele": "832",
        "gnis:Class": "Populated Place",
        "gnis:County": "San Bernardino",
        "gnis:County_num": "071",
        "gnis:ST_alpha": "CA",
        "gnis:ST_num": "06",
        "gnis:id": "1652806",
        "name": "Victorville",
        "name:en": "Victorville",
        "place": "city",
        "population": "122225",
        "wikidata": "Q495353",
        "wikipedia": "en:Victorville, California"
      }
    },
    {
      "type": "node",
      "id": 150938622,
      "lat": 34.4713877,
      "lon": -117.1717086,
      "timestamp": "2008-12-06T13:35:15Z",
      "version": 2,
      "changeset": 145015,
      "user": "davidearl",
      "uid": 3582,
      "tags": {
        "ele": "911",
        "gnis:Class": "Populated Place",
        "gnis:County": "San Bernardino",
        "gnis:County_num": "071",
        "gnis:ST_alpha": "CA",
        "gnis:ST_num": "06",
        "gnis:id": "240965",
        "import_uuid": "bb7269ee-502a-5391-8056-e3ce0e66489c",
        "is_in": "San Bernardino,California,Calif.,CA,USA",
        "name": "Cotners Corner",
        "place": "hamlet"
      }
    },
    {
      "type": "node",
      "id": 150938737,
      "lat": 34.8303053,
      "lon": -117.1806029,
      "timestamp": "2020-03-19T01:44:54Z",
      "version": 5,
      "changeset": 82368256,
      "user": "ppjj Imports+NHD",
      "uid": 10878749,
      "tags": {
        "ele": "707",
        "gnis:Class": "Populated Place",
        "gnis:County": "San Bernardino",
        "gnis:County_num": "071",
        "gnis:ST_alpha": "CA",
        "gnis:ST_num": "06",
        "gnis:id": "244121",
        "name": "Johnstons Corner",
        "place": "hamlet"
      }
    },
    {
      "type": "node",
      "id": 150939466,
      "lat": 34.4213896,
      "lon": -117.0903172,
      "timestamp": "2008-12-06T13:35:27Z",
      "version": 2,
      "changeset": 145015,
      "user": "davidearl",
      "uid": 3582,
      "tags": {
        "ele": "1084",
        "gnis:Class": "Populated Place",
        "gnis:County": "San Bernardino",
        "gnis:County_num": "071",
        "gnis:ST_alpha": "CA",
        "gnis:ST_num": "06",
        "gnis:id": "1841679",
        "import_uuid": "bb7269ee-502a-5391-8056-e3ce0e66489c",
        "is_in": "San Bernardino,California,Calif.,CA,USA",
        "name": "Fizzben Heights",
        "place": "hamlet"
      }
    },
    {
      "type": "node",
      "id": 150939977,
      "lat": 34.5227748,
      "lon": -117.1205964,
      "timestamp": "2008-12-06T13:35:34Z",
      "version": 2,
      "changeset": 145015,
      "user": "davidearl",
      "uid": 3582,
      "tags": {
        "ele": "927",
        "gnis:Class": "Populated Place",
        "gnis:County": "San Bernardino",
        "gnis:County_num": "071",
        "gnis:ST_alpha": "CA",
        "gnis:ST_num": "06",
        "gnis:id": "1841609",
        "import_uuid": "bb7269ee-502a-5391-8056-e3ce0e66489c",
        "is_in": "San Bernardino,California,Calif.,CA,USA",
        "name": "Thunderbird Ranches",
        "place": "hamlet"
      }
    },
    {
      "type": "node",
      "id": 150941705,
      "lat": 34.4538865,
      "lon": -117.386436,
      "timestamp": "2017-09-23T18:48:28Z",
      "version": 3,
      "changeset": 52311532,
      "user": "Edward",
      "uid": 364,
      "tags": {
        "ele": "1030",
        "gnis:Class": "Populated Place",
        "gnis:County": "San Bernardino",
        "gnis:County_num": "071",
        "gnis:ST_alpha": "CA",
        "gnis:ST_num": "06",
        "gnis:id": "1841663",
        "import_uuid": "bb7269ee-502a-5391-8056-e3ce0e66489c",
        "is_in": "San Bernardino,California,Calif.,CA,USA",
        "name": "Sunset Ridge",
        "place": "hamlet",
        "wikidata": "Q7641343"
      }
    },
    {
      "type": "node",
      "id": 150943839,
      "lat": 34.4241671,
      "lon": -117.196709,
      "timestamp": "2008-12-06T13:36:21Z",
      "version": 2,
      "changeset": 145015,
      "user": "davidearl",
      "uid": 3582,
      "tags": {
        "ele": "940",
        "gnis:Class": "Populated Place",
        "gnis:County": "San Bernardino",
        "gnis:County_num": "071",
        "gnis:ST_alpha": "CA",
        "gnis:ST_num": "06",
        "gnis:id": "1841747",
        "import_uuid": "bb7269ee-502a-5391-8056-e3ce0e66489c",
        "is_in": "San Bernardino,California,Calif.,CA,USA",
        "name": "Mariana Ranchos",
        "place": "hamlet"
      }
    },
    {
      "type": "node",
      "id": 150944485,
      "lat": 34.5358283,
      "lon": -117.3350463,
      "timestamp": "2008-12-06T13:36:27Z",
      "version": 2,
      "changeset": 145015,
      "user": "davidearl",
      "uid": 3582,
      "tags": {
        "ele": "889",
        "gnis:Class": "Populated Place",
        "gnis:County": "San Bernardino",
        "gnis:County_num": "071",
        "gnis:ST_alpha": "CA",
        "gnis:ST_num": "06",
        "gnis:id": "1841585",
        "import_uuid": "bb7269ee-502a-5391-8056-e3ce0e66489c",
        "is_in": "San Bernardino,California,Calif.,CA,USA",
        "name": "Golden Mesa",
        "place": "hamlet"
      }
    },
    {
      "type": "node",
      "id": 150945246,
      "lat": 34.5008311,
      "lon": -117.1858759,
      "timestamp": "2017-06-13T19:35:19Z",
      "version": 4,
      "changeset": 49510091,
      "user": "happy5214",
      "uid": 199837,
      "tags": {
        "census:population": "68886;2006",
        "ele": "898",
        "gnis:Class": "Populated Place",
        "gnis:County": "San Bernardino",
        "gnis:County_num": "071",
        "gnis:ST_alpha": "CA",
        "gnis:ST_num": "06",
        "gnis:id": "1660259",
        "name": "Apple Valley",
        "place": "town",
        "population": "68886",
        "wikidata": "Q621372",
        "wikipedia": "en:Apple Valley, California"
      }
    },
    {
      "type": "node",
      "id": 150945291,
      "lat": 34.4341655,
      "lon": -117.3592131,
      "timestamp": "2008-12-06T13:36:34Z",
      "version": 2,
      "changeset": 145015,
      "user": "davidearl",
      "uid": 3582,
      "tags": {
        "ele": "1040",
        "gnis:Class": "Populated Place",
        "gnis:County": "San Bernardino",
        "gnis:County_num": "071",
        "gnis:ST_alpha": "CA",
        "gnis:ST_num": "06",
        "gnis:id": "1841695",
        "import_uuid": "bb7269ee-502a-5391-8056-e3ce0e66489c",
        "is_in": "San Bernardino,California,Calif.,CA,USA",
        "name": "North Star Ranch",
        "place": "hamlet"
      }
    },
    {
      "type": "node",
      "id": 150946209,
      "lat": 34.3997225,
      "lon": -117.3406015,
      "timestamp": "2018-02-18T15:24:11Z",
      "version": 3,
      "changeset": 56465867,
      "user": "Edward",
      "uid": 364,
      "tags": {
        "ele": "1050",
        "gnis:Class": "Populated Place",
        "gnis:County": "San Bernardino",
        "gnis:County_num": "071",
        "gnis:ST_alpha": "CA",
        "gnis:ST_num": "06",
        "gnis:id": "1841652",
        "import_uuid": "bb7269ee-502a-5391-8056-e3ce0e66489c",
        "is_in": "San Bernardino,California,Calif.,CA,USA",
        "name": "Oak Hills",
        "place": "hamlet",
        "wikidata": "Q3557156"
      }
    },
    {
      "type": "node",
      "id": 150947254,
      "lat": 34.4777741,
      "lon": -117.4078252,
      "timestamp": "2008-12-06T13:36:58Z",
      "version": 2,
      "changeset": 145015,
      "user": "davidearl",
      "uid": 3582,
      "tags": {
        "ele": "1005",
        "gnis:Class": "Populated Place",
        "gnis:County": "San Bernardino",
        "gnis:County_num": "071",
        "gnis:ST_alpha": "CA",
        "gnis:ST_num": "06",
        "gnis:id": "1841644",
        "import_uuid": "bb7269ee-502a-5391-8056-e3ce0e66489c",
        "is_in": "San Bernardino,California,Calif.,CA,USA",
        "name": "Eagle Ranch",
        "place": "hamlet"
      }
    },
    {
      "type": "node",
      "id": 150949205,
      "lat": 34.8634166,
      "lon": -116.8880324,
      "timestamp": "2017-09-24T21:05:51Z",
      "version": 9,
      "changeset": 52339396,
      "user": "nyuriks",
      "uid": 339581,
      "tags": {
        "ele": "614",
        "gnis:Class": "Populated Place",
        "gnis:County": "San Bernardino",
        "gnis:County_num": "071",
        "gnis:ST_alpha": "CA",
        "gnis:ST_num": "06",
        "gnis:id": "241219",
        "name": "Daggett",
        "place": "village",
        "wikidata": "Q3011882",
        "wikipedia": "en:Daggett, California"
      }
    },
    {
      "type": "node",
      "id": 150949299,
      "lat": 34.5508288,
      "lon": -117.2486557,
      "timestamp": "2008-12-06T13:37:19Z",
      "version": 2,
      "changeset": 145015,
      "user": "davidearl",
      "uid": 3582,
      "tags": {
        "ele": "916",
        "gnis:Class": "Populated Place",
        "gnis:County": "San Bernardino",
        "gnis:County_num": "071",
        "gnis:ST_alpha": "CA",
        "gnis:ST_num": "06",
        "gnis:id": "1841642",
        "import_uuid": "bb7269ee-502a-5391-8056-e3ce0e66489c",
        "is_in": "San Bernardino,California,Calif.,CA,USA",
        "name": "Desert Knolls Manor",
        "place": "hamlet"
      }
    },
    {
      "type": "node",
      "id": 150949413,
      "lat": 34.5244408,
      "lon": -117.2653225,
      "timestamp": "2008-12-06T13:37:21Z",
      "version": 2,
      "changeset": 145015,
      "user": "davidearl",
      "uid": 3582,
      "tags": {
        "ele": "845",
        "gnis:Class": "Populated Place",
        "gnis:County": "San Bernardino",
        "gnis:County_num": "071",
        "gnis:ST_alpha": "CA",
        "gnis:ST_num": "06",
        "gnis:id": "1841573",
        "import_uuid": "bb7269ee-502a-5391-8056-e3ce0e66489c",
        "is_in": "San Bernardino,California,Calif.,CA,USA",
        "name": "Desert Knolls",
        "place": "hamlet"
      }
    },
    {
      "type": "node",
      "id": 150950319,
      "lat": 34.8697057,
      "lon": -117.0561522,
      "timestamp": "2021-01-12T20:06:55Z",
      "version": 3,
      "changeset": 97395008,
      "user": "hofoen",
      "uid": 52797,
      "tags": {
        "ele": "780",
        "gnis:Class": "Populated Place",
        "gnis:County": "San Bernardino",
        "gnis:County_num": "071",
        "gnis:ST_alpha": "CA",
        "gnis:ST_num": "06",
        "gnis:id": "1839713",
        "import_uuid": "bb7269ee-502a-5391-8056-e3ce0e66489c",
        "is_in": "San Bernardino,California,Calif.,CA,USA",
        "name": "Barstow Heights",
        "place": "hamlet",
        "wikidata": "Q49345465"
      }
    },
    {
      "type": "node",
      "id": 150950428,
      "lat": 34.5704247,
      "lon": -117.3269108,
      "timestamp": "2017-09-23T18:48:27Z",
      "version": 4,
      "changeset": 52311532,
      "user": "Edward",
      "uid": 364,
      "tags": {
        "ele": "840",
        "gnis:Class": "Populated Place",
        "gnis:County": "San Bernardino",
        "gnis:County_num": "071",
        "gnis:ST_alpha": "CA",
        "gnis:ST_num": "06",
        "gnis:id": "1661046",
        "import_uuid": "bb7269ee-502a-5391-8056-e3ce0e66489c",
        "is_in": "San Bernardino,California,Calif.,CA,USA",
        "name": "Mojave Heights",
        "place": "hamlet",
        "wikidata": "Q6895000"
      }
    },
    {
      "type": "node",
      "id": 150953830,
      "lat": 34.4705523,
      "lon": -117.3994917,
      "timestamp": "2008-12-06T13:38:12Z",
      "version": 2,
      "changeset": 145015,
      "user": "davidearl",
      "uid": 3582,
      "tags": {
        "ele": "1012",
        "gnis:Class": "Populated Place",
        "gnis:County": "San Bernardino",
        "gnis:County_num": "071",
        "gnis:ST_alpha": "CA",
        "gnis:ST_num": "06",
        "gnis:id": "1841643",
        "import_uuid": "bb7269ee-502a-5391-8056-e3ce0e66489c",
        "is_in": "San Bernardino,California,Calif.,CA,USA",
        "name": "Duncan Corners",
        "place": "hamlet"
      }
    },
    {
      "type": "node",
      "id": 150953833,
      "lat": 34.4049998,
      "lon": -117.3814359,
      "timestamp": "2008-12-06T13:38:12Z",
      "version": 2,
      "changeset": 145015,
      "user": "davidearl",
      "uid": 3582,
      "tags": {
        "ele": "1108",
        "gnis:Class": "Populated Place",
        "gnis:County": "San Bernardino",
        "gnis:County_num": "071",
        "gnis:ST_alpha": "CA",
        "gnis:ST_num": "06",
        "gnis:id": "1841647",
        "import_uuid": "bb7269ee-502a-5391-8056-e3ce0e66489c",
        "is_in": "San Bernardino,California,Calif.,CA,USA",
        "name": "High Country",
        "place": "hamlet"
      }
    },
    {
      "type": "node",
      "id": 150958685,
      "lat": 34.5505499,
      "lon": -117.3406021,
      "timestamp": "2008-12-06T13:38:51Z",
      "version": 2,
      "changeset": 145015,
      "user": "davidearl",
      "uid": 3582,
      "tags": {
        "ele": "865",
        "gnis:Class": "Populated Place",
        "gnis:County": "San Bernardino",
        "gnis:County_num": "071",
        "gnis:ST_alpha": "CA",
        "gnis:ST_num": "06",
        "gnis:id": "1841608",
        "import_uuid": "bb7269ee-502a-5391-8056-e3ce0e66489c",
        "is_in": "San Bernardino,California,Calif.,CA,USA",
        "name": "The Village",
        "place": "hamlet"
      }
    },
    {
      "type": "node",
      "id": 150958737,
      "lat": 34.8665978,
      "lon": -116.9640875,
      "timestamp": "2016-12-12T17:39:07Z",
      "version": 5,
      "changeset": 44352270,
      "user": "Timothy Smith",
      "uid": 115918,
      "tags": {
        "ele": "668",
        "gnis:Class": "Populated Place",
        "gnis:County": "San Bernardino",
        "gnis:County_num": "071",
        "gnis:ST_alpha": "CA",
        "gnis:ST_num": "06",
        "gnis:id": "1839727",
        "import_uuid": "bb7269ee-502a-5391-8056-e3ce0e66489c",
        "is_in": "San Bernardino,California,Calif.,CA,USA",
        "name": "Desert View Housing Area",
        "place": "hamlet"
      }
    },
    {
      "type": "node",
      "id": 150958976,
      "lat": 34.5283274,
      "lon": -117.4169923,
      "timestamp": "2008-12-06T13:38:56Z",
      "version": 2,
      "changeset": 145015,
      "user": "davidearl",
      "uid": 3582,
      "tags": {
        "ele": "932",
        "gnis:Class": "Populated Place",
        "gnis:County": "San Bernardino",
        "gnis:County_num": "071",
        "gnis:ST_alpha": "CA",
        "gnis:ST_num": "06",
        "gnis:id": "1841553",
        "import_uuid": "bb7269ee-502a-5391-8056-e3ce0e66489c",
        "is_in": "San Bernardino,California,Calif.,CA,USA",
        "name": "South Adelanto",
        "place": "hamlet"
      }
    },
    {
      "type": "node",
      "id": 150959151,
      "lat": 34.4955535,
      "lon": -117.2222658,
      "timestamp": "2008-12-06T13:38:59Z",
      "version": 2,
      "changeset": 145015,
      "user": "davidearl",
      "uid": 3582,
      "tags": {
        "ele": "909",
        "gnis:Class": "Populated Place",
        "gnis:County": "San Bernardino",
        "gnis:County_num": "071",
        "gnis:ST_alpha": "CA",
        "gnis:ST_num": "06",
        "gnis:id": "1841760",
        "import_uuid": "bb7269ee-502a-5391-8056-e3ce0e66489c",
        "is_in": "San Bernardino,California,Calif.,CA,USA",
        "name": "Sunset Hills",
        "place": "hamlet"
      }
    },
    {
      "type": "node",
      "id": 150959376,
      "lat": 34.5827699,
      "lon": -117.409215,
      "timestamp": "2017-03-05T01:47:24Z",
      "version": 4,
      "changeset": 46585811,
      "user": "happy5214",
      "uid": 199837,
      "tags": {
        "census:population": "27105;2006",
        "ele": "875",
        "gnis:Class": "Populated Place",
        "gnis:County": "San Bernardino",
        "gnis:County_num": "071",
        "gnis:ST_alpha": "CA",
        "gnis:ST_num": "06",
        "gnis:id": "1660232",
        "name": "Adelanto",
        "place": "town",
        "population": "27105",
        "wikidata": "Q354110"
      }
    },
    {
      "type": "node",
      "id": 150959787,
      "lat": 34.5469392,
      "lon": -117.3092125,
      "timestamp": "2008-12-06T13:39:10Z",
      "version": 2,
      "changeset": 145015,
      "user": "davidearl",
      "uid": 3582,
      "tags": {
        "ele": "878",
        "gnis:Class": "Populated Place",
        "gnis:County": "San Bernardino",
        "gnis:County_num": "071",
        "gnis:ST_alpha": "CA",
        "gnis:ST_num": "06",
        "gnis:id": "1841612",
        "import_uuid": "bb7269ee-502a-5391-8056-e3ce0e66489c",
        "is_in": "San Bernardino,California,Calif.,CA,USA",
        "name": "Valley High North",
        "place": "hamlet"
      }
    },
    {
      "type": "node",
      "id": 150962417,
      "lat": 34.4708993,
      "lon": -117.1563042,
      "timestamp": "2018-02-15T20:46:45Z",
      "version": 5,
      "changeset": 56396363,
      "user": "Town of Apple Valley",
      "uid": 5115060,
      "tags": {
        "ele": "915",
        "gnis:Class": "Populated Place",
        "gnis:County": "San Bernardino",
        "gnis:County_num": "071",
        "gnis:ST_alpha": "CA",
        "gnis:ST_num": "06",
        "gnis:id": "1660941",
        "import_uuid": "bb7269ee-502a-5391-8056-e3ce0e66489c",
        "is_in": "San Bernardino,California,Calif.,CA,USA",
        "name": "Lone Wolf Colony",
        "place": "hamlet"
      }
    },
    {
      "type": "node",
      "id": 150963149,
      "lat": 34.3538925,
      "lon": -116.8583644,
      "timestamp": "2018-02-18T15:25:09Z",
      "version": 3,
      "changeset": 56465867,
      "user": "Edward",
      "uid": 364,
      "tags": {
        "ele": "1314",
        "gnis:Class": "Populated Place",
        "gnis:County": "San Bernardino",
        "gnis:County_num": "071",
        "gnis:ST_alpha": "CA",
        "gnis:ST_num": "06",
        "gnis:id": "1660528",
        "import_uuid": "bb7269ee-502a-5391-8056-e3ce0e66489c",
        "is_in": "San Bernardino,California,Calif.,CA,USA",
        "name": "Cushenbury",
        "place": "hamlet",
        "wikidata": "Q22077998"
      }
    },
    {
      "type": "node",
      "id": 150964862,
      "lat": 34.3577803,
      "lon": -117.2497656,
      "timestamp": "2008-12-06T13:39:59Z",
      "version": 2,
      "changeset": 145015,
      "user": "davidearl",
      "uid": 3582,
      "tags": {
        "ele": "913",
        "gnis:Class": "Populated Place",
        "gnis:County": "San Bernardino",
        "gnis:County_num": "071",
        "gnis:ST_alpha": "CA",
        "gnis:ST_num": "06",
        "gnis:id": "1841815",
        "import_uuid": "bb7269ee-502a-5391-8056-e3ce0e66489c",
        "is_in": "San Bernardino,California,Calif.,CA,USA",
        "name": "Arrowhead Equestrian Estates",
        "place": "hamlet"
      }
    },
    {
      "type": "node",
      "id": 150965216,
      "lat": 34.496663,
      "lon": -117.3489352,
      "timestamp": "2008-12-06T13:40:05Z",
      "version": 2,
      "changeset": 145015,
      "user": "davidearl",
      "uid": 3582,
      "tags": {
        "ele": "937",
        "gnis:Class": "Populated Place",
        "gnis:County": "San Bernardino",
        "gnis:County_num": "071",
        "gnis:ST_alpha": "CA",
        "gnis:ST_num": "06",
        "gnis:id": "1867043",
        "import_uuid": "bb7269ee-502a-5391-8056-e3ce0e66489c",
        "is_in": "San Bernardino,California,Calif.,CA,USA",
        "name": "Mountain View Acres",
        "place": "hamlet"
      }
    },
    {
      "type": "node",
      "id": 150968382,
      "lat": 34.5988813,
      "lon": -117.3342134,
      "timestamp": "2018-12-20T14:01:26Z",
      "version": 4,
      "changeset": 65641254,
      "user": "happy5214",
      "uid": 199837,
      "tags": {
        "ele": "811",
        "gnis:Class": "Populated Place",
        "gnis:County": "San Bernardino",
        "gnis:County_num": "071",
        "gnis:ST_alpha": "CA",
        "gnis:ST_num": "06",
        "gnis:id": "246972",
        "name": "Oro Grande",
        "place": "hamlet",
        "wikidata": "Q2031337",
        "wikipedia": "en:Oro Grande, California"
      }
    },
    {
      "type": "node",
      "id": 150970070,
      "lat": 34.8761248,
      "lon": -117.1052269,
      "timestamp": "2021-11-09T17:16:45Z",
      "version": 8,
      "changeset": 113574709,
      "user": "SimMoonXP",
      "uid": 3392,
      "tags": {
        "ele": "694",
        "gnis:Class": "Populated Place",
        "gnis:County": "San Bernardino",
        "gnis:County_num": "071",
        "gnis:ST_alpha": "CA",
        "gnis:ST_num": "06",
        "gnis:id": "1660906",
        "name": "Lenwood",
        "place": "village",
        "population": "3543",
        "wikidata": "Q3306212",
        "wikipedia": "en:Lenwood, California"
      }
    },
    {
      "type": "node",
      "id": 150971503,
      "lat": 34.5063847,
      "lon": -117.3586577,
      "timestamp": "2008-12-06T13:41:11Z",
      "version": 2,
      "changeset": 145015,
      "user": "davidearl",
      "uid": 3582,
      "tags": {
        "ele": "934",
        "gnis:Class": "Populated Place",
        "gnis:County": "San Bernardino",
        "gnis:County_num": "071",
        "gnis:ST_alpha": "CA",
        "gnis:ST_num": "06",
        "gnis:id": "246299",
        "import_uuid": "bb7269ee-502a-5391-8056-e3ce0e66489c",
        "is_in": "San Bernardino,California,Calif.,CA,USA",
        "name": "Mountain View",
        "place": "hamlet"
      }
    },
    {
      "type": "node",
      "id": 150971808,
      "lat": 34.570272,
      "lon": -117.2806009,
      "timestamp": "2008-12-06T13:41:17Z",
      "version": 2,
      "changeset": 145015,
      "user": "davidearl",
      "uid": 3582,
      "tags": {
        "ele": "870",
        "gnis:Class": "Populated Place",
        "gnis:County": "San Bernardino",
        "gnis:County_num": "071",
        "gnis:ST_alpha": "CA",
        "gnis:ST_num": "06",
        "gnis:id": "1841566",
        "import_uuid": "bb7269ee-502a-5391-8056-e3ce0e66489c",
        "is_in": "San Bernardino,California,Calif.,CA,USA",
        "name": "Bellevue Heights",
        "place": "hamlet"
      }
    },
    {
      "type": "node",
      "id": 150974613,
      "lat": 34.4502774,
      "lon": -117.1636528,
      "timestamp": "2008-12-06T13:41:45Z",
      "version": 2,
      "changeset": 145015,
      "user": "davidearl",
      "uid": 3582,
      "tags": {
        "ele": "941",
        "gnis:Class": "Populated Place",
        "gnis:County": "San Bernardino",
        "gnis:County_num": "071",
        "gnis:ST_alpha": "CA",
        "gnis:ST_num": "06",
        "gnis:id": "1841754",
        "import_uuid": "bb7269ee-502a-5391-8056-e3ce0e66489c",
        "is_in": "San Bernardino,California,Calif.,CA,USA",
        "name": "Ranchos del Oro",
        "place": "hamlet"
      }
    },
    {
      "type": "node",
      "id": 150977563,
      "lat": 34.5111077,
      "lon": -117.2931008,
      "timestamp": "2008-12-06T13:42:07Z",
      "version": 2,
      "changeset": 145015,
      "user": "davidearl",
      "uid": 3582,
      "tags": {
        "ele": "884",
        "gnis:Class": "Populated Place",
        "gnis:County": "San Bernardino",
        "gnis:County_num": "071",
        "gnis:ST_alpha": "CA",
        "gnis:ST_num": "06",
        "gnis:id": "1841588",
        "import_uuid": "bb7269ee-502a-5391-8056-e3ce0e66489c",
        "is_in": "San Bernardino,California,Calif.,CA,USA",
        "name": "Greentree East",
        "place": "hamlet"
      }
    },
    {
      "type": "node",
      "id": 150980538,
      "lat": 34.3452799,
      "lon": -117.4217148,
      "timestamp": "2008-12-06T13:42:30Z",
      "version": 2,
      "changeset": 145015,
      "user": "davidearl",
      "uid": 3582,
      "tags": {
        "ele": "1241",
        "gnis:Class": "Populated Place",
        "gnis:County": "San Bernardino",
        "gnis:County_num": "071",
        "gnis:ST_alpha": "CA",
        "gnis:ST_num": "06",
        "gnis:id": "1841862",
        "import_uuid": "bb7269ee-502a-5391-8056-e3ce0e66489c",
        "is_in": "San Bernardino,California,Calif.,CA,USA",
        "name": "Summit Terrace",
        "place": "hamlet"
      }
    },
    {
      "type": "node",
      "id": 150980542,
      "lat": 34.3947233,
      "lon": -117.2730998,
      "timestamp": "2008-12-06T13:42:30Z",
      "version": 2,
      "changeset": 145015,
      "user": "davidearl",
      "uid": 3582,
      "tags": {
        "ele": "969",
        "gnis:Class": "Populated Place",
        "gnis:County": "San Bernardino",
        "gnis:County_num": "071",
        "gnis:ST_alpha": "CA",
        "gnis:ST_num": "06",
        "gnis:id": "1841761",
        "import_uuid": "bb7269ee-502a-5391-8056-e3ce0e66489c",
        "is_in": "San Bernardino,California,Calif.,CA,USA",
        "name": "The Mesa",
        "place": "hamlet"
      }
    },
    {
      "type": "node",
      "id": 150981816,
      "lat": 34.4436167,
      "lon": -116.9455239,
      "timestamp": "2018-02-18T15:24:09Z",
      "version": 6,
      "changeset": 56465867,
      "user": "Edward",
      "uid": 364,
      "tags": {
        "ele": "899",
        "gnis:Class": "Populated Place",
        "gnis:County": "San Bernardino",
        "gnis:County_num": "071",
        "gnis:ST_alpha": "CA",
        "gnis:ST_num": "06",
        "gnis:id": "272271",
        "import_uuid": "bb7269ee-502a-5391-8056-e3ce0e66489c",
        "is_in": "San Bernardino,California,Calif.,CA,USA",
        "name": "Lucerne Valley",
        "place": "village",
        "wikidata": "Q3458247"
      }
    },
    {
      "type": "node",
      "id": 358780531,
      "lat": 34.582971,
      "lon": -117.216946,
      "timestamp": "2018-02-18T15:24:20Z",
      "version": 3,
      "changeset": 56465867,
      "user": "Edward",
      "uid": 364,
      "tags": {
        "ele": "1173",
        "gnis:county_id": "071",
        "gnis:created": "01/19/1981",
        "gnis:feature_id": "239180",
        "gnis:state_id": "06",
        "name": "Bell Mountain",
        "natural": "peak",
        "wikidata": "Q4883215"
      }
    },
    {
      "type": "node",
      "id": 358792641,
      "lat": 34.6513797,
      "lon": -117.2672677,
      "timestamp": "2018-02-18T15:25:10Z",
      "version": 2,
      "changeset": 56465867,
      "user": "Edward",
      "uid": 364,
      "tags": {
        "ele": "1271",
        "gnis:county_id": "071",
        "gnis:created": "01/19/1981",
        "gnis:feature_id": "249482",
        "gnis:state_id": "06",
        "name": "Silver Mountain",
        "natural": "peak",
        "wikidata": "Q22078119"
      }
    },
    {
      "type": "node",
      "id": 710767394,
      "lat": 34.3618951,
      "lon": -116.8587856,
      "timestamp": "2010-04-28T18:24:26Z",
      "version": 1,
      "changeset": 4551926,
      "user": "Erik Burrows",
      "uid": 191585,
      "tags": {
        "name": "Cushenbury Springs",
        "natural": "spring"
      }
    },
    {
      "type": "node",
      "id": 710767397,
      "lat": 34.362988,
      "lon": -116.8594741,
      "timestamp": "2010-04-28T18:24:26Z",
      "version": 1,
      "changeset": 4551926,
      "user": "Erik Burrows",
      "uid": 191585,
      "tags": {
        "name": "Cushenbury Springs",
        "natural": "spring"
      }
    },
    {
      "type": "node",
      "id": 710767400,
      "lat": 34.3342238,
      "lon": -116.832295,
      "timestamp": "2010-04-28T18:24:26Z",
      "version": 1,
      "changeset": 4551926,
      "user": "Erik Burrows",
      "uid": 191585,
      "tags": {
        "name": "Whiskey Springs",
        "natural": "spring"
      }
    },
    {
      "type": "node",
      "id": 710904614,
      "lat": 34.318323,
      "lon": -116.8321461,
      "timestamp": "2010-04-28T20:49:00Z",
      "version": 1,
      "changeset": 4553633,
      "user": "Erik Burrows",
      "uid": 191585,
      "tags": {
        "name": "Jacoby Spring",
        "natural": "spring"
      }
    },
    {
      "type": "node",
      "id": 710904615,
      "lat": 34.3145412,
      "lon": -116.8089616,
      "timestamp": "2010-04-28T20:49:00Z",
      "version": 1,
      "changeset": 4553633,
      "user": "Erik Burrows",
      "uid": 191585,
      "tags": {
        "name": "Cactus Spring",
        "natural": "spring"
      }
    },
    {
      "type": "node",
      "id": 710904616,
      "lat": 34.3274034,
      "lon": -116.8587042,
      "timestamp": "2010-04-28T20:49:00Z",
      "version": 1,
      "changeset": 4553633,
      "user": "Erik Burrows",
      "uid": 191585,
      "tags": {
        "natural": "spring"
      }
    },
    {
      "type": "node",
      "id": 710904627,
      "lat": 34.3124839,
      "lon": -116.7952711,
      "timestamp": "2010-04-28T20:49:00Z",
      "version": 1,
      "changeset": 4553633,
      "user": "Erik Burrows",
      "uid": 191585,
      "tags": {
        "name": "Top Spring",
        "natural": "spring"
      }
    },
    {
      "type": "node",
      "id": 1322837397,
      "lat": 34.5079062,
      "lon": -117.401511,
      "timestamp": "2020-12-12T00:31:56Z",
      "version": 2,
      "changeset": 95708960,
      "user": "Timothy Smith",
      "uid": 115918,
      "tags": {
        "brand": "Stater Bros.",
        "brand:wikidata": "Q7604016",
        "brand:wikipedia": "en:Stater Bros.",
        "name": "Stater Bros.",
        "shop": "supermarket"
      }
    },
    {
      "type": "node",
      "id": 1325913029,
      "lat": 34.47184,
      "lon": -117.362971,
      "timestamp": "2020-12-12T00:31:29Z",
      "version": 2,
      "changeset": 95708949,
      "user": "Timothy Smith",
      "uid": 115918,
      "tags": {
        "brand": "Stater Bros.",
        "brand:wikidata": "Q7604016",
        "brand:wikipedia": "en:Stater Bros.",
        "name": "Stater Bros.",
        "shop": "supermarket"
      }
    },
    {
      "type": "node",
      "id": 1325913031,
      "lat": 34.4718046,
      "lon": -117.3657503,
      "timestamp": "2019-09-20T19:30:19Z",
      "version": 2,
      "changeset": 74733049,
      "user": "Timothy Smith",
      "uid": 115918,
      "tags": {
        "brand": "Albertsons",
        "brand:wikidata": "Q4712282",
        "brand:wikipedia": "en:Albertsons",
        "name": "Albertsons",
        "shop": "supermarket"
      }
    },
    {
      "type": "node",
      "id": 1337616247,
      "lat": 34.5201818,
      "lon": -117.331506,
      "timestamp": "2020-12-12T00:31:39Z",
      "version": 3,
      "changeset": 95708951,
      "user": "Timothy Smith",
      "uid": 115918,
      "tags": {
        "addr:housenumber": "15235",
        "addr:street": "Hook Boulevard",
        "brand": "Stater Bros.",
        "brand:wikidata": "Q7604016",
        "brand:wikipedia": "en:Stater Bros.",
        "name": "Stater Bros.",
        "shop": "supermarket"
      }
    },
    {
      "type": "node",
      "id": 1375367330,
      "lat": 34.5221338,
      "lon": -117.3231463,
      "timestamp": "2019-10-20T04:14:46Z",
      "version": 2,
      "changeset": 75943791,
      "user": "galaxy4ever12",
      "uid": 9316834,
      "tags": {
        "brand": "ampm",
        "brand:wikidata": "Q306960",
        "brand:wikipedia": "en:Ampm",
        "name": "ampm",
        "shop": "convenience"
      }
    },
    {
      "type": "node",
      "id": 1380549829,
      "lat": 34.428241,
      "lon": -117.348279,
      "timestamp": "2020-11-24T07:22:46Z",
      "version": 2,
      "changeset": 94684566,
      "user": "aangle",
      "uid": 12228379,
      "tags": {
        "brand": "Stater Bros.",
        "brand:wikidata": "Q7604016",
        "brand:wikipedia": "en:Stater Bros.",
        "name": "Stater Bros.",
        "shop": "supermarket"
      }
    },
    {
      "type": "node",
      "id": 1387978862,
      "lat": 34.4708607,
      "lon": -117.3649596,
      "timestamp": "2019-09-20T19:30:19Z",
      "version": 2,
      "changeset": 74733049,
      "user": "Timothy Smith",
      "uid": 115918,
      "tags": {
        "brand": "ampm",
        "brand:wikidata": "Q306960",
        "brand:wikipedia": "en:Ampm",
        "name": "ampm",
        "shop": "convenience"
      }
    },
    {
      "type": "node",
      "id": 2381887520,
      "lat": 34.3200334,
      "lon": -117.0120018,
      "timestamp": "2022-06-27T19:50:43Z",
      "version": 2,
      "changeset": 122926274,
      "user": "Kai Johnson",
      "uid": 1906004,
      "tags": {
        "camp_site": "standard",
        "caravans": "yes",
        "drinking_water": "yes",
        "impromptu": "yes",
        "name": "Big Pine Flat Family Campground",
        "openfire": "permit",
        "operator": "USFS",
        "reservation": "no",
        "tents": "yes",
        "toilets": "yes",
        "tourism": "camp_site",
        "website": "https://www.fs.usda.gov/recarea/sbnf/recarea/?recid=26231"
      }
    },
    {
      "type": "node",
      "id": 2381890276,
      "lat": 34.3521001,
      "lon": -117.0707534,
      "timestamp": "2022-07-05T18:59:55Z",
      "version": 4,
      "changeset": 123247552,
      "user": "Kai Johnson",
      "uid": 1906004,
      "tags": {
        "camp_site": "basic",
        "name": "Horse Springs Campground",
        "openfire": "permit",
        "operator": "USFS",
        "reservation": "no",
        "tents": "yes",
        "toilets": "yes",
        "tourism": "camp_site",
        "website": "https://www.fs.usda.gov/recarea/sbnf/recarea/?recid=26245"
      }
    },
    {
      "type": "node",
      "id": 3653202264,
      "lat": 34.5177199,
      "lon": -117.0647572,
      "timestamp": "2015-08-12T23:11:46Z",
      "version": 2,
      "changeset": 33302336,
      "user": "Bad Ephemeris",
      "uid": 3066406,
      "tags": {
        "name": "Amaral Spring",
        "natural": "spring"
      }
    },
    {
      "type": "node",
      "id": 3694273740,
      "lat": 34.6406569,
      "lon": -117.0843657,
      "timestamp": "2015-08-12T22:07:03Z",
      "version": 1,
      "changeset": 33301816,
      "user": "Bad Ephemeris",
      "uid": 3066406,
      "tags": {
        "natural": "cave_entrance"
      }
    },
    {
      "type": "node",
      "id": 3694410449,
      "lat": 34.5210486,
      "lon": -117.0811745,
      "timestamp": "2015-08-12T23:11:44Z",
      "version": 1,
      "changeset": 33302336,
      "user": "Bad Ephemeris",
      "uid": 3066406,
      "tags": {
        "name": "Horse Spring",
        "natural": "spring"
      }
    },
    {
      "type": "node",
      "id": 3694410450,
      "lat": 34.5321477,
      "lon": -117.1017276,
      "timestamp": "2015-08-12T23:11:44Z",
      "version": 1,
      "changeset": 33302336,
      "user": "Bad Ephemeris",
      "uid": 3066406,
      "tags": {
        "name": "McInnis Spring",
        "natural": "spring"
      }
    },
    {
      "type": "node",
      "id": 3695429485,
      "lat": 34.5339264,
      "lon": -117.0927036,
      "timestamp": "2015-08-13T14:33:25Z",
      "version": 1,
      "changeset": 33314128,
      "user": "Bad Ephemeris",
      "uid": 3066406,
      "tags": {
        "name": "Isabelle Spring",
        "natural": "spring"
      }
    },
    {
      "type": "node",
      "id": 3695429486,
      "lat": 34.5370039,
      "lon": -117.081674,
      "timestamp": "2015-08-13T14:33:25Z",
      "version": 1,
      "changeset": 33314128,
      "user": "Bad Ephemeris",
      "uid": 3066406,
      "tags": {
        "name": "Quail Spring",
        "natural": "spring"
      }
    },
    {
      "type": "node",
      "id": 3695429493,
      "lat": 34.7068423,
      "lon": -117.1282074,
      "timestamp": "2015-08-13T14:33:25Z",
      "version": 1,
      "changeset": 33314128,
      "user": "Bad Ephemeris",
      "uid": 3066406,
      "tags": {
        "natural": "spring"
      }
    },
    {
      "type": "node",
      "id": 3695429494,
      "lat": 34.6439087,
      "lon": -116.8909977,
      "timestamp": "2015-08-13T14:33:25Z",
      "version": 1,
      "changeset": 33314128,
      "user": "Bad Ephemeris",
      "uid": 3066406,
      "tags": {
        "name": "Quill spring",
        "natural": "spring"
      }
    },
    {
      "type": "node",
      "id": 3695429495,
      "lat": 34.6606833,
      "lon": -116.8806752,
      "timestamp": "2015-08-13T14:33:25Z",
      "version": 1,
      "changeset": 33314128,
      "user": "Bad Ephemeris",
      "uid": 3066406,
      "tags": {
        "name": "Joker Spring",
        "natural": "spring"
      }
    },
    {
      "type": "node",
      "id": 3695429499,
      "lat": 34.6726887,
      "lon": -116.9268963,
      "timestamp": "2015-08-13T14:33:25Z",
      "version": 1,
      "changeset": 33314128,
      "user": "Bad Ephemeris",
      "uid": 3066406,
      "tags": {
        "name": "Goat Spring",
        "natural": "spring"
      }
    },
    {
      "type": "node",
      "id": 4340515293,
      "lat": 34.3304324,
      "lon": -117.265934,
      "timestamp": "2021-03-24T11:33:14Z",
      "version": 2,
      "changeset": 101642418,
      "user": "MrDrPrPatrick",
      "uid": 11458812,
      "tags": {
        "tourism": "camp_site"
      }
    },
    {
      "type": "node",
      "id": 4636881834,
      "lat": 34.4719194,
      "lon": -117.2073644,
      "timestamp": "2019-06-25T00:14:51Z",
      "version": 8,
      "changeset": 71580281,
      "user": "Town of Apple Valley",
      "uid": 5115060,
      "tags": {
        "brand": "Circle K",
        "brand:wikidata": "Q3268010",
        "brand:wikipedia": "en:Circle K",
        "name": "Circle K",
        "shop": "convenience"
      }
    },
    {
      "type": "node",
      "id": 4868566831,
      "lat": 34.8636278,
      "lon": -116.8848053,
      "timestamp": "2017-05-21T20:41:38Z",
      "version": 1,
      "changeset": 48870139,
      "user": "Joethecarpetman",
      "uid": 5705071,
      "tags": {
        "name": "Desert Market",
        "shop": "supermarket"
      }
    },
    {
      "type": "node",
      "id": 4892831764,
      "lat": 34.471841,
      "lon": -117.193718,
      "timestamp": "2019-03-08T21:36:52Z",
      "version": 5,
      "changeset": 67941285,
      "user": "Town of Apple Valley",
      "uid": 5115060,
      "tags": {
        "amenity": "drinking_water",
        "building": "yes",
        "name": "Water Store"
      }
    },
    {
      "type": "node",
      "id": 5170394783,
      "lat": 34.3186316,
      "lon": -117.0066961,
      "timestamp": "2021-11-20T22:38:17Z",
      "version": 2,
      "changeset": 114042694,
      "user": "release_candidate",
      "uid": 1239795,
      "tags": {
        "camp_site": "basic",
        "caravans": "no",
        "drinking_water": "no",
        "impromptu": "yes",
        "name": "Yellow Post #7",
        "openfire": "permit",
        "reservation": "no",
        "tents": "yes",
        "toilets": "no",
        "tourism": "camp_site",
        "website": "https://www.fs.usda.gov/recarea/sbnf/recarea/?recid=74095"
      }
    },
    {
      "type": "node",
      "id": 5170460417,
      "lat": 34.311066,
      "lon": -116.9603626,
      "timestamp": "2021-11-20T22:38:17Z",
      "version": 2,
      "changeset": 114042694,
      "user": "release_candidate",
      "uid": 1239795,
      "tags": {
        "camp_site": "basic",
        "caravans": "no",
        "drinking_water": "no",
        "impromptu": "yes",
        "name": "Yellow Post #34",
        "openfire": "permit",
        "reservation": "no",
        "tents": "yes",
        "toilets": "no",
        "tourism": "camp_site",
        "website": "https://www.fs.usda.gov/recarea/sbnf/recarea/?recid=74095"
      }
    },
    {
      "type": "node",
      "id": 6223961760,
      "lat": 34.51939,
      "lon": -117.3145208,
      "timestamp": "2019-01-21T02:09:10Z",
      "version": 1,
      "changeset": 66490162,
      "user": "galaxy4ever12",
      "uid": 9316834,
      "tags": {
        "addr:city": "Victorville",
        "addr:housenumber": "14738",
        "addr:postcode": "92392",
        "addr:state": "CA",
        "addr:street": "La Paz Drive",
        "brand": "Food 4 Less",
        "brand:wikidata": "Q5465282",
        "brand:wikipedia": "en:Food 4 Less",
        "name": "Food 4 Less",
        "opening_hours": "Mo-Su 06:00-24:00",
        "payment:cards": "yes",
        "payment:cash": "yes",
        "shop": "supermarket"
      }
    },
    {
      "type": "node",
      "id": 6422126581,
      "lat": 34.3862722,
      "lon": -117.383329,
      "timestamp": "2019-04-23T00:41:11Z",
      "version": 1,
      "changeset": 69470807,
      "user": "Megadan1990",
      "uid": 9654458,
      "tags": {
        "brand": "Naturalia",
        "brand:wikidata": "Q3337081",
        "brand:wikipedia": "fr:Naturalia",
        "leisure": "nature_reserve",
        "name": "Naturalia",
        "shop": "supermarket"
      }
    },
    {
      "type": "node",
      "id": 6566736086,
      "lat": 34.3408126,
      "lon": -117.2402977,
      "timestamp": "2019-06-24T00:37:46Z",
      "version": 1,
      "changeset": 71543740,
      "user": "Mochilão Sabático",
      "uid": 7640196,
      "tags": {
        "tourism": "camp_site"
      }
    },
    {
      "type": "node",
      "id": 6678062575,
      "lat": 34.3228439,
      "lon": -117.0468912,
      "timestamp": "2019-08-02T23:56:16Z",
      "version": 1,
      "changeset": 72959301,
      "user": "swing2",
      "uid": 287820,
      "tags": {
        "name": "Jackrabbit Spring",
        "natural": "spring"
      }
    },
    {
      "type": "node",
      "id": 6678062576,
      "lat": 34.3255197,
      "lon": -117.0429108,
      "timestamp": "2019-08-02T23:56:16Z",
      "version": 1,
      "changeset": 72959301,
      "user": "swing2",
      "uid": 287820,
      "tags": {
        "name": "Mud Spring",
        "natural": "spring"
      }
    },
    {
      "type": "node",
      "id": 6678062577,
      "lat": 34.3147226,
      "lon": -117.0399236,
      "timestamp": "2019-08-02T23:56:16Z",
      "version": 1,
      "changeset": 72959301,
      "user": "swing2",
      "uid": 287820,
      "tags": {
        "name": "Burns Spring",
        "natural": "spring"
      }
    },
    {
      "type": "node",
      "id": 6689581888,
      "lat": 34.4406496,
      "lon": -116.9450629,
      "timestamp": "2019-08-07T01:12:48Z",
      "version": 2,
      "changeset": 73088407,
      "user": "maxolasersquad",
      "uid": 55916,
      "tags": {
        "name": "Lucerne Valley Market and Hardware",
        "shop": "supermarket",
        "toilets": "yes"
      }
    },
    {
      "type": "node",
      "id": 7124656839,
      "lat": 34.3135267,
      "lon": -116.9792742,
      "timestamp": "2020-01-11T16:59:32Z",
      "version": 1,
      "changeset": 79456394,
      "user": "kylebarron",
      "uid": 8122137,
      "tags": {
        "natural": "spring"
      }
    },
    {
      "type": "node",
      "id": 7124656840,
      "lat": 34.3120734,
      "lon": -116.9550485,
      "timestamp": "2020-01-11T16:59:32Z",
      "version": 1,
      "changeset": 79456394,
      "user": "kylebarron",
      "uid": 8122137,
      "tags": {
        "name": "Hitchcock Spring",
        "natural": "spring"
      }
    },
    {
      "type": "node",
      "id": 7903616672,
      "lat": 34.4679827,
      "lon": -117.022041,
      "timestamp": "2021-01-10T16:56:56Z",
      "version": 2,
      "changeset": 97256431,
      "user": "beddy",
      "uid": 3207726,
      "tags": {
        "backcountry": "yes",
        "tourism": "camp_site"
      }
    },
    {
      "type": "node",
      "id": 7903626146,
      "lat": 34.6333082,
      "lon": -116.9440129,
      "timestamp": "2020-09-14T00:57:43Z",
      "version": 1,
      "changeset": 90834763,
      "user": "beddy",
      "uid": 3207726,
      "tags": {
        "tourism": "camp_site"
      }
    },
    {
      "type": "node",
      "id": 7913407665,
      "lat": 34.4752381,
      "lon": -117.0355842,
      "timestamp": "2020-09-16T15:26:22Z",
      "version": 1,
      "changeset": 90995505,
      "user": "beddy",
      "uid": 3207726,
      "tags": {
        "tourism": "camp_site"
      }
    },
    {
      "type": "node",
      "id": 8157221942,
      "lat": 34.4264423,
      "lon": -117.345993,
      "timestamp": "2020-11-24T07:41:31Z",
      "version": 1,
      "changeset": 94685996,
      "user": "aangle",
      "uid": 12228379,
      "tags": {
        "brand": "7-Eleven",
        "brand:wikidata": "Q259340",
        "brand:wikipedia": "en:7-Eleven",
        "name": "7-Eleven",
        "shop": "convenience"
      }
    },
    {
      "type": "node",
      "id": 8169722705,
      "lat": 34.4276409,
      "lon": -117.3380641,
      "timestamp": "2020-11-27T07:59:33Z",
      "version": 1,
      "changeset": 94880039,
      "user": "aangle",
      "uid": 12228379,
      "tags": {
        "addr:city": "Hesperia",
        "addr:housenumber": "14920",
        "addr:postcode": "92345",
        "addr:state": "CA",
        "addr:street": "Main Street",
        "brand": "ampm",
        "brand:wikidata": "Q306960",
        "brand:wikipedia": "en:Ampm",
        "name": "ampm",
        "phone": "+1-714-381-1586",
        "shop": "convenience",
        "website": "https://www.ampm.com/"
      }
    },
    {
      "type": "node",
      "id": 8306729233,
      "lat": 34.47851,
      "lon": -117.0351773,
      "timestamp": "2021-01-09T18:20:21Z",
      "version": 1,
      "changeset": 97224105,
      "user": "beddy",
      "uid": 3207726,
      "tags": {
        "natural": "spring"
      }
    },
    {
      "type": "node",
      "id": 8307110207,
      "lat": 34.4685743,
      "lon": -117.022395,
      "timestamp": "2021-01-10T16:56:56Z",
      "version": 2,
      "changeset": 97256431,
      "user": "beddy",
      "uid": 3207726,
      "tags": {
        "backcountry": "yes",
        "tourism": "camp_site"
      }
    },
    {
      "type": "node",
      "id": 8665015117,
      "lat": 34.470114,
      "lon": -117.2572732,
      "timestamp": "2021-06-20T23:35:24Z",
      "version": 2,
      "changeset": 106683602,
      "user": "Mundilfari",
      "uid": 349543,
      "tags": {
        "addr:city": "Hesperia",
        "addr:country": "US",
        "addr:county": "San Bernardino, CA",
        "addr:housenumber": "18667",
        "addr:postcode": "92345-5077",
        "addr:state": "CA",
        "addr:street": "Bear Valley Road",
        "brand": "ALDI",
        "brand:wikidata": "Q41171672",
        "brand:wikipedia": "en:Aldi",
        "building": "retail",
        "delivery": "yes",
        "drink:beer": "bottled",
        "drink:wine": "bottled",
        "name": "ALDI",
        "opening_hours": "Mo-Su 09:00-21:00",
        "payment:american_express": "yes",
        "payment:apple_pay": "yes",
        "payment:cheque": "no",
        "payment:coins": "yes",
        "payment:debit_cards": "yes",
        "payment:discover_card": "yes",
        "payment:ebt": "yes",
        "payment:google_pay": "yes",
        "payment:mastercard": "yes",
        "payment:notes": "yes",
        "payment:snap": "yes",
        "payment:visa": "yes",
        "payment:wic": "no",
        "shop": "supermarket",
        "website": "https://www.aldi.us/"
      }
    },
    {
      "type": "node",
      "id": 8665021116,
      "lat": 34.4278039,
      "lon": -117.3719329,
      "timestamp": "2021-06-20T23:36:08Z",
      "version": 2,
      "changeset": 106683608,
      "user": "Mundilfari",
      "uid": 349543,
      "tags": {
        "addr:city": "Hesperia",
        "addr:country": "US",
        "addr:county": "San Bernardino, CA",
        "addr:housenumber": "13360",
        "addr:postcode": "92345-9137",
        "addr:state": "CA",
        "addr:street": "Main Street",
        "brand": "ALDI",
        "brand:wikidata": "Q41171672",
        "brand:wikipedia": "en:Aldi",
        "delivery": "yes",
        "drink:beer": "bottled",
        "drink:wine": "bottled",
        "name": "ALDI",
        "opening_hours": "Mo-Su 09:00-21:00",
        "payment:american_express": "yes",
        "payment:apple_pay": "yes",
        "payment:cheque": "no",
        "payment:coins": "yes",
        "payment:debit_cards": "yes",
        "payment:discover_card": "yes",
        "payment:ebt": "yes",
        "payment:google_pay": "yes",
        "payment:mastercard": "yes",
        "payment:notes": "yes",
        "payment:snap": "yes",
        "payment:visa": "yes",
        "payment:wic": "no",
        "phone": "+1 714 888 4323",
        "shop": "supermarket",
        "website": "https://www.aldi.us/"
      }
    },
    {
      "type": "node",
      "id": 8963373599,
      "lat": 34.4699226,
      "lon": -117.3335698,
      "timestamp": "2021-07-30T14:26:54Z",
      "version": 1,
      "changeset": 108896365,
      "user": "JessAk71",
      "uid": 381909,
      "tags": {
        "branch": "Extra!",
        "brand": "Smart & Final",
        "brand:wikidata": "Q7543916",
        "brand:wikipedia": "en:Smart & Final",
        "name": "Smart & Final",
        "shop": "supermarket"
      }
    },
    {
      "type": "node",
      "id": 9131602086,
      "lat": 34.8473389,
      "lon": -117.3500987,
      "timestamp": "2021-09-29T09:32:59Z",
      "version": 1,
      "changeset": 111856219,
      "user": "wvdp",
      "uid": 436419,
      "tags": {
        "name": "NightJar Oasis",
        "tourism": "camp_site"
      }
    },
    {
      "type": "node",
      "id": 9851776809,
      "lat": 34.3167058,
      "lon": -117.0143402,
      "timestamp": "2022-06-27T22:05:36Z",
      "version": 1,
      "changeset": 122930075,
      "user": "Kai Johnson",
      "uid": 1906004,
      "tags": {
        "camp_site": "standard",
        "caravans": "yes",
        "drinking_water": "yes",
        "impromptu": "no",
        "name": "Big Pine Flat Equestrian Group Campground",
        "openfire": "permit",
        "operator": "US Forest Service",
        "reservation": "yes",
        "tents": "yes",
        "toilets": "yes",
        "tourism": "camp_site",
        "website": "https://www.fs.usda.gov/recarea/sbnf/recarea/?recid=26259"
      }
    },
    {
      "type": "way",
      "id": 121951884,
      "timestamp": "2019-07-14T17:58:25Z",
      "version": 2,
      "changeset": 72239480,
      "user": "Town of Apple Valley",
      "uid": 5115060,
      "center": {
        "lat": 34.4272698,
        "lon": -117.38451
      },
      "nodes": [],
      "tags": {
        "brand": "ampm",
        "brand:wikidata": "Q306960",
        "brand:wikipedia": "en:Ampm",
        "building": "yes",
        "name": "ampm",
        "shop": "convenience"
      }
    },
    {
      "type": "way",
      "id": 123539779,
      "timestamp": "2022-05-25T16:45:55Z",
      "version": 2,
      "changeset": 121484671,
      "user": "atlas-3d",
      "uid": 157189,
      "center": {
        "lat": 34.5231858,
        "lon": -117.3293161
      },
      "nodes": [],
      "tags": {
        "addr:city": "Victorville",
        "addr:housenumber": "15350",
        "addr:postcode": "93533",
        "addr:state": "CA",
        "addr:street": "Roy Rogers Drive",
        "brand": "WinCo Foods",
        "brand:wikidata": "Q8023592",
        "brand:wikipedia": "en:WinCo Foods",
        "building": "retail",
        "name": "WinCo Foods",
        "shop": "supermarket",
        "website": "https://www.wincofoods.com/stores/win-co-foods-victorville-67/4758"
      }
    },
    {
      "type": "way",
      "id": 129481376,
      "timestamp": "2022-05-13T15:47:52Z",
      "version": 3,
      "changeset": 120943234,
      "user": "atlas-3d",
      "uid": 157189,
      "center": {
        "lat": 34.5062185,
        "lon": -117.398826
      },
      "nodes": [],
      "tags": {
        "brand": "ampm",
        "brand:wikidata": "Q306960",
        "brand:wikipedia": "en:Ampm",
        "building": "yes",
        "name": "ampm",
        "shop": "convenience"
      }
    },
    {
      "type": "way",
      "id": 131541451,
      "timestamp": "2019-05-08T02:54:35Z",
      "version": 3,
      "changeset": 70004538,
      "user": "Timothy Smith",
      "uid": 115918,
      "center": {
        "lat": 34.4204375,
        "lon": -117.2832937
      },
      "nodes": [],
      "tags": {
        "addr:housenumber": "17390",
        "addr:postcode": "92345",
        "addr:street": "Main Street",
        "brand": "Vons",
        "brand:wikidata": "Q7941609",
        "brand:wikipedia": "en:Vons",
        "building": "yes",
        "designation": "Safeway 2371",
        "name": "Vons",
        "shop": "supermarket",
        "website": "https://local.vons.com/ca/hesperia-2371.html"
      }
    },
    {
      "type": "way",
      "id": 133790019,
      "timestamp": "2019-07-19T11:17:37Z",
      "version": 5,
      "changeset": 72425945,
      "user": "Town of Apple Valley",
      "uid": 5115060,
      "center": {
        "lat": 34.4725764,
        "lon": -117.2896514
      },
      "nodes": [],
      "tags": {
        "addr:country": "US",
        "addr:housenumber": "12199",
        "addr:postcode": "92392",
        "addr:state": "CA",
        "addr:street": "Hesperia Road",
        "brand": "Vons",
        "brand:wikidata": "Q7941609",
        "brand:wikipedia": "en:Vons",
        "building": "retail",
        "designation": "Safeway 2131",
        "name": "Vons",
        "shop": "supermarket",
        "website": "https://local.vons.com/ca/victorville-2131.html"
      }
    },
    {
      "type": "way",
      "id": 160379160,
      "timestamp": "2022-05-21T21:10:20Z",
      "version": 3,
      "changeset": 121298416,
      "user": "atlas-3d",
      "uid": 157189,
      "center": {
        "lat": 34.4708629,
        "lon": -117.3434077
      },
      "nodes": [],
      "tags": {
        "brand": "ampm",
        "brand:wikidata": "Q306960",
        "brand:wikipedia": "en:Ampm",
        "building": "yes",
        "name": "ampm",
        "shop": "convenience"
      }
    },
    {
      "type": "way",
      "id": 173390973,
      "timestamp": "2019-10-04T04:18:58Z",
      "version": 5,
      "changeset": 75259419,
      "user": "Timothy Smith",
      "uid": 115918,
      "center": {
        "lat": 34.8847503,
        "lon": -116.9920239
      },
      "nodes": [],
      "tags": {
        "addr:city": "Barstow",
        "addr:country": "US",
        "addr:full": "301 Montara Rd",
        "addr:housenumber": "301",
        "addr:postcode": "92311",
        "addr:state": "CA",
        "addr:street": "Montara Road",
        "brand": "Walmart",
        "brand:wikidata": "Q483551",
        "brand:wikipedia": "en:Walmart",
        "building": "retail",
        "name": "Walmart Supercenter",
        "opening_hours": "Mo-Su 06:00-24:00",
        "operator": "Walmart",
        "phone": "+1-760-252-5000",
        "ref:walmart": "1879",
        "shop": "supermarket",
        "source:name": "local_knowledge",
        "website": "https://www.walmart.com/store/1879/barstow-ca/whats-new"
      }
    },
    {
      "type": "way",
      "id": 175482023,
      "timestamp": "2020-10-06T03:19:08Z",
      "version": 2,
      "changeset": 92013884,
      "user": "Timothy Smith",
      "uid": 115918,
      "center": {
        "lat": 34.8515288,
        "lon": -117.0845102
      },
      "nodes": [],
      "tags": {
        "brand": "Chevron",
        "brand:wikidata": "Q319642",
        "brand:wikipedia": "en:Chevron Corporation",
        "building": "yes",
        "name": "Chevron",
        "shop": "convenience"
      }
    },
    {
      "type": "way",
      "id": 175482042,
      "timestamp": "2020-10-06T03:19:08Z",
      "version": 2,
      "changeset": 92013884,
      "user": "Timothy Smith",
      "uid": 115918,
      "center": {
        "lat": 34.8487888,
        "lon": -117.0837106
      },
      "nodes": [],
      "tags": {
        "brand": "ampm",
        "brand:wikidata": "Q306960",
        "brand:wikipedia": "en:Ampm",
        "building": "yes",
        "name": "ampm",
        "shop": "convenience"
      }
    },
    {
      "type": "way",
      "id": 223416539,
      "timestamp": "2020-10-06T03:19:08Z",
      "version": 3,
      "changeset": 92013884,
      "user": "Timothy Smith",
      "uid": 115918,
      "center": {
        "lat": 34.8549122,
        "lon": -117.087527
      },
      "nodes": [],
      "tags": {
        "building": "yes",
        "name": "Pilot",
        "shop": "convenience"
      }
    },
    {
      "type": "way",
      "id": 285802634,
      "timestamp": "2020-04-21T06:54:08Z",
      "version": 7,
      "changeset": 83859550,
      "user": "Timothy Smith",
      "uid": 115918,
      "center": {
        "lat": 34.509298,
        "lon": -117.3969033
      },
      "nodes": [],
      "tags": {
        "addr:city": "Victorville",
        "addr:country": "US",
        "addr:full": "12234 Palmdale Road",
        "addr:housenumber": "12234",
        "addr:postcode": "92392",
        "addr:state": "CA",
        "addr:street": "Palmdale Road",
        "brand": "Walmart",
        "brand:wikidata": "Q483551",
        "brand:wikipedia": "en:Walmart",
        "building": "retail",
        "name": "Walmart Supercenter",
        "opening_hours": "Mo-Su 05:00-24:00",
        "operator": "Walmart",
        "phone": "+1-760-493-3047",
        "ref:walmart": "4392",
        "shop": "supermarket",
        "website": "https://www.walmart.com/store/4392/victorville-ca/details"
      }
    },
    {
      "type": "way",
      "id": 361806261,
      "timestamp": "2015-07-22T21:38:51Z",
      "version": 1,
      "changeset": 32813390,
      "user": "Bad Ephemeris",
      "uid": 3066406,
      "center": {
        "lat": 34.6477874,
        "lon": -117.1320611
      },
      "nodes": [],
      "tags": {
        "tourism": "camp_site"
      }
    },
    {
      "type": "way",
      "id": 361806262,
      "timestamp": "2015-07-22T21:38:51Z",
      "version": 1,
      "changeset": 32813390,
      "user": "Bad Ephemeris",
      "uid": 3066406,
      "center": {
        "lat": 34.6474038,
        "lon": -117.1300067
      },
      "nodes": [],
      "tags": {
        "tourism": "camp_site"
      }
    },
    {
      "type": "way",
      "id": 361806263,
      "timestamp": "2015-07-22T21:38:51Z",
      "version": 1,
      "changeset": 32813390,
      "user": "Bad Ephemeris",
      "uid": 3066406,
      "center": {
        "lat": 34.6455595,
        "lon": -117.1340522
      },
      "nodes": [],
      "tags": {
        "tourism": "camp_site"
      }
    },
    {
      "type": "way",
      "id": 361806264,
      "timestamp": "2015-07-22T21:38:51Z",
      "version": 1,
      "changeset": 32813390,
      "user": "Bad Ephemeris",
      "uid": 3066406,
      "center": {
        "lat": 34.6453668,
        "lon": -117.1353925
      },
      "nodes": [],
      "tags": {
        "tourism": "camp_site"
      }
    },
    {
      "type": "way",
      "id": 361806265,
      "timestamp": "2015-07-22T21:38:51Z",
      "version": 1,
      "changeset": 32813390,
      "user": "Bad Ephemeris",
      "uid": 3066406,
      "center": {
        "lat": 34.6460867,
        "lon": -117.136351
      },
      "nodes": [],
      "tags": {
        "tourism": "camp_site"
      }
    },
    {
      "type": "way",
      "id": 361806266,
      "timestamp": "2015-07-22T21:38:51Z",
      "version": 1,
      "changeset": 32813390,
      "user": "Bad Ephemeris",
      "uid": 3066406,
      "center": {
        "lat": 34.6456574,
        "lon": -117.1391197
      },
      "nodes": [],
      "tags": {
        "tourism": "camp_site"
      }
    },
    {
      "type": "way",
      "id": 361806267,
      "timestamp": "2015-07-22T21:38:51Z",
      "version": 1,
      "changeset": 32813390,
      "user": "Bad Ephemeris",
      "uid": 3066406,
      "center": {
        "lat": 34.6424613,
        "lon": -117.148185
      },
      "nodes": [],
      "tags": {
        "tourism": "camp_site"
      }
    },
    {
      "type": "way",
      "id": 361806268,
      "timestamp": "2015-07-22T21:38:51Z",
      "version": 1,
      "changeset": 32813390,
      "user": "Bad Ephemeris",
      "uid": 3066406,
      "center": {
        "lat": 34.6424221,
        "lon": -117.1519486
      },
      "nodes": [],
      "tags": {
        "tourism": "camp_site"
      }
    },
    {
      "type": "way",
      "id": 361806269,
      "timestamp": "2019-11-13T19:16:10Z",
      "version": 2,
      "changeset": 77032777,
      "user": "techlady",
      "uid": 104962,
      "center": {
        "lat": 34.6401949,
        "lon": -117.1562484
      },
      "nodes": [],
      "tags": {
        "tourism": "camp_site"
      }
    },
    {
      "type": "way",
      "id": 361806270,
      "timestamp": "2019-11-13T19:16:10Z",
      "version": 2,
      "changeset": 77032777,
      "user": "techlady",
      "uid": 104962,
      "center": {
        "lat": 34.6384561,
        "lon": -117.1569319
      },
      "nodes": [],
      "tags": {
        "tourism": "camp_site"
      }
    },
    {
      "type": "way",
      "id": 361806271,
      "timestamp": "2019-11-13T19:16:10Z",
      "version": 3,
      "changeset": 77032777,
      "user": "techlady",
      "uid": 104962,
      "center": {
        "lat": 34.6364796,
        "lon": -117.1633853
      },
      "nodes": [],
      "tags": {
        "tourism": "camp_site"
      }
    },
    {
      "type": "way",
      "id": 361806272,
      "timestamp": "2015-07-22T21:38:51Z",
      "version": 1,
      "changeset": 32813390,
      "user": "Bad Ephemeris",
      "uid": 3066406,
      "center": {
        "lat": 34.6341752,
        "lon": -117.1674622
      },
      "nodes": [],
      "tags": {
        "tourism": "camp_site"
      }
    },
    {
      "type": "way",
      "id": 361806273,
      "timestamp": "2015-07-22T21:38:52Z",
      "version": 1,
      "changeset": 32813390,
      "user": "Bad Ephemeris",
      "uid": 3066406,
      "center": {
        "lat": 34.6499319,
        "lon": -117.1273532
      },
      "nodes": [],
      "tags": {
        "tourism": "camp_site"
      }
    },
    {
      "type": "way",
      "id": 361806274,
      "timestamp": "2015-07-22T21:38:52Z",
      "version": 1,
      "changeset": 32813390,
      "user": "Bad Ephemeris",
      "uid": 3066406,
      "center": {
        "lat": 34.6480733,
        "lon": -117.1208919
      },
      "nodes": [],
      "tags": {
        "tourism": "camp_site"
      }
    },
    {
      "type": "way",
      "id": 361806275,
      "timestamp": "2015-07-22T21:38:52Z",
      "version": 1,
      "changeset": 32813390,
      "user": "Bad Ephemeris",
      "uid": 3066406,
      "center": {
        "lat": 34.6504302,
        "lon": -117.1190042
      },
      "nodes": [],
      "tags": {
        "tourism": "camp_site"
      }
    },
    {
      "type": "way",
      "id": 361806276,
      "timestamp": "2015-07-22T21:38:52Z",
      "version": 1,
      "changeset": 32813390,
      "user": "Bad Ephemeris",
      "uid": 3066406,
      "center": {
        "lat": 34.6530936,
        "lon": -117.1160273
      },
      "nodes": [],
      "tags": {
        "tourism": "camp_site"
      }
    },
    {
      "type": "way",
      "id": 361806277,
      "timestamp": "2015-07-22T21:38:52Z",
      "version": 1,
      "changeset": 32813390,
      "user": "Bad Ephemeris",
      "uid": 3066406,
      "center": {
        "lat": 34.6595236,
        "lon": -117.117723
      },
      "nodes": [],
      "tags": {
        "tourism": "camp_site"
      }
    },
    {
      "type": "way",
      "id": 361806278,
      "timestamp": "2015-07-22T21:38:52Z",
      "version": 1,
      "changeset": 32813390,
      "user": "Bad Ephemeris",
      "uid": 3066406,
      "center": {
        "lat": 34.6602146,
        "lon": -117.1142186
      },
      "nodes": [],
      "tags": {
        "tourism": "camp_site"
      }
    },
    {
      "type": "way",
      "id": 361806279,
      "timestamp": "2015-07-22T21:38:52Z",
      "version": 1,
      "changeset": 32813390,
      "user": "Bad Ephemeris",
      "uid": 3066406,
      "center": {
        "lat": 34.6615388,
        "lon": -117.1175958
      },
      "nodes": [],
      "tags": {
        "tourism": "camp_site"
      }
    },
    {
      "type": "way",
      "id": 361806280,
      "timestamp": "2015-07-22T21:38:52Z",
      "version": 1,
      "changeset": 32813390,
      "user": "Bad Ephemeris",
      "uid": 3066406,
      "center": {
        "lat": 34.6639875,
        "lon": -117.1210563
      },
      "nodes": [],
      "tags": {
        "tourism": "camp_site"
      }
    },
    {
      "type": "way",
      "id": 361806281,
      "timestamp": "2015-07-22T21:38:52Z",
      "version": 1,
      "changeset": 32813390,
      "user": "Bad Ephemeris",
      "uid": 3066406,
      "center": {
        "lat": 34.6652403,
        "lon": -117.1189935
      },
      "nodes": [],
      "tags": {
        "tourism": "camp_site"
      }
    },
    {
      "type": "way",
      "id": 361806282,
      "timestamp": "2015-07-22T21:38:52Z",
      "version": 1,
      "changeset": 32813390,
      "user": "Bad Ephemeris",
      "uid": 3066406,
      "center": {
        "lat": 34.667799,
        "lon": -117.1163768
      },
      "nodes": [],
      "tags": {
        "tourism": "camp_site"
      }
    },
    {
      "type": "way",
      "id": 361806283,
      "timestamp": "2015-07-22T21:38:52Z",
      "version": 1,
      "changeset": 32813390,
      "user": "Bad Ephemeris",
      "uid": 3066406,
      "center": {
        "lat": 34.6699311,
        "lon": -117.120202
      },
      "nodes": [],
      "tags": {
        "tourism": "camp_site"
      }
    },
    {
      "type": "way",
      "id": 361806284,
      "timestamp": "2015-07-22T21:38:52Z",
      "version": 1,
      "changeset": 32813390,
      "user": "Bad Ephemeris",
      "uid": 3066406,
      "center": {
        "lat": 34.6635424,
        "lon": -117.1601468
      },
      "nodes": [],
      "tags": {
        "tourism": "camp_site"
      }
    },
    {
      "type": "way",
      "id": 361806285,
      "timestamp": "2015-07-22T21:38:52Z",
      "version": 1,
      "changeset": 32813390,
      "user": "Bad Ephemeris",
      "uid": 3066406,
      "center": {
        "lat": 34.6586367,
        "lon": -117.1643039
      },
      "nodes": [],
      "tags": {
        "tourism": "camp_site"
      }
    },
    {
      "type": "way",
      "id": 361806286,
      "timestamp": "2015-07-22T21:38:52Z",
      "version": 1,
      "changeset": 32813390,
      "user": "Bad Ephemeris",
      "uid": 3066406,
      "center": {
        "lat": 34.6577715,
        "lon": -117.1656138
      },
      "nodes": [],
      "tags": {
        "tourism": "camp_site"
      }
    },
    {
      "type": "way",
      "id": 361806287,
      "timestamp": "2015-07-22T21:38:53Z",
      "version": 1,
      "changeset": 32813390,
      "user": "Bad Ephemeris",
      "uid": 3066406,
      "center": {
        "lat": 34.6480497,
        "lon": -117.1653276
      },
      "nodes": [],
      "tags": {
        "tourism": "camp_site"
      }
    },
    {
      "type": "way",
      "id": 361806288,
      "timestamp": "2015-07-22T21:38:53Z",
      "version": 1,
      "changeset": 32813390,
      "user": "Bad Ephemeris",
      "uid": 3066406,
      "center": {
        "lat": 34.6485635,
        "lon": -117.1662697
      },
      "nodes": [],
      "tags": {
        "tourism": "camp_site"
      }
    },
    {
      "type": "way",
      "id": 361813574,
      "timestamp": "2015-07-22T23:02:27Z",
      "version": 1,
      "changeset": 32814620,
      "user": "Bad Ephemeris",
      "uid": 3066406,
      "center": {
        "lat": 34.6255179,
        "lon": -117.150938
      },
      "nodes": [],
      "tags": {
        "tourism": "camp_site"
      }
    },
    {
      "type": "way",
      "id": 361813584,
      "timestamp": "2020-11-20T14:27:49Z",
      "version": 2,
      "changeset": 94506360,
      "user": "rekulc1",
      "uid": 10114014,
      "center": {
        "lat": 34.6701301,
        "lon": -117.1845845
      },
      "nodes": [],
      "tags": {
        "tourism": "camp_site"
      }
    },
    {
      "type": "way",
      "id": 361981166,
      "timestamp": "2015-07-23T22:37:34Z",
      "version": 1,
      "changeset": 32839019,
      "user": "Bad Ephemeris",
      "uid": 3066406,
      "center": {
        "lat": 34.6684672,
        "lon": -117.1077793
      },
      "nodes": [],
      "tags": {
        "tourism": "camp_site"
      }
    },
    {
      "type": "way",
      "id": 361981167,
      "timestamp": "2015-07-23T22:37:34Z",
      "version": 1,
      "changeset": 32839019,
      "user": "Bad Ephemeris",
      "uid": 3066406,
      "center": {
        "lat": 34.6600814,
        "lon": -117.1054515
      },
      "nodes": [],
      "tags": {
        "tourism": "camp_site"
      }
    },
    {
      "type": "way",
      "id": 361981168,
      "timestamp": "2015-07-23T22:37:34Z",
      "version": 1,
      "changeset": 32839019,
      "user": "Bad Ephemeris",
      "uid": 3066406,
      "center": {
        "lat": 34.6390261,
        "lon": -117.1016899
      },
      "nodes": [],
      "tags": {
        "tourism": "camp_site"
      }
    },
    {
      "type": "way",
      "id": 361981169,
      "timestamp": "2015-07-23T22:37:34Z",
      "version": 1,
      "changeset": 32839019,
      "user": "Bad Ephemeris",
      "uid": 3066406,
      "center": {
        "lat": 34.6667915,
        "lon": -117.1095627
      },
      "nodes": [],
      "tags": {
        "tourism": "camp_site"
      }
    },
    {
      "type": "way",
      "id": 361981170,
      "timestamp": "2015-08-12T22:07:17Z",
      "version": 2,
      "changeset": 33301816,
      "user": "Bad Ephemeris",
      "uid": 3066406,
      "center": {
        "lat": 34.6675793,
        "lon": -117.1041707
      },
      "nodes": [],
      "tags": {
        "tourism": "camp_site"
      }
    },
    {
      "type": "way",
      "id": 361981171,
      "timestamp": "2015-07-23T22:37:34Z",
      "version": 1,
      "changeset": 32839019,
      "user": "Bad Ephemeris",
      "uid": 3066406,
      "center": {
        "lat": 34.661716,
        "lon": -117.1143138
      },
      "nodes": [],
      "tags": {
        "tourism": "camp_site"
      }
    },
    {
      "type": "way",
      "id": 361981172,
      "timestamp": "2015-07-23T22:37:34Z",
      "version": 1,
      "changeset": 32839019,
      "user": "Bad Ephemeris",
      "uid": 3066406,
      "center": {
        "lat": 34.663346,
        "lon": -117.1164993
      },
      "nodes": [],
      "tags": {
        "tourism": "camp_site"
      }
    },
    {
      "type": "way",
      "id": 361981173,
      "timestamp": "2015-07-23T22:37:34Z",
      "version": 1,
      "changeset": 32839019,
      "user": "Bad Ephemeris",
      "uid": 3066406,
      "center": {
        "lat": 34.6593315,
        "lon": -117.1205877
      },
      "nodes": [],
      "tags": {
        "tourism": "camp_site"
      }
    },
    {
      "type": "way",
      "id": 361981174,
      "timestamp": "2015-07-23T22:37:34Z",
      "version": 1,
      "changeset": 32839019,
      "user": "Bad Ephemeris",
      "uid": 3066406,
      "center": {
        "lat": 34.6561441,
        "lon": -117.1229366
      },
      "nodes": [],
      "tags": {
        "tourism": "camp_site"
      }
    },
    {
      "type": "way",
      "id": 365404573,
      "timestamp": "2015-08-12T22:07:13Z",
      "version": 1,
      "changeset": 33301816,
      "user": "Bad Ephemeris",
      "uid": 3066406,
      "center": {
        "lat": 34.6619106,
        "lon": -117.1108823
      },
      "nodes": [],
      "tags": {
        "tourism": "camp_site"
      }
    },
    {
      "type": "way",
      "id": 365404575,
      "timestamp": "2015-08-12T22:07:14Z",
      "version": 1,
      "changeset": 33301816,
      "user": "Bad Ephemeris",
      "uid": 3066406,
      "center": {
        "lat": 34.6788729,
        "lon": -117.0799947
      },
      "nodes": [],
      "tags": {
        "tourism": "camp_site"
      }
    },
    {
      "type": "way",
      "id": 365406250,
      "timestamp": "2015-08-12T22:32:35Z",
      "version": 1,
      "changeset": 33302059,
      "user": "Bad Ephemeris",
      "uid": 3066406,
      "center": {
        "lat": 34.6639574,
        "lon": -117.0557208
      },
      "nodes": [],
      "tags": {
        "tourism": "camp_site"
      }
    },
    {
      "type": "way",
      "id": 365406251,
      "timestamp": "2015-08-12T22:32:36Z",
      "version": 1,
      "changeset": 33302059,
      "user": "Bad Ephemeris",
      "uid": 3066406,
      "center": {
        "lat": 34.6835883,
        "lon": -117.080766
      },
      "nodes": [],
      "tags": {
        "tourism": "camp_site"
      }
    },
    {
      "type": "way",
      "id": 422118419,
      "timestamp": "2020-11-24T07:22:46Z",
      "version": 4,
      "changeset": 94684566,
      "user": "aangle",
      "uid": 12228379,
      "center": {
        "lat": 34.4242014,
        "lon": -117.3700005
      },
      "nodes": [],
      "tags": {
        "addr:city": "Hesperia",
        "addr:housenumber": "13401",
        "addr:postcode": "92345",
        "addr:state": "CA",
        "addr:street": "Main Street",
        "brand": "Walmart",
        "brand:wikidata": "Q483551",
        "brand:wikipedia": "en:Walmart",
        "building": "yes",
        "name": "Walmart Supercenter",
        "phone": "+1 (760) 948-4851",
        "shop": "supermarket",
        "website": "https://www.walmart.com/store/4340-hesperia-ca"
      }
    },
    {
      "type": "way",
      "id": 460848067,
      "timestamp": "2022-05-25T02:47:46Z",
      "version": 5,
      "changeset": 121451791,
      "user": "atlas-3d",
      "uid": 157189,
      "center": {
        "lat": 34.5395526,
        "lon": -117.2717987
      },
      "nodes": [],
      "tags": {
        "addr:city": "Apple Valley",
        "addr:housenumber": "17979",
        "addr:postcode": "92307",
        "addr:street": "us highway 18",
        "brand": "7-Eleven",
        "brand:wikidata": "Q259340",
        "name": "7-Eleven",
        "shop": "convenience"
      }
    },
    {
      "type": "way",
      "id": 460848365,
      "timestamp": "2019-06-08T03:20:36Z",
      "version": 2,
      "changeset": 71042297,
      "user": "Timothy Smith",
      "uid": 115918,
      "center": {
        "lat": 34.5301019,
        "lon": -117.2249197
      },
      "nodes": [],
      "tags": {
        "brand": "ampm",
        "brand:wikidata": "Q306960",
        "brand:wikipedia": "en:Ampm",
        "name": "ampm",
        "shop": "convenience"
      }
    },
    {
      "type": "way",
      "id": 460848367,
      "timestamp": "2021-02-22T12:59:03Z",
      "version": 6,
      "changeset": 99748711,
      "user": "MrDrPrPatrick",
      "uid": 11458812,
      "center": {
        "lat": 34.5255371,
        "lon": -117.223089
      },
      "nodes": [],
      "tags": {
        "addr:city": "Apple Valley",
        "addr:country": "US",
        "addr:full": "20251 Hwy 18",
        "addr:housenumber": "20251",
        "addr:postcode": "92307",
        "addr:state": "CA",
        "addr:street": "Highway 18",
        "brand": "Walmart",
        "brand:wikidata": "Q483551",
        "brand:wikipedia": "en:Walmart",
        "building": "retail",
        "ele": "989",
        "name": "Walmart Neighborhood Market",
        "opening_hours": "Mo-Su 06:00-22:00",
        "operator": "Walmart",
        "phone": "+1-760-946-2030",
        "ref:walmart": "2333",
        "shop": "supermarket",
        "website": "https://www.walmart.com/store/2333/apple-valley-ca/whats-new"
      }
    },
    {
      "type": "way",
      "id": 460848368,
      "timestamp": "2022-04-23T19:46:53Z",
      "version": 6,
      "changeset": 120103287,
      "user": "Timothy Smith",
      "uid": 115918,
      "center": {
        "lat": 34.525087,
        "lon": -117.2202543
      },
      "nodes": [],
      "tags": {
        "brand": "Albertsons",
        "brand:wikidata": "Q2831861",
        "brand:wikipedia": "en:Albertsons",
        "building": "yes",
        "name": "Albertsons",
        "shop": "supermarket"
      }
    },
    {
      "type": "way",
      "id": 460849802,
      "timestamp": "2019-08-10T21:37:15Z",
      "version": 4,
      "changeset": 73229752,
      "user": "maxolasersquad",
      "uid": 55916,
      "center": {
        "lat": 34.4720272,
        "lon": -117.1898542
      },
      "nodes": [],
      "tags": {
        "addr:city": "Apple Valley",
        "addr:country": "US",
        "addr:housenumber": "21718",
        "addr:state": "CA",
        "addr:street": "Bear Valley Road",
        "brand": "7-Eleven",
        "brand:wikidata": "Q259340",
        "brand:wikipedia": "en:7-Eleven",
        "building": "retail",
        "name": "7-Eleven",
        "shop": "convenience"
      }
    },
    {
      "type": "way",
      "id": 460849804,
      "timestamp": "2019-04-04T05:06:09Z",
      "version": 7,
      "changeset": 68866712,
      "user": "Timothy Smith",
      "uid": 115918,
      "center": {
        "lat": 34.474058,
        "lon": -117.2404648
      },
      "nodes": [],
      "tags": {
        "brand": "Stater Bros.",
        "brand:wikidata": "Q7604016",
        "brand:wikipedia": "en:Stater Bros.",
        "building": "yes",
        "name": "Stater Bros.",
        "shop": "supermarket"
      }
    },
    {
      "type": "way",
      "id": 460850836,
      "timestamp": "2019-04-04T05:06:08Z",
      "version": 5,
      "changeset": 68866712,
      "user": "Timothy Smith",
      "uid": 115918,
      "center": {
        "lat": 34.4679908,
        "lon": -117.2476538
      },
      "nodes": [],
      "tags": {
        "brand": "WinCo Foods",
        "brand:wikidata": "Q8023592",
        "brand:wikipedia": "en:WinCo Foods",
        "building": "yes",
        "name": "WinCo Foods",
        "shop": "supermarket"
      }
    },
    {
      "type": "way",
      "id": 470126630,
      "timestamp": "2018-07-09T06:35:45Z",
      "version": 3,
      "changeset": 60525691,
      "user": "Town of Apple Valley",
      "uid": 5115060,
      "center": {
        "lat": 34.4670841,
        "lon": -117.2410898
      },
      "nodes": [],
      "tags": {
        "amenity": "shelter",
        "bench": "yes",
        "bin": "yes",
        "building": "yes",
        "shelter_type": "gazebo"
      }
    },
    {
      "type": "way",
      "id": 478557762,
      "timestamp": "2021-02-21T12:26:55Z",
      "version": 2,
      "changeset": 99677884,
      "user": "MrDrPrPatrick",
      "uid": 11458812,
      "center": {
        "lat": 34.3857535,
        "lon": -117.251442
      },
      "nodes": [],
      "tags": {
        "tourism": "camp_site"
      }
    },
    {
      "type": "way",
      "id": 479415412,
      "timestamp": "2019-07-20T15:35:24Z",
      "version": 6,
      "changeset": 72463773,
      "user": "Town of Apple Valley",
      "uid": 5115060,
      "center": {
        "lat": 34.4729521,
        "lon": -117.1922677
      },
      "nodes": [],
      "tags": {
        "brand": "Stater Bros.",
        "brand:wikidata": "Q7604016",
        "brand:wikipedia": "en:Stater Bros.",
        "building": "yes",
        "name": "Stater Bros.",
        "shop": "supermarket"
      }
    },
    {
      "type": "way",
      "id": 493394583,
      "timestamp": "2019-08-31T03:35:08Z",
      "version": 2,
      "changeset": 73941630,
      "user": "Timothy Smith",
      "uid": 115918,
      "center": {
        "lat": 34.4751946,
        "lon": -117.3393504
      },
      "nodes": [],
      "tags": {
        "brand": "Vallarta",
        "brand:wikidata": "Q7911833",
        "brand:wikipedia": "en:Vallarta Supermarkets",
        "building": "yes",
        "cuisine": "latin_american",
        "name": "Vallarta",
        "name:es": "Vallarta",
        "official_name": "Vallarta Supermarkets",
        "shop": "supermarket"
      }
    },
    {
      "type": "way",
      "id": 494068973,
      "timestamp": "2019-06-25T00:14:51Z",
      "version": 3,
      "changeset": 71580281,
      "user": "Town of Apple Valley",
      "uid": 5115060,
      "center": {
        "lat": 34.4701316,
        "lon": -117.2090667
      },
      "nodes": [],
      "tags": {
        "brand": "Food 4 Less",
        "brand:wikidata": "Q5465282",
        "brand:wikipedia": "en:Food 4 Less",
        "building": "yes",
        "name": "Food 4 Less",
        "shop": "supermarket"
      }
    },
    {
      "type": "way",
      "id": 494580914,
      "timestamp": "2019-10-18T00:46:51Z",
      "version": 2,
      "changeset": 75865666,
      "user": "Low Level M",
      "uid": 9313144,
      "center": {
        "lat": 34.5388462,
        "lon": -117.2613875
      },
      "nodes": [],
      "tags": {
        "brand": "Circle K",
        "brand:wikidata": "Q3268010",
        "brand:wikipedia": "en:Circle K",
        "building": "yes",
        "name": "Circle K",
        "shop": "convenience"
      }
    },
    {
      "type": "way",
      "id": 494676594,
      "timestamp": "2019-06-25T00:14:51Z",
      "version": 3,
      "changeset": 71580281,
      "user": "Town of Apple Valley",
      "uid": 5115060,
      "center": {
        "lat": 34.470932,
        "lon": -117.2082867
      },
      "nodes": [],
      "tags": {
        "brand": "ampm",
        "brand:wikidata": "Q306960",
        "brand:wikipedia": "en:Ampm",
        "building": "yes",
        "name": "ampm",
        "shop": "convenience"
      }
    },
    {
      "type": "way",
      "id": 494682793,
      "timestamp": "2018-04-15T02:44:57Z",
      "version": 2,
      "changeset": 58101233,
      "user": "Town of Apple Valley",
      "uid": 5115060,
      "center": {
        "lat": 34.4956917,
        "lon": -117.1872729
      },
      "nodes": [],
      "tags": {
        "amenity": "shelter"
      }
    },
    {
      "type": "way",
      "id": 494960476,
      "timestamp": "2018-06-20T09:41:18Z",
      "version": 3,
      "changeset": 60004815,
      "user": "Town of Apple Valley",
      "uid": 5115060,
      "center": {
        "lat": 34.5252254,
        "lon": -117.2160652
      },
      "nodes": [],
      "tags": {
        "amenity": "shelter",
        "shelter_type": "gazebo"
      }
    },
    {
      "type": "way",
      "id": 495131184,
      "timestamp": "2017-05-22T06:51:09Z",
      "version": 1,
      "changeset": 48878022,
      "user": "Town of Apple Valley",
      "uid": 5115060,
      "center": {
        "lat": 34.4962105,
        "lon": -117.1880988
      },
      "nodes": [],
      "tags": {
        "amenity": "shelter"
      }
    },
    {
      "type": "way",
      "id": 496089140,
      "timestamp": "2017-05-26T10:48:31Z",
      "version": 1,
      "changeset": 48998208,
      "user": "Town of Apple Valley",
      "uid": 5115060,
      "center": {
        "lat": 34.5307117,
        "lon": -117.2129762
      },
      "nodes": [],
      "tags": {
        "amenity": "shelter"
      }
    },
    {
      "type": "way",
      "id": 496089274,
      "timestamp": "2017-05-26T10:49:43Z",
      "version": 1,
      "changeset": 48998250,
      "user": "Town of Apple Valley",
      "uid": 5115060,
      "center": {
        "lat": 34.5243441,
        "lon": -117.211372
      },
      "nodes": [],
      "tags": {
        "amenity": "shelter"
      }
    },
    {
      "type": "way",
      "id": 505517170,
      "timestamp": "2022-05-26T13:18:13Z",
      "version": 3,
      "changeset": 121525542,
      "user": "atlas-3d",
      "uid": 157189,
      "center": {
        "lat": 34.536353,
        "lon": -117.2936077
      },
      "nodes": [],
      "tags": {
        "addr:city": "Victorville",
        "addr:housenumber": "16869",
        "addr:postcode": "92395",
        "addr:state": "CA",
        "addr:street": "D Street",
        "brand": "ampm",
        "brand:wikidata": "Q306960",
        "brand:wikipedia": "en:Ampm",
        "building": "yes",
        "name": "ampm",
        "shop": "convenience"
      }
    },
    {
      "type": "way",
      "id": 513981498,
      "timestamp": "2021-09-28T03:29:52Z",
      "version": 3,
      "changeset": 111794934,
      "user": "MrDrPrPatrick",
      "uid": 11458812,
      "center": {
        "lat": 34.4734263,
        "lon": -117.2624378
      },
      "nodes": [],
      "tags": {
        "amenity": "shelter"
      }
    },
    {
      "type": "way",
      "id": 515320420,
      "timestamp": "2017-08-13T18:22:20Z",
      "version": 1,
      "changeset": 51089395,
      "user": "Town of Apple Valley",
      "uid": 5115060,
      "center": {
        "lat": 34.4751833,
        "lon": -117.2667316
      },
      "nodes": [],
      "tags": {
        "amenity": "shelter"
      }
    },
    {
      "type": "way",
      "id": 532671469,
      "timestamp": "2017-10-15T08:22:41Z",
      "version": 1,
      "changeset": 52948702,
      "user": "Town of Apple Valley",
      "uid": 5115060,
      "center": {
        "lat": 34.4714181,
        "lon": -117.2420667
      },
      "nodes": [],
      "tags": {
        "amenity": "shelter",
        "shelter_type": "gazebo"
      }
    },
    {
      "type": "way",
      "id": 553883212,
      "timestamp": "2018-08-01T14:06:46Z",
      "version": 2,
      "changeset": 61265250,
      "user": "Town of Apple Valley",
      "uid": 5115060,
      "center": {
        "lat": 34.4664644,
        "lon": -117.2410747
      },
      "nodes": [],
      "tags": {
        "amenity": "shelter",
        "building": "yes"
      }
    },
    {
      "type": "way",
      "id": 560156066,
      "timestamp": "2018-12-26T01:28:46Z",
      "version": 2,
      "changeset": 65771691,
      "user": "happy5214",
      "uid": 199837,
      "center": {
        "lat": 34.537872,
        "lon": -117.2940691
      },
      "nodes": [],
      "tags": {
        "amenity": "shelter",
        "shelter_type": "public_transport"
      }
    },
    {
      "type": "way",
      "id": 560211032,
      "timestamp": "2021-02-23T07:48:03Z",
      "version": 2,
      "changeset": 99802011,
      "user": "MrDrPrPatrick",
      "uid": 11458812,
      "center": {
        "lat": 34.5449323,
        "lon": -117.2041848
      },
      "nodes": [],
      "tags": {
        "amenity": "shelter",
        "building": "yes"
      }
    },
    {
      "type": "way",
      "id": 560399791,
      "timestamp": "2018-02-10T22:44:05Z",
      "version": 1,
      "changeset": 56251776,
      "user": "Town of Apple Valley",
      "uid": 5115060,
      "center": {
        "lat": 34.5230887,
        "lon": -117.2121929
      },
      "nodes": [],
      "tags": {
        "amenity": "shelter"
      }
    },
    {
      "type": "way",
      "id": 606154121,
      "timestamp": "2021-04-26T01:02:29Z",
      "version": 3,
      "changeset": 103596470,
      "user": "larz86",
      "uid": 8127210,
      "center": {
        "lat": 34.422036,
        "lon": -117.2944012
      },
      "nodes": [],
      "tags": {
        "addr:city": "Hesperia",
        "addr:postcode": "92345",
        "addr:state": "CA",
        "addr:street": "Main Street",
        "brand": "Stater Bros.",
        "brand:wikidata": "Q7604016",
        "brand:wikipedia": "en:Stater Bros.",
        "building": "yes",
        "name": "Stater Bros.",
        "shop": "supermarket"
      }
    },
    {
      "type": "way",
      "id": 662343945,
      "timestamp": "2019-01-11T12:50:36Z",
      "version": 1,
      "changeset": 66225553,
      "user": "Town of Apple Valley",
      "uid": 5115060,
      "center": {
        "lat": 34.4766012,
        "lon": -117.2493143
      },
      "nodes": [],
      "tags": {
        "amenity": "shelter",
        "building": "yes",
        "shelter_type": "gazebo"
      }
    },
    {
      "type": "way",
      "id": 668188562,
      "timestamp": "2019-02-04T06:19:30Z",
      "version": 1,
      "changeset": 66893886,
      "user": "galaxy4ever12",
      "uid": 9316834,
      "center": {
        "lat": 34.5002646,
        "lon": -117.2940482
      },
      "nodes": [],
      "tags": {
        "addr:city": "Victorville",
        "addr:housenumber": "13708",
        "addr:postcode": "92395",
        "addr:state": "CA",
        "addr:street": "Hesperia Road",
        "building": "yes",
        "name": "U-Save Market",
        "opening_hours": "Mo-Su 08:00-23:00",
        "shop": "convenience"
      }
    },
    {
      "type": "way",
      "id": 671007872,
      "timestamp": "2021-02-13T06:01:38Z",
      "version": 2,
      "changeset": 99203196,
      "user": "Timothy Smith",
      "uid": 115918,
      "center": {
        "lat": 34.5202592,
        "lon": -117.3165842
      },
      "nodes": [],
      "tags": {
        "brand": "ExtraMile",
        "brand:wikidata": "Q64224605",
        "building": "yes",
        "name": "ExtraMile",
        "shop": "convenience"
      }
    },
    {
      "type": "way",
      "id": 696240769,
      "timestamp": "2019-06-10T20:18:24Z",
      "version": 1,
      "changeset": 71117094,
      "user": "Unhallowed",
      "uid": 5183235,
      "center": {
        "lat": 34.4092529,
        "lon": -117.376709
      },
      "nodes": [],
      "tags": {
        "amenity": "shelter",
        "building": "yes"
      }
    },
    {
      "type": "way",
      "id": 696240770,
      "timestamp": "2019-06-10T20:18:24Z",
      "version": 1,
      "changeset": 71117094,
      "user": "Unhallowed",
      "uid": 5183235,
      "center": {
        "lat": 34.4076411,
        "lon": -117.3770362
      },
      "nodes": [],
      "tags": {
        "amenity": "shelter",
        "building": "yes"
      }
    },
    {
      "type": "way",
      "id": 696240771,
      "timestamp": "2019-06-10T20:18:24Z",
      "version": 1,
      "changeset": 71117094,
      "user": "Unhallowed",
      "uid": 5183235,
      "center": {
        "lat": 34.4087912,
        "lon": -117.3770437
      },
      "nodes": [],
      "tags": {
        "amenity": "shelter",
        "building": "yes"
      }
    },
    {
      "type": "way",
      "id": 696775705,
      "timestamp": "2020-11-24T04:35:11Z",
      "version": 2,
      "changeset": 94674897,
      "user": "217541OSM",
      "uid": 8515581,
      "center": {
        "lat": 34.4273421,
        "lon": -117.3757633
      },
      "nodes": [],
      "tags": {
        "building": "yes",
        "name": "Food Mart",
        "shop": "convenience"
      }
    },
    {
      "type": "way",
      "id": 696775707,
      "timestamp": "2020-11-24T07:22:46Z",
      "version": 3,
      "changeset": 94684566,
      "user": "aangle",
      "uid": 12228379,
      "center": {
        "lat": 34.4260986,
        "lon": -117.3761449
      },
      "nodes": [],
      "tags": {
        "addr:city": "Hesperia",
        "addr:housenumber": "13187",
        "addr:postcode": "92345",
        "addr:state": "CA",
        "addr:street": "Main Street",
        "building": "yes",
        "name": "Depot 5",
        "phone": "+1 (760) 948-8180",
        "shop": "convenience"
      }
    },
    {
      "type": "way",
      "id": 704369439,
      "timestamp": "2019-07-14T17:58:25Z",
      "version": 1,
      "changeset": 72239480,
      "user": "Town of Apple Valley",
      "uid": 5115060,
      "center": {
        "lat": 34.4263782,
        "lon": -117.3857706
      },
      "nodes": [],
      "tags": {
        "amenity": "shelter",
        "building": "yes",
        "shelter_type": "gazebo"
      }
    },
    {
      "type": "way",
      "id": 712559140,
      "timestamp": "2019-08-10T22:12:27Z",
      "version": 1,
      "changeset": 73230163,
      "user": "maxolasersquad",
      "uid": 55916,
      "center": {
        "lat": 34.4433929,
        "lon": -116.950091
      },
      "nodes": [],
      "tags": {
        "addr:city": "Lucerne Valley",
        "addr:country": "US",
        "addr:housenumber": "32787",
        "addr:postcode": "92356",
        "addr:state": "CA",
        "addr:street": "Highway 18",
        "building": "retail",
        "name": "Dino Mart",
        "shop": "convenience"
      }
    },
    {
      "type": "way",
      "id": 712559145,
      "timestamp": "2019-08-10T22:12:27Z",
      "version": 1,
      "changeset": 73230163,
      "user": "maxolasersquad",
      "uid": 55916,
      "center": {
        "lat": 34.4435808,
        "lon": -116.9505841
      },
      "nodes": [],
      "tags": {
        "building": "retail",
        "name": "Good Shop",
        "shop": "convenience"
      }
    },
    {
      "type": "way",
      "id": 827945355,
      "timestamp": "2020-07-19T23:29:28Z",
      "version": 1,
      "changeset": 88214047,
      "user": "galaxy4ever12",
      "uid": 9316834,
      "center": {
        "lat": 34.4773,
        "lon": -117.2711022
      },
      "nodes": [],
      "tags": {
        "amenity": "shelter",
        "bench": "yes",
        "bin": "yes"
      }
    },
    {
      "type": "way",
      "id": 827945356,
      "timestamp": "2020-07-19T23:29:28Z",
      "version": 1,
      "changeset": 88214047,
      "user": "galaxy4ever12",
      "uid": 9316834,
      "center": {
        "lat": 34.4770167,
        "lon": -117.2711014
      },
      "nodes": [],
      "tags": {
        "amenity": "shelter",
        "bench": "yes",
        "bin": "yes"
      }
    },
    {
      "type": "way",
      "id": 828829053,
      "timestamp": "2020-07-22T13:33:59Z",
      "version": 1,
      "changeset": 88352429,
      "user": "galaxy4ever12",
      "uid": 9316834,
      "center": {
        "lat": 34.5063358,
        "lon": -117.2859083
      },
      "nodes": [],
      "tags": {
        "amenity": "shelter",
        "bench": "yes",
        "bin": "yes"
      }
    },
    {
      "type": "way",
      "id": 828829063,
      "timestamp": "2020-07-22T13:33:59Z",
      "version": 1,
      "changeset": 88352429,
      "user": "galaxy4ever12",
      "uid": 9316834,
      "center": {
        "lat": 34.5063384,
        "lon": -117.2868845
      },
      "nodes": [],
      "tags": {
        "amenity": "shelter",
        "bench": "yes",
        "bin": "yes"
      }
    },
    {
      "type": "way",
      "id": 828829064,
      "timestamp": "2020-07-22T13:33:59Z",
      "version": 1,
      "changeset": 88352429,
      "user": "galaxy4ever12",
      "uid": 9316834,
      "center": {
        "lat": 34.5062938,
        "lon": -117.2868846
      },
      "nodes": [],
      "tags": {
        "amenity": "shelter",
        "bench": "yes",
        "bin": "yes"
      }
    },
    {
      "type": "way",
      "id": 828829066,
      "timestamp": "2020-07-22T13:33:59Z",
      "version": 1,
      "changeset": 88352429,
      "user": "galaxy4ever12",
      "uid": 9316834,
      "center": {
        "lat": 34.5063073,
        "lon": -117.2873989
      },
      "nodes": [],
      "tags": {
        "amenity": "shelter",
        "bench": "yes",
        "bin": "yes"
      }
    },
    {
      "type": "way",
      "id": 876416806,
      "timestamp": "2020-11-24T04:49:31Z",
      "version": 1,
      "changeset": 94675753,
      "user": "217541OSM",
      "uid": 8515581,
      "center": {
        "lat": 34.4709019,
        "lon": -117.3528219
      },
      "nodes": [],
      "tags": {
        "building": "yes",
        "name": "Food Mart",
        "shop": "convenience"
      }
    },
    {
      "type": "way",
      "id": 876417447,
      "timestamp": "2020-11-24T04:53:55Z",
      "version": 1,
      "changeset": 94676042,
      "user": "217541OSM",
      "uid": 8515581,
      "center": {
        "lat": 34.4708583,
        "lon": -117.3424306
      },
      "nodes": [],
      "tags": {
        "brand": "Mobil Mart",
        "brand:wikidata": "Q3088656",
        "brand:wikipedia": "en:Mobil",
        "building": "yes",
        "name": "Mobil Mart",
        "shop": "convenience"
      }
    },