{
  "osm3s": {
    "timestamp_osm_date": "2021-07-21T23:59:59Z",
    "timestamp_osm_base": "2021-07-22T05:50:01Z",
    "copyright": "The data included in this document is from www.openstreetmap.org. The data is made available under ODbL."
  },
  "elements": [
    {
      "type": "node",
      "id": 244080418,
      "lat": 28.8558984,
      "lon": 85.2950291,
      "timestamp": "2021-05-29T07:08:54Z",
      "version": 16,
      "changeset": 105521800,
      "user": "Lepuse",
      "uid": 9560399,
      "tags": {
        "alt_name": "吉隆;Chi-lung Hsien;Jilong Xian;Gyirong County;Gyirong;Jilong",
        "alt_name:vi": "Cát Long",
        "capital": "6",
        "china_class": "countytown",
        "gns:ADM1": "14",
        "gns:DSG": "ADM3",
        "gns:UFI": "-1908069",
        "gns:UNI": "10074384",
        "int_name": "ji long",
        "name": "吉隆县",
        "name:de": "Gyirong",
        "name:en": "Gyirong",
        "name:es": "Gyirong",
        "name:fr": "Gyirong",
        "name:ru": "Гьиронг",
        "name:vi": "Gyirong",
        "name:zh": "吉隆县",
        "name:zh-Hant": "吉隆縣",
        "name:zh_pinyin": "Jílóng xiàn",
        "place": "city",
        "population:note": "县级行政区不要填population，因其渲染会与地级行政区混淆。人口数据请使用china_population标签。",
        "source:name": "GNS",
        "wikidata": "Q1208219"
      }
    },
    {
      "type": "node",
      "id": 288179924,
      "lat": 28.3553668,
      "lon": 85.7782824,
      "timestamp": "2021-04-12T23:38:06Z",
      "version": 20,
      "changeset": 102831954,
      "user": "hemind",
      "uid": 10853824,
      "tags": {
        "alt_name": "Xixiabangma;Xixabangma",
        "alt_name:en": "Gosainthān",
        "ele": "8027",
        "int_name": "Shishapangma",
        "name": "ཤིས་ས་སྤང་མ། 希夏邦马峰 Shishapangma",
        "name:bo": "ཤིས་ས་སྤང་མ།",
        "name:cs": "Šiša Pangma",
        "name:de": "Shisha Pangma",
        "name:en": "Shishapangma",
        "name:fr": "Shishapangma",
        "name:it": "Shisha Pangma",
        "name:ne": "शिशापाङ्मा",
        "name:ru": "Шиша-Пангма",
        "name:uk": "Шишапангма",
        "name:zh": "希夏邦马峰",
        "name:zh-Hans": "希夏邦马峰",
        "name:zh_pinyin": "Xīxiàbāngmǎ Fēng",
        "natural": "peak",
        "prominence": "2897",
        "source:prominence": "https://en.wikipedia.org/wiki/List_of_peaks_by_prominence",
        "westra_ref": "10012",
        "wikidata": "Q105124",
        "wikipedia": "en:Shishapangma"
      }
    },
    {
      "type": "node",
      "id": 992100225,
      "lat": 28.38947,
      "lon": 85.71992,
      "timestamp": "2020-08-25T04:46:05Z",
      "version": 2,
      "changeset": 89888024,
      "user": "pizzaiolo",
      "uid": 1772368,
      "tags": {
        "ele": "7292",
        "name": "Porong Ri",
        "natural": "peak",
        "source": "www.geonames.org",
        "wikidata": "Q4373106"
      }
    },
    {
      "type": "node",
      "id": 992955571,
      "lat": 28.46667,
      "lon": 85.26667,
      "timestamp": "2014-09-10T03:04:32Z",
      "version": 2,
      "changeset": 25340484,
      "user": "user_535043",
      "uid": 535043,
      "tags": {
        "ele": "4792",
        "name": "Gyirong",
        "place": "hamlet"
      }
    },
    {
      "type": "node",
      "id": 992955576,
      "lat": 28.7809829,
      "lon": 85.2892266,
      "timestamp": "2014-09-10T03:04:32Z",
      "version": 3,
      "changeset": 25340484,
      "user": "user_535043",
      "uid": 535043,
      "tags": {
        "ele": "4362",
        "name": "Orma",
        "place": "hamlet",
        "source": "www.geonames.org"
      }
    },
    {
      "type": "node",
      "id": 2524771371,
      "lat": 28.3134218,
      "lon": 85.3365949,
      "timestamp": "2017-09-15T18:40:36Z",
      "version": 3,
      "changeset": 52077678,
      "user": "xinduqiao",
      "uid": 6575812,
      "tags": {
        "name": "江村",
        "place": "village"
      }
    },
    {
      "type": "node",
      "id": 2524771493,
      "lat": 28.3738911,
      "lon": 85.3293641,
      "timestamp": "2017-09-27T12:37:50Z",
      "version": 3,
      "changeset": 52412597,
      "user": "xinduqiao",
      "uid": 6575812,
      "tags": {
        "name": "吉甫",
        "place": "hamlet"
      }
    },
    {
      "type": "node",
      "id": 2524771494,
      "lat": 28.3748534,
      "lon": 85.3614748,
      "timestamp": "2018-12-12T13:13:15Z",
      "version": 3,
      "changeset": 65408032,
      "user": "venza",
      "uid": 353988,
      "tags": {
        "name": "冲色村",
        "place": "village"
      }
    },
    {
      "type": "node",
      "id": 2524771596,
      "lat": 28.3991706,
      "lon": 85.323236,
      "timestamp": "2020-10-18T11:16:59Z",
      "version": 8,
      "changeset": 92653709,
      "user": "katpatuka",
      "uid": 17497,
      "tags": {
        "alt_name": "吉隆;Jilong",
        "china_class": "zhen",
        "name": "吉隆镇",
        "name:bo": "སྐྱིད་གྲོང་",
        "name:en": "Gyirong",
        "name:zh": "吉隆镇",
        "official_name": "吉隆镇",
        "place": "town",
        "source:name": "GNS",
        "wikidata": "Q10917441",
        "wikipedia": "zh:吉隆镇 (日喀则市)"
      }
    },
    {
      "type": "node",
      "id": 2524771675,
      "lat": 28.4146541,
      "lon": 85.2884126,
      "timestamp": "2014-09-10T03:04:34Z",
      "version": 3,
      "changeset": 25340484,
      "user": "user_535043",
      "uid": 535043,
      "tags": {
        "name": "新兴村",
        "place": "hamlet"
      }
    },
    {
      "type": "node",
      "id": 2524788658,
      "lat": 28.4596853,
      "lon": 85.2243234,
      "timestamp": "2014-08-16T02:02:50Z",
      "version": 2,
      "changeset": 24778889,
      "user": "stop edit",
      "uid": 1919824,
      "tags": {
        "name": "招提壁垒",
        "place": "hamlet"
      }
    },
    {
      "type": "node",
      "id": 2524789462,
      "lat": 28.5804305,
      "lon": 85.2377809,
      "timestamp": "2014-08-16T02:02:50Z",
      "version": 2,
      "changeset": 24778889,
      "user": "stop edit",
      "uid": 1919824,
      "tags": {
        "name": "夏村",
        "place": "village"
      }
    },
    {
      "type": "node",
      "id": 2524789867,
      "lat": 28.6588492,
      "lon": 85.3014711,
      "timestamp": "2014-08-16T02:02:50Z",
      "version": 2,
      "changeset": 24778889,
      "user": "stop edit",
      "uid": 1919824,
      "tags": {
        "name": "贡普村",
        "place": "village"
      }
    },
    {
      "type": "node",
      "id": 2524790700,
      "lat": 28.8562068,
      "lon": 85.2965825,
      "timestamp": "2020-10-18T11:16:59Z",
      "version": 10,
      "changeset": 92653709,
      "user": "katpatuka",
      "uid": 17497,
      "tags": {
        "alt_name": "宗噶",
        "capital": "5",
        "china_class": "countytown",
        "int_name": "zong ga",
        "name": "宗噶镇",
        "name:bo": "རྫོང་དགའ་",
        "name:en": "Zongga",
        "name:ru": "Дзонгга",
        "name:zh": "宗噶镇",
        "official_name": "宗噶镇",
        "place": "town",
        "wikidata": "Q8073968",
        "wikipedia": "zh:宗嘎镇"
      }
    },
    {
      "type": "node",
      "id": 2527671108,
      "lat": 28.320307,
      "lon": 85.4025572,
      "timestamp": "2014-08-16T02:02:50Z",
      "version": 2,
      "changeset": 24778889,
      "user": "stop edit",
      "uid": 1919824,
      "tags": {
        "name": "拉比村",
        "place": "hamlet"
      }
    },
    {
      "type": "node",
      "id": 2527671321,
      "lat": 28.3949446,
      "lon": 85.4412429,
      "timestamp": "2014-09-10T03:04:33Z",
      "version": 3,
      "changeset": 25340484,
      "user": "user_535043",
      "uid": 535043,
      "tags": {
        "name": "卓村",
        "name:en": "Zhuocun",
        "place": "hamlet"
      }
    },
    {
      "type": "node",
      "id": 2527671495,
      "lat": 28.7160982,
      "lon": 85.3540597,
      "timestamp": "2014-08-16T01:49:39Z",
      "version": 2,
      "changeset": 24778889,
      "user": "stop edit",
      "uid": 1919824,
      "tags": {
        "name": "杂龙村",
        "place": "hamlet"
      }
    },
    {
      "type": "node",
      "id": 2527671724,
      "lat": 28.8727011,
      "lon": 85.3077463,
      "timestamp": "2016-03-29T15:40:52Z",
      "version": 5,
      "changeset": 38146981,
      "user": "katpatuka",
      "uid": 17497,
      "tags": {
        "name": "道班",
        "name:en": "Daoban",
        "name:zh": "道班",
        "place": "village"
      }
    },
    {
      "type": "node",
      "id": 2882763870,
      "lat": 28.3818624,
      "lon": 85.4378128,
      "timestamp": "2021-02-11T20:49:25Z",
      "version": 3,
      "changeset": 99133668,
      "user": "终极绝杀",
      "uid": 6584176,
      "tags": {
        "alt_name": "卡帮村",
        "name": "卡帮",
        "name:en": "Kabang",
        "name:zh": "卡帮",
        "place": "village",
        "source": "http://www.stats.gov.cn/tjsj/tjbz/tjyqhdmhcxhfdm/2020/54/02/34/540234203.html"
      }
    },
    {
      "type": "node",
      "id": 2882763871,
      "lat": 28.4233333,
      "lon": 85.4486111,
      "timestamp": "2014-05-26T23:36:58Z",
      "version": 1,
      "changeset": 22573577,
      "user": "4rch",
      "uid": 1772211,
      "tags": {
        "name": "磨龙",
        "name:en": "Molong",
        "place": "hamlet"
      }
    },
    {
      "type": "node",
      "id": 2882763872,
      "lat": 28.3653946,
      "lon": 85.456216,
      "timestamp": "2015-05-05T18:03:39Z",
      "version": 3,
      "changeset": 30817722,
      "user": "abel801",
      "uid": 2377377,
      "tags": {
        "name": "郭巴",
        "name:en": "Guoba",
        "place": "hamlet"
      }
    },
    {
      "type": "node",
      "id": 3019309508,
      "lat": 28.7627128,
      "lon": 85.3085725,
      "timestamp": "2016-03-29T15:40:53Z",
      "version": 2,
      "changeset": 38146981,
      "user": "katpatuka",
      "uid": 17497,
      "tags": {
        "name": "沃马村",
        "name:en": "Womacun",
        "name:zh": "沃马村",
        "place": "village",
        "source:name": "GNS"
      }
    },
    {
      "type": "node",
      "id": 3019314700,
      "lat": 28.4773777,
      "lon": 85.2380692,
      "timestamp": "2014-09-10T03:04:33Z",
      "version": 2,
      "changeset": 25340484,
      "user": "user_535043",
      "uid": 535043,
      "tags": {
        "name": "大瀑布",
        "place": "hamlet"
      }
    },
    {
      "type": "node",
      "id": 3356997369,
      "lat": 28.3720824,
      "lon": 85.7754202,
      "timestamp": "2020-08-25T04:46:33Z",
      "version": 2,
      "changeset": 89888024,
      "user": "pizzaiolo",
      "uid": 1772368,
      "tags": {
        "ele": "7365",
        "name": "Yebokangal Ri",
        "natural": "peak",
        "wikidata": "Q25378687"
      }
    },
    {
      "type": "node",
      "id": 3360413359,
      "lat": 28.3647191,
      "lon": 85.444577,
      "timestamp": "2021-02-11T20:49:25Z",
      "version": 2,
      "changeset": 99133668,
      "user": "终极绝杀",
      "uid": 6584176,
      "tags": {
        "alt_name": "占岗村",
        "name": "占岗",
        "name:en": "Zhangang",
        "name:zh": "占岗",
        "place": "village"
      }
    },
    {
      "type": "node",
      "id": 3360413360,
      "lat": 28.3875026,
      "lon": 85.4560819,
      "timestamp": "2015-02-19T23:35:03Z",
      "version": 1,
      "changeset": 28968330,
      "user": "4rch",
      "uid": 1772211,
      "tags": {
        "name": "崩巴",
        "name:en": "Bengba",
        "place": "village"
      }
    },
    {
      "type": "node",
      "id": 3360413361,
      "lat": 28.3449722,
      "lon": 85.4521685,
      "timestamp": "2015-02-19T23:35:03Z",
      "version": 1,
      "changeset": 28968330,
      "user": "4rch",
      "uid": 1772211,
      "tags": {
        "name": "巴学曲安",
        "name:en": "Baxuequ’an",
        "place": "village"
      }
    },
    {
      "type": "node",
      "id": 3360413362,
      "lat": 28.3353653,
      "lon": 85.4993767,
      "timestamp": "2021-01-26T11:09:32Z",
      "version": 2,
      "changeset": 98162748,
      "user": "Sundar1",
      "uid": 9530130,
      "tags": {
        "name": "江达",
        "name:en": "Jiangda",
        "place": "hamlet"
      }
    },
    {
      "type": "node",
      "id": 3360413363,
      "lat": 28.3385054,
      "lon": 85.4291274,
      "timestamp": "2015-02-19T23:35:03Z",
      "version": 1,
      "changeset": 28968330,
      "user": "4rch",
      "uid": 1772211,
      "tags": {
        "name": "色琼",
        "name:en": "Seqiong",
        "place": "village"
      }
    },
    {
      "type": "node",
      "id": 3360413364,
      "lat": 28.360843,
      "lon": 85.4386518,
      "timestamp": "2015-02-19T23:35:03Z",
      "version": 1,
      "changeset": 28968330,
      "user": "4rch",
      "uid": 1772211,
      "tags": {
        "name": "雄村",
        "name:en": "Xiongcun",
        "place": "village"
      }
    },
    {
      "type": "node",
      "id": 3390680290,
      "lat": 28.3823961,
      "lon": 85.6839464,
      "timestamp": "2021-05-01T20:26:55Z",
      "version": 3,
      "changeset": 103973067,
      "user": "seichter",
      "uid": 66497,
      "tags": {
        "alt_name": "Lantan Ri",
        "ele": "7205",
        "name": "Langtang Ri",
        "natural": "peak",
        "wikidata": "Q11752821"
      }
    },
    {
      "type": "node",
      "id": 3390680292,
      "lat": 28.3455162,
      "lon": 85.7275624,
      "timestamp": "2021-04-26T17:13:29Z",
      "version": 3,
      "changeset": 103652155,
      "user": "seichter",
      "uid": 66497,
      "tags": {
        "ele": "5950",
        "name": "Hagen's Col",
        "natural": "saddle",
        "source:ele": "estimated from DEM"
      }
    },
    {
      "type": "node",
      "id": 3390681794,
      "lat": 28.358439,
      "lon": 85.6658689,
      "timestamp": "2016-12-10T21:17:06Z",
      "version": 2,
      "changeset": 44312021,
      "user": "clatt",
      "uid": 357290,
      "tags": {
        "name": "Tilman's Col",
        "natural": "saddle"
      }
    },
    {
      "type": "node",
      "id": 3480162703,
      "lat": 28.613498,
      "lon": 85.1935043,
      "timestamp": "2020-03-29T22:51:30Z",
      "version": 2,
      "changeset": 82795009,
      "user": "4rch",
      "uid": 1772211,
      "tags": {
        "alt_name": "Salbu",
        "ele": "4641",
        "mountain_pass": "yes",
        "name": "Mai-la-cha-ch’ing Shan-k’ou",
        "name:en": "Salbu Pass",
        "natural": "saddle"
      }
    },
    {
      "type": "node",
      "id": 3490389451,
      "lat": 28.511368,
      "lon": 85.0784054,
      "timestamp": "2018-10-28T15:01:01Z",
      "version": 3,
      "changeset": 63952489,
      "user": "Yeti-17",
      "uid": 6969191,
      "tags": {
        "name": "Bursi",
        "place": "hamlet"
      }
    },
    {
      "type": "node",
      "id": 3490389466,
      "lat": 28.5168644,
      "lon": 85.0873072,
      "timestamp": "2017-05-09T10:58:18Z",
      "version": 2,
      "changeset": 48528308,
      "user": "Ivan M",
      "uid": 57845,
      "tags": {
        "name": "Lar",
        "place": "hamlet"
      }
    },
    {
      "type": "node",
      "id": 3490389606,
      "lat": 28.5236929,
      "lon": 85.0898652,
      "timestamp": "2021-05-26T08:58:42Z",
      "version": 4,
      "changeset": 105342853,
      "user": "piaco_dk",
      "uid": 3442203,
      "tags": {
        "name": "Phurbe",
        "place": "hamlet"
      }
    },
    {
      "type": "node",
      "id": 3490389619,
      "lat": 28.5296549,
      "lon": 85.0954653,
      "timestamp": "2018-10-28T15:01:01Z",
      "version": 3,
      "changeset": 63952489,
      "user": "Yeti-17",
      "uid": 6969191,
      "tags": {
        "ele": "3279",
        "name": "Pangdun",
        "place": "hamlet",
        "source": "survey"
      }
    },
    {
      "type": "node",
      "id": 3527860584,
      "lat": 28.8591898,
      "lon": 85.7443771,
      "timestamp": "2021-06-05T16:27:43Z",
      "version": 2,
      "changeset": 105889439,
      "user": "user_535043",
      "uid": 535043,
      "tags": {
        "alt_name:en": "Baimaqulin",
        "name": "白玛曲林/པད་མ་ཆོས་གླིང",
        "name:bo": "པད་མ་ཆོས་གླིང",
        "name:en": "PemaCholing",
        "name:zh": "白玛曲林",
        "place": "village",
        "source:name": "GNS"
      }
    },
    {
      "type": "node",
      "id": 3527860588,
      "lat": 28.8517,
      "lon": 85.6737,
      "timestamp": "2015-05-19T08:59:38Z",
      "version": 1,
      "changeset": 31277030,
      "user": "katpatuka",
      "uid": 17497,
      "tags": {
        "name": "浪果",
        "name:en": "Langguo",
        "name:zh": "浪果",
        "place": "village",
        "source:name": "GNS"
      }
    },
    {
      "type": "node",
      "id": 3527860589,
      "lat": 28.8978,
      "lon": 85.6535,
      "timestamp": "2015-05-19T08:59:38Z",
      "version": 1,
      "changeset": 31277030,
      "user": "katpatuka",
      "uid": 17497,
      "tags": {
        "name": "罗布",
        "name:en": "Luobu",
        "name:zh": "罗布",
        "place": "village",
        "source:name": "GNS"
      }
    },
    {
      "type": "node",
      "id": 3620710220,
      "lat": 28.3363962,
      "lon": 85.120491,
      "timestamp": "2021-04-28T21:13:58Z",
      "version": 3,
      "changeset": 103801804,
      "user": "seichter",
      "uid": 66497,
      "tags": {
        "alt_name:en": "Ganesh III",
        "ele": "7043",
        "name": "Salasungo",
        "natural": "peak",
        "wikidata": "Q7403706"
      }
    },
    {
      "type": "node",
      "id": 3620710221,
      "lat": 28.3452083,
      "lon": 85.0795779,
      "timestamp": "2019-01-05T10:50:18Z",
      "version": 2,
      "changeset": 66043815,
      "user": "4rch",
      "uid": 1772211,
      "tags": {
        "alt_name:en": "Ganesh IV",
        "ele": "7104",
        "name": "Pabil",
        "natural": "peak",
        "wikidata": "Q19298140"
      }
    },
    {
      "type": "node",
      "id": 3633381723,
      "lat": 28.3312446,
      "lon": 85.1628264,
      "timestamp": "2019-01-05T10:50:18Z",
      "version": 2,
      "changeset": 66043815,
      "user": "4rch",
      "uid": 1772211,
      "tags": {
        "ele": "6770",
        "name": "Ganesh V",
        "natural": "peak",
        "wikidata": "Q20999836"
      }
    },
    {
      "type": "node",
      "id": 4006035228,
      "lat": 28.4115482,
      "lon": 85.3513511,
      "timestamp": "2016-02-14T18:08:33Z",
      "version": 1,
      "changeset": 37209171,
      "user": "katpatuka",
      "uid": 17497,
      "tags": {
        "name": "乃夏",
        "name:en": "Naixia",
        "name:zh": "乃夏",
        "place": "village",
        "source:name": "GNS"
      }
    },
    {
      "type": "node",
      "id": 4085224089,
      "lat": 28.3912625,
      "lon": 85.1294745,
      "timestamp": "2019-01-06T17:10:52Z",
      "version": 5,
      "changeset": 66075015,
      "user": "mueschel",
      "uid": 616774,
      "tags": {
        "alt_name": "Yangra Kangri",
        "alt_name:en": "Ganesh I",
        "ele": "7422",
        "name": "央然康日峰",
        "name:de": "Yangra Kangri",
        "name:en": "Yangra",
        "name:zh": "央然康日峰",
        "natural": "peak",
        "prominence": "2352",
        "source:prominence": "peaklist.org",
        "wikidata": "Q1660406",
        "wikipedia": "zh:央然康日峰"
      }
    },
    {
      "type": "node",
      "id": 4836672701,
      "lat": 28.5216039,
      "lon": 85.0825346,
      "timestamp": "2017-05-05T11:16:35Z",
      "version": 1,
      "changeset": 48423784,
      "user": "Ivan M",
      "uid": 57845,
      "tags": {
        "natural": "cave_entrance",
        "source": "survey"
      }
    },
    {
      "type": "node",
      "id": 4843545294,
      "lat": 28.5406273,
      "lon": 85.1083611,
      "timestamp": "2021-05-26T08:18:18Z",
      "version": 2,
      "changeset": 105340067,
      "user": "piaco_dk",
      "uid": 3442203,
      "tags": {
        "name": "Chule",
        "place": "village"
      }
    },
    {
      "type": "node",
      "id": 4843545295,
      "lat": 28.5436936,
      "lon": 85.1055343,
      "timestamp": "2021-05-26T08:18:18Z",
      "version": 3,
      "changeset": 105340067,
      "user": "piaco_dk",
      "uid": 3442203,
      "tags": {
        "name": "Nile",
        "place": "village"
      }
    },
    {
      "type": "node",
      "id": 5108098894,
      "lat": 28.4190602,
      "lon": 85.2838426,
      "timestamp": "2017-09-15T18:37:55Z",
      "version": 1,
      "changeset": 52077603,
      "user": "xinduqiao",
      "uid": 6575812,
      "tags": {
        "name": "帮兴社区",
        "place": "village"
      }
    },
    {
      "type": "node",
      "id": 5108100855,
      "lat": 28.3937219,
      "lon": 85.3280001,
      "timestamp": "2017-09-15T18:39:29Z",
      "version": 1,
      "changeset": 52077643,
      "user": "xinduqiao",
      "uid": 6575812,
      "tags": {
        "name": "吉隆社区",
        "place": "village"
      }
    },
    {
      "type": "node",
      "id": 5132988277,
      "lat": 28.3967326,
      "lon": 85.3061126,
      "timestamp": "2017-09-27T12:37:31Z",
      "version": 1,
      "changeset": 52412593,
      "user": "xinduqiao",
      "uid": 6575812,
      "tags": {
        "name": "多甫吉甫村",
        "place": "village"
      }
    },
    {
      "type": "node",
      "id": 5133003252,
      "lat": 28.3988084,
      "lon": 85.3087348,
      "timestamp": "2017-09-27T12:37:31Z",
      "version": 2,
      "changeset": 52412593,
      "user": "xinduqiao",
      "uid": 6575812,
      "tags": {
        "name": "多甫",
        "place": "hamlet"
      }
    },
    {
      "type": "node",
      "id": 5592824867,
      "lat": 28.658616,
      "lon": 85.4317195,
      "timestamp": "2020-08-25T04:46:34Z",
      "version": 2,
      "changeset": 89888024,
      "user": "pizzaiolo",
      "uid": 1772368,
      "tags": {
        "ele": "6767",
        "name": "Chalung Ri",
        "natural": "peak",
        "wikidata": "Q25378749"
      }
    },
    {
      "type": "node",
      "id": 6185556321,
      "lat": 28.4974898,
      "lon": 85.1572973,
      "timestamp": "2019-01-05T10:50:18Z",
      "version": 1,
      "changeset": 66043815,
      "user": "4rch",
      "uid": 1772211,
      "tags": {
        "ele": "6648",
        "name": "Langbo Kangri",
        "natural": "peak",
        "wikidata": "Q21000021"
      }
    },
    {
      "type": "node",
      "id": 7319155199,
      "lat": 28.4218725,
      "lon": 85.0840419,
      "timestamp": "2020-03-22T11:51:21Z",
      "version": 1,
      "changeset": 82480968,
      "user": "4rch",
      "uid": 1772211,
      "tags": {
        "backcountry": "yes",
        "tourism": "camp_site"
      }
    },
    {
      "type": "node",
      "id": 7319155219,
      "lat": 28.404283,
      "lon": 85.0893688,
      "timestamp": "2020-03-22T11:51:21Z",
      "version": 1,
      "changeset": 82480968,
      "user": "4rch",
      "uid": 1772211,
      "tags": {
        "backcountry": "yes",
        "tourism": "camp_site"
      }
    },
    {
      "type": "node",
      "id": 7319155220,
      "lat": 28.3878987,
      "lon": 85.0910667,
      "timestamp": "2020-03-22T11:51:21Z",
      "version": 1,
      "changeset": 82480968,
      "user": "4rch",
      "uid": 1772211,
      "tags": {
        "backcountry": "yes",
        "tourism": "camp_site"
      }
    },
    {
      "type": "node",
      "id": 7319155254,
      "lat": 28.4074609,
      "lon": 85.0880223,
      "timestamp": "2020-03-22T11:51:21Z",
      "version": 1,
      "changeset": 82480968,
      "user": "4rch",
      "uid": 1772211,
      "tags": {
        "backcountry": "yes",
        "tourism": "camp_site"
      }
    },
    {
      "type": "node",
      "id": 8378384476,
      "lat": 28.5838205,
      "lon": 85.1161935,
      "timestamp": "2021-01-30T14:44:20Z",
      "version": 1,
      "changeset": 98417010,
      "user": "Flappy Pigeon",
      "uid": 12507004,
      "tags": {
        "name": "Chhokangparo",
        "place": "hamlet",
        "wikidata": "Q103824266",
        "wikipedia": "en:Chhokangparo"
      }
    },
    {
      "type": "node",
      "id": 8416436734,
      "lat": 28.3730042,
      "lon": 85.4457601,
      "timestamp": "2021-02-11T20:49:25Z",
      "version": 1,
      "changeset": 99133668,
      "user": "终极绝杀",
      "uid": 6584176,
      "tags": {
        "name": "萨勒乡",
        "name:zh": "萨勒乡",
        "place": "town",
        "source": "http://www.stats.gov.cn/tjsj/tjbz/tjyqhdmhcxhfdm/2020/54/02/540234.html"
      }
    }
  ]
}