{
  "osm3s": {
    "timestamp_osm_date": "2022-02-10T23:59:59Z",
    "timestamp_osm_base": "2022-02-11T06:00:32Z",
    "copyright": "The data included in this document is from www.openstreetmap.org. The data is made available under ODbL."
  },
  "elements": [
    {
      "type": "node",
      "id": 30880145,
      "lat": -36.4558303,
      "lon": 148.2635105,
      "timestamp": "2019-06-15T03:10:13Z",
      "version": 12,
      "changeset": 71270291,
      "user": "Ewen Hill",
      "uid": 935037,
      "tags": {
        "alt_name": "Kunama Namadgi",
        "description": "Highest point of the Australian mainland",
        "ele": "2228",
        "isolation": "1895",
        "name": "Mount Kosciuszko",
        "name:aus": "Kunama Namadgi",
        "name:xjt": "Kunama Namadgi",
        "name:xni": "Kunama Namadgi",
        "natural": "peak",
        "old_name": "Mount Kosciusko",
        "prominence": "2228",
        "source:name:aus": "https://www.abc.net.au/news/2019-06-15/inside-the-push-to-dual-name-mount-kosciuszko/11207722",
        "wikidata": "Q178167",
        "wikipedia": "en:Mount Kosciuszko"
      }
    },
    {
      "type": "node",
      "id": 56655314,
      "lat": -36.2147218,
      "lon": 148.1337598,
      "timestamp": "2018-11-24T06:13:15Z",
      "version": 4,
      "changeset": 64837216,
      "user": "TheSwavu",
      "uid": 2622285,
      "tags": {
        "name": "Khancoban",
        "place": "town"
      }
    },
    {
      "type": "node",
      "id": 113372593,
      "lat": -36.4354695,
      "lon": 148.332161,
      "timestamp": "2020-05-24T16:34:15Z",
      "version": 4,
      "changeset": 85688160,
      "user": "vojtechzaboril",
      "uid": 8971394,
      "tags": {
        "name": "Charlotte Pass",
        "place": "hamlet",
        "place:nswgnb": "RURAL PLACE",
        "ref:nswgnb": "79799",
        "source": "nswgnb",
        "wikidata": "Q988298"
      }
    },
    {
      "type": "node",
      "id": 113372942,
      "lat": -36.4990485,
      "lon": 148.3105428,
      "timestamp": "2016-03-08T08:53:54Z",
      "version": 4,
      "changeset": 37681671,
      "user": "TheSwavu",
      "uid": 2622285,
      "tags": {
        "name": "Friday Flat Camp",
        "place": "hamlet",
        "place:nswgnb": "RURAL PLACE",
        "ref:nswgnb": "19496",
        "source": "nswgnb"
      }
    },
    {
      "type": "node",
      "id": 113373977,
      "lat": -36.5047751,
      "lon": 148.3057091,
      "timestamp": "2016-07-15T11:49:13Z",
      "version": 5,
      "changeset": 40758907,
      "user": "giotec",
      "uid": 1723595,
      "tags": {
        "name": "Thredbo",
        "place": "village",
        "place:nswgnb": "VILLAGE",
        "ref:nswgnb": "74731",
        "source": "nswgnb"
      }
    },
    {
      "type": "node",
      "id": 113712122,
      "lat": -36.165,
      "lon": 148.0511111,
      "timestamp": "2007-11-14T11:56:33Z",
      "version": 1,
      "changeset": 510260,
      "user": "swampwallaby",
      "uid": 10359,
      "tags": {
        "created_by": "JOSM",
        "name": "Bringenbrong",
        "place": "hamlet",
        "place:nswgnb": "LOCALITY",
        "ref:nswgnb": "9282",
        "source": "nswgnb"
      }
    },
    {
      "type": "node",
      "id": 113712665,
      "lat": -36.3866568,
      "lon": 148.1895739,
      "timestamp": "2007-12-11T10:55:09Z",
      "version": 2,
      "changeset": 257749,
      "user": "swampwallaby",
      "uid": 10359,
      "tags": {
        "created_by": "JOSM",
        "name": "Geehi",
        "place": "hamlet",
        "place:nswgnb": "LOCALITY",
        "ref:nswgnb": "19970",
        "source": "nswgnb"
      }
    },
    {
      "type": "node",
      "id": 113712754,
      "lat": -36.2594444,
      "lon": 148.0541667,
      "timestamp": "2007-11-14T11:56:57Z",
      "version": 1,
      "changeset": 510260,
      "user": "swampwallaby",
      "uid": 10359,
      "tags": {
        "created_by": "JOSM",
        "name": "Indi",
        "place": "hamlet",
        "place:nswgnb": "LOCALITY",
        "ref:nswgnb": "24730",
        "source": "nswgnb"
      }
    },
    {
      "type": "node",
      "id": 113712765,
      "lat": -36.0483333,
      "lon": 148.0511111,
      "timestamp": "2007-11-14T11:56:58Z",
      "version": 1,
      "changeset": 510260,
      "user": "swampwallaby",
      "uid": 10359,
      "tags": {
        "created_by": "JOSM",
        "name": "Greg Greg",
        "place": "hamlet",
        "place:nswgnb": "LOCALITY",
        "ref:nswgnb": "21978",
        "source": "nswgnb"
      }
    },
    {
      "type": "node",
      "id": 113712824,
      "lat": -36.0483333,
      "lon": 148.2344444,
      "timestamp": "2007-11-14T11:57:01Z",
      "version": 1,
      "changeset": 510260,
      "user": "swampwallaby",
      "uid": 10359,
      "tags": {
        "created_by": "JOSM",
        "name": "Jagumba",
        "place": "hamlet",
        "place:nswgnb": "LOCALITY",
        "ref:nswgnb": "78488",
        "source": "nswgnb"
      }
    },
    {
      "type": "node",
      "id": 113713000,
      "lat": -36.3483333,
      "lon": 148.1677778,
      "timestamp": "2007-11-14T11:57:13Z",
      "version": 1,
      "changeset": 510260,
      "user": "swampwallaby",
      "uid": 10359,
      "tags": {
        "created_by": "JOSM",
        "name": "Round Flat",
        "place": "hamlet",
        "place:nswgnb": "RURAL PLACE",
        "ref:nswgnb": "50217",
        "source": "nswgnb"
      }
    },
    {
      "type": "node",
      "id": 113713406,
      "lat": -36.0316667,
      "lon": 148.2011111,
      "timestamp": "2007-11-14T11:57:34Z",
      "version": 1,
      "changeset": 510260,
      "user": "swampwallaby",
      "uid": 10359,
      "tags": {
        "created_by": "JOSM",
        "name": "Yellow Bog",
        "place": "hamlet",
        "place:nswgnb": "RURAL PLACE",
        "ref:nswgnb": "67402",
        "source": "nswgnb"
      }
    },
    {
      "type": "node",
      "id": 113713491,
      "lat": -36.065,
      "lon": 148.2344444,
      "timestamp": "2007-11-14T11:57:37Z",
      "version": 1,
      "changeset": 510260,
      "user": "swampwallaby",
      "uid": 10359,
      "tags": {
        "created_by": "JOSM",
        "name": "Wolseleys Gap",
        "place": "hamlet",
        "place:nswgnb": "RURAL PLACE",
        "ref:nswgnb": "65846",
        "source": "nswgnb"
      }
    },
    {
      "type": "node",
      "id": 179245715,
      "lat": -36.4576706,
      "lon": 148.2686647,
      "timestamp": "2020-01-27T02:01:19Z",
      "version": 8,
      "changeset": 80113155,
      "user": "nholyoak",
      "uid": 10450084,
      "tags": {
        "ele": "2124",
        "mountain_pass": "yes",
        "name": "Rawson Pass",
        "natural": "saddle"
      }
    },
    {
      "type": "node",
      "id": 207729497,
      "lat": -36.1975112,
      "lon": 147.9042145,
      "timestamp": "2013-03-15T17:33:04Z",
      "version": 4,
      "changeset": 15375800,
      "user": "user_5359",
      "uid": 5359,
      "tags": {
        "is_in:country": "Australia",
        "is_in:country_code": "AU",
        "name": "Corryong",
        "place": "town"
      }
    },
    {
      "type": "node",
      "id": 316587992,
      "lat": -36.3801314,
      "lon": 148.1780833,
      "timestamp": "2021-01-20T05:53:17Z",
      "version": 4,
      "changeset": 97809777,
      "user": "bob3bob3",
      "uid": 8123147,
      "tags": {
        "access": "yes",
        "charge": "Variable/seasonal",
        "fee": "yes",
        "name": "Geehi Flats Campground",
        "operator": "NSW National Parks and Wildlife Service",
        "shower": "no",
        "toilets": "yes",
        "tourism": "camp_site"
      }
    },
    {
      "type": "node",
      "id": 321921424,
      "lat": -36.3933904,
      "lon": 148.3148207,
      "timestamp": "2020-01-02T01:33:14Z",
      "version": 10,
      "changeset": 79095387,
      "user": "breno-au",
      "uid": 859676,
      "tags": {
        "ele": "2196",
        "name": "Mount Twynam",
        "natural": "peak",
        "wikidata": "Q6924231",
        "wikipedia": "en:Mount Twynam"
      }
    },
    {
      "type": "node",
      "id": 452496367,
      "lat": -36.4247651,
      "lon": 148.2800022,
      "timestamp": "2020-10-12T11:05:35Z",
      "version": 6,
      "changeset": 92348888,
      "user": "breno-au",
      "uid": 859676,
      "tags": {
        "name": "Northcote Pass",
        "natural": "saddle"
      }
    },
    {
      "type": "node",
      "id": 667235468,
      "lat": -36.2158648,
      "lon": 148.1295534,
      "timestamp": "2012-03-07T12:06:31Z",
      "version": 2,
      "changeset": 10899094,
      "user": "Neil Penman",
      "uid": 84937,
      "tags": {
        "amenity:eftpos": "yes",
        "name": "Khancoban General Store",
        "shop": "convenience"
      }
    },
    {
      "type": "node",
      "id": 686358258,
      "lat": -36.1917018,
      "lon": 147.7703841,
      "timestamp": "2016-12-02T20:27:33Z",
      "version": 2,
      "changeset": 44121782,
      "user": "Batareikin",
      "uid": 127299,
      "tags": {
        "name": "Cudgewa",
        "name:ru": "Каджева",
        "place": "village"
      }
    },
    {
      "type": "node",
      "id": 686358262,
      "lat": -36.047204,
      "lon": 147.9307563,
      "timestamp": "2015-05-17T03:57:58Z",
      "version": 2,
      "changeset": 31216866,
      "user": "Warin61",
      "uid": 1830192,
      "tags": {
        "name": "Tintaldra",
        "place": "village"
      }
    },
    {
      "type": "node",
      "id": 686398491,
      "lat": -36.1269001,
      "lon": 147.9879493,
      "timestamp": "2013-02-10T23:04:16Z",
      "version": 2,
      "changeset": 14988361,
      "user": "Peter W34",
      "uid": 349913,
      "tags": {
        "name": "Towong",
        "place": "village"
      }
    },
    {
      "type": "node",
      "id": 756645580,
      "lat": -36.1423611,
      "lon": 148.353009,
      "timestamp": "2015-04-09T08:45:04Z",
      "version": 4,
      "changeset": 30085743,
      "user": "Narelle",
      "uid": 86447,
      "tags": {
        "amenity": "shelter",
        "building": "hut",
        "name": "Derschkos Hut",
        "shelter_type": "basic_hut",
        "tourism": "wilderness_hut"
      }
    },
    {
      "type": "node",
      "id": 756645590,
      "lat": -36.3873992,
      "lon": 148.2746525,
      "timestamp": "2018-09-28T02:18:29Z",
      "version": 6,
      "changeset": 62994634,
      "user": "breno-au",
      "uid": 859676,
      "tags": {
        "amenity": "shelter",
        "bin": "no",
        "building": "hut",
        "name": "Opera House",
        "shelter_type": "basic_hut",
        "tourism": "wilderness_hut",
        "url": "http://www.khuts.org/index.php/the-huts-v2-5/knp-v2-5/379-opera-house"
      }
    },
    {
      "type": "node",
      "id": 756645603,
      "lat": -36.1687309,
      "lon": 148.2940355,
      "timestamp": "2017-06-17T23:41:05Z",
      "version": 4,
      "changeset": 49624898,
      "user": "supaluminal",
      "uid": 3745565,
      "tags": {
        "amenity": "shelter",
        "building": "hut",
        "name": "Pretty Plain Hut"
      }
    },
    {
      "type": "node",
      "id": 756645651,
      "lat": -36.0601644,
      "lon": 148.2954955,
      "timestamp": "2015-04-18T07:55:32Z",
      "version": 3,
      "changeset": 30301928,
      "user": "Narelle",
      "uid": 86447,
      "tags": {
        "amenity": "shelter",
        "building": "hut",
        "name": "Patons Hut",
        "shelter_type": "basic_hut",
        "tourism": "wilderness_hut"
      }
    },
    {
      "type": "node",
      "id": 760852863,
      "lat": -36.5312848,
      "lon": 148.3439164,
      "timestamp": "2020-10-25T09:09:21Z",
      "version": 5,
      "changeset": 93009655,
      "user": "Narow9",
      "uid": 9619367,
      "tags": {
        "amenity": "shelter",
        "bench": "yes",
        "bin": "no",
        "building": "hut",
        "name": "Teddys Hut",
        "shelter_type": "basic_hut",
        "tourism": "wilderness_hut"
      }
    },
    {
      "type": "node",
      "id": 1632138999,
      "lat": -36.4223667,
      "lon": 148.2276693,
      "timestamp": "2021-01-10T11:14:50Z",
      "version": 2,
      "changeset": 97243097,
      "user": "breno-au",
      "uid": 859676,
      "tags": {
        "backcountry": "yes",
        "name": "Moira Flat",
        "tourism": "camp_site"
      }
    },
    {
      "type": "node",
      "id": 1632139000,
      "lat": -36.4229793,
      "lon": 148.2279509,
      "timestamp": "2021-01-10T11:14:50Z",
      "version": 2,
      "changeset": 97243097,
      "user": "breno-au",
      "uid": 859676,
      "tags": {
        "natural": "spring"
      }
    },
    {
      "type": "node",
      "id": 1808391886,
      "lat": -36.23417,
      "lon": 148.03333,
      "timestamp": "2012-07-01T04:20:42Z",
      "version": 1,
      "changeset": 12071859,
      "user": "gdal",
      "uid": 709684,
      "tags": {
        "name": "Indi Bridge Reserve",
        "tourism": "camp_site"
      }
    },
    {
      "type": "node",
      "id": 1808393890,
      "lat": -36.2421113,
      "lon": 147.83172,
      "timestamp": "2014-01-06T00:16:05Z",
      "version": 3,
      "changeset": 19835839,
      "user": "toholio",
      "uid": 923,
      "tags": {
        "name": "Nariel Creek Recreation Reserve",
        "tourism": "camp_site"
      }
    },
    {
      "type": "node",
      "id": 1808394557,
      "lat": -36.44333,
      "lon": 147.83028,
      "timestamp": "2012-07-01T04:31:21Z",
      "version": 1,
      "changeset": 12071867,
      "user": "gdal",
      "uid": 709684,
      "tags": {
        "name": "Staceys Bridge",
        "tourism": "camp_site"
      }
    },
    {
      "type": "node",
      "id": 1811163271,
      "lat": -36.16556,
      "lon": 148.15667,
      "timestamp": "2021-02-21T03:06:35Z",
      "version": 2,
      "changeset": 99666132,
      "user": "bob3bob3",
      "uid": 8123147,
      "tags": {
        "name": "Bradneys Gap",
        "toilets": "yes",
        "tourism": "camp_site"
      }
    },
    {
      "type": "node",
      "id": 1811165233,
      "lat": -36.0725,
      "lon": 148.21722,
      "timestamp": "2021-02-21T03:06:35Z",
      "version": 2,
      "changeset": 99666132,
      "user": "bob3bob3",
      "uid": 8123147,
      "tags": {
        "name": "Clover Flat Rest Area",
        "shower": "no",
        "toilets": "yes",
        "tourism": "camp_site"
      }
    },
    {
      "type": "node",
      "id": 1811199421,
      "lat": -36.1237186,
      "lon": 147.9975621,
      "timestamp": "2013-02-10T23:04:16Z",
      "version": 2,
      "changeset": 14988361,
      "user": "Peter W34",
      "uid": 349913,
      "tags": {
        "name": "Towong Reserve",
        "tourism": "camp_site"
      }
    },
    {
      "type": "node",
      "id": 2100532181,
      "lat": -36.53781,
      "lon": 148.1329654,
      "timestamp": "2013-04-12T03:42:09Z",
      "version": 2,
      "changeset": 15696555,
      "user": "iceblueOz",
      "uid": 1348199,
      "tags": {
        "name": "Dogmans Hut camping area",
        "source": "local_knowledge",
        "tourism": "camp_site"
      }
    },
    {
      "type": "node",
      "id": 2100532185,
      "lat": -36.5376658,
      "lon": 148.132809,
      "timestamp": "2015-04-09T08:45:04Z",
      "version": 3,
      "changeset": 30085743,
      "user": "Narelle",
      "uid": 86447,
      "tags": {
        "amenity": "shelter",
        "name": "Dogmans Hut",
        "shelter_type": "basic_hut",
        "tourism": "wilderness_hut"
      }
    },
    {
      "type": "node",
      "id": 2100543087,
      "lat": -36.5718438,
      "lon": 148.1296663,
      "timestamp": "2019-02-11T23:24:48Z",
      "version": 2,
      "changeset": 67115752,
      "user": "Warin61",
      "uid": 1830192,
      "tags": {
        "backcountry": "yes",
        "caravans": "no",
        "shower": "no",
        "tents": "yes",
        "tourism": "camp_site"
      }
    },
    {
      "type": "node",
      "id": 2262652913,
      "lat": -36.5424842,
      "lon": 148.12899,
      "timestamp": "2019-03-04T23:33:06Z",
      "version": 4,
      "changeset": 67785870,
      "user": "b-jazz-bot",
      "uid": 9451067,
      "tags": {
        "backcountry": "yes",
        "caravans": "yes",
        "internet_access": "no",
        "motor_vehicle": "yes",
        "name": "Tom Groggin Campsite",
        "sanitary_dump_station": "no",
        "source": "local_knowledge",
        "tents": "yes",
        "tourism": "camp_site",
        "website": "https://www.nationalparks.nsw.gov.au/camping-and-accommodation/campgrounds/tom-groggin-campground"
      }
    },
    {
      "type": "node",
      "id": 2264006299,
      "lat": -36.535115,
      "lon": 148.1337538,
      "timestamp": "2013-04-12T03:42:08Z",
      "version": 1,
      "changeset": 15696555,
      "user": "iceblueOz",
      "uid": 1348199,
      "tags": {
        "source": "local_knowledge",
        "tourism": "camp_site"
      }
    },
    {
      "type": "node",
      "id": 2264006305,
      "lat": -36.5389511,
      "lon": 148.1329813,
      "timestamp": "2013-04-12T03:42:09Z",
      "version": 1,
      "changeset": 15696555,
      "user": "iceblueOz",
      "uid": 1348199,
      "tags": {
        "name": "Dogmans Hut camping area",
        "source": "local_knowledge",
        "tourism": "camp_site"
      }
    },
    {
      "type": "node",
      "id": 2264006307,
      "lat": -36.5348219,
      "lon": 148.1338611,
      "timestamp": "2013-04-12T03:42:09Z",
      "version": 1,
      "changeset": 15696555,
      "user": "iceblueOz",
      "uid": 1348199,
      "tags": {
        "source": "local_knowledge",
        "tourism": "camp_site"
      }
    },
    {
      "type": "node",
      "id": 2264064411,
      "lat": -36.3647023,
      "lon": 148.1676166,
      "timestamp": "2013-04-12T04:15:18Z",
      "version": 1,
      "changeset": 15696760,
      "user": "iceblueOz",
      "uid": 1348199,
      "tags": {
        "tourism": "camp_site"
      }
    },
    {
      "type": "node",
      "id": 2267943802,
      "lat": -36.4633485,
      "lon": 148.1255582,
      "timestamp": "2013-04-15T06:38:47Z",
      "version": 2,
      "changeset": 15733144,
      "user": "iceblueOz",
      "uid": 1348199,
      "tags": {
        "name": "Murray Gates campsite",
        "source": "local_knowledge",
        "tourism": "camp_site"
      }
    },
    {
      "type": "node",
      "id": 2311098933,
      "lat": -36.3171951,
      "lon": 147.9099352,
      "timestamp": "2013-05-19T11:59:08Z",
      "version": 1,
      "changeset": 16192651,
      "user": "gdal",
      "uid": 709684,
      "tags": {
        "name": "Thowgla Upper",
        "place": "hamlet"
      }
    },
    {
      "type": "node",
      "id": 2344289114,
      "lat": -36.2317634,
      "lon": 148.1229133,
      "timestamp": "2013-06-14T11:02:59Z",
      "version": 1,
      "changeset": 16548599,
      "user": "fluid1",
      "uid": 194253,
      "tags": {
        "amenity": "shelter"
      }
    },
    {
      "type": "node",
      "id": 2350228115,
      "lat": -36.1951371,
      "lon": 147.9055788,
      "timestamp": "2017-11-11T20:53:41Z",
      "version": 2,
      "changeset": 53700052,
      "user": "Paul Bech",
      "uid": 347344,
      "tags": {
        "name": "Corryong IGA and Liquor",
        "shop": "supermarket"
      }
    },
    {
      "type": "node",
      "id": 3068360390,
      "lat": -36.17425,
      "lon": 148.15353,
      "timestamp": "2014-09-09T14:12:11Z",
      "version": 1,
      "changeset": 25328969,
      "user": "dhx1",
      "uid": 1187510,
      "tags": {
        "name": "Bradneys Gap",
        "natural": "saddle"
      }
    },
    {
      "type": "node",
      "id": 3068360427,
      "lat": -36.4319056,
      "lon": 148.3285004,
      "timestamp": "2020-01-27T02:01:19Z",
      "version": 4,
      "changeset": 80113155,
      "user": "nholyoak",
      "uid": 10450084,
      "tags": {
        "ele": "1837",
        "name": "Charlotte Pass",
        "natural": "saddle"
      }
    },
    {
      "type": "node",
      "id": 3068360459,
      "lat": -36.5243194,
      "lon": 148.2602244,
      "timestamp": "2018-10-17T21:52:38Z",
      "version": 3,
      "changeset": 63626454,
      "user": "breno-au",
      "uid": 859676,
      "tags": {
        "ele": "1582",
        "name": "Dead Horse Gap",
        "natural": "saddle",
        "source": "LPI Topographic Map May 2017"
      }
    },
    {
      "type": "node",
      "id": 3068360614,
      "lat": -36.28176,
      "lon": 147.87073,
      "timestamp": "2014-09-09T14:12:23Z",
      "version": 1,
      "changeset": 25328969,
      "user": "dhx1",
      "uid": 1187510,
      "tags": {
        "name": "Nariel Gap",
        "natural": "saddle"
      }
    },
    {
      "type": "node",
      "id": 3197914179,
      "lat": -36.5040414,
      "lon": 148.3065789,
      "timestamp": "2016-07-15T08:15:00Z",
      "version": 3,
      "changeset": 40755710,
      "user": "giotec",
      "uid": 1723595,
      "tags": {
        "name": "Thredbo Foodworks",
        "shop": "supermarket",
        "source:location": "extrapolation"
      }
    },
    {
      "type": "node",
      "id": 3235554510,
      "lat": -36.3763244,
      "lon": 148.3313511,
      "timestamp": "2014-12-15T02:58:46Z",
      "version": 1,
      "changeset": 27473481,
      "user": "stevage",
      "uid": 201443,
      "tags": {
        "name": "Anton Anderson Saddle",
        "natural": "saddle"
      }
    },
    {
      "type": "node",
      "id": 3292172075,
      "lat": -36.3487867,
      "lon": 148.16818,
      "timestamp": "2015-01-16T11:32:28Z",
      "version": 1,
      "changeset": 28183970,
      "user": "Andrew de Wijn",
      "uid": 603649,
      "tags": {
        "tourism": "camp_site"
      }
    },
    {
      "type": "node",
      "id": 3442122139,
      "lat": -36.4999178,
      "lon": 148.3037539,
      "timestamp": "2019-04-24T06:07:00Z",
      "version": 2,
      "changeset": 69512743,
      "user": "Warin61",
      "uid": 1830192,
      "tags": {
        "backcountry": "yes",
        "caravans": "no",
        "name": "Birralee Bush Camp",
        "shower": "no",
        "source": "survey",
        "source:location": "gps",
        "tents": "yes",
        "toilets": "no",
        "tourism": "camp_site"
      }
    },
    {
      "type": "node",
      "id": 4109480068,
      "lat": -36.5421277,
      "lon": 148.3450014,
      "timestamp": "2020-08-18T02:02:32Z",
      "version": 2,
      "changeset": 89543390,
      "user": "breno-au",
      "uid": 859676,
      "tags": {
        "name": "Smiths Gap",
        "natural": "saddle"
      }
    },
    {
      "type": "node",
      "id": 4109497823,
      "lat": -36.4324217,
      "lon": 148.2846273,
      "timestamp": "2016-04-09T12:56:12Z",
      "version": 1,
      "changeset": 38428410,
      "user": "GavinX",
      "uid": 156191,
      "tags": {
        "name": "Moraine Pass",
        "natural": "saddle"
      }
    },
    {
      "type": "node",
      "id": 5417535321,
      "lat": -36.5008236,
      "lon": 148.3080172,
      "timestamp": "2018-02-16T23:58:31Z",
      "version": 1,
      "changeset": 56428906,
      "user": "JLA7",
      "uid": 6323590,
      "tags": {
        "addr:housenumber": "17",
        "addr:street": "Mountain Drive",
        "name": "Albury Ski Club",
        "tourism": "alpine_hut"
      }
    },
    {
      "type": "node",
      "id": 5516893060,
      "lat": -36.0855685,
      "lon": 147.9780346,
      "timestamp": "2018-03-30T17:57:43Z",
      "version": 1,
      "changeset": 57668346,
      "user": "<don>",
      "uid": 45059,
      "tags": {
        "amenity": "shelter"
      }
    },
    {
      "type": "node",
      "id": 5568369115,
      "lat": -36.5307476,
      "lon": 148.1365102,
      "timestamp": "2018-04-21T07:37:09Z",
      "version": 1,
      "changeset": 58284198,
      "user": "GavinX",
      "uid": 156191,
      "tags": {
        "operator": "Kosciuzko National Park Service",
        "tents": "yes",
        "tourism": "camp_site"
      }
    },
    {
      "type": "node",
      "id": 5570114639,
      "lat": -36.4058631,
      "lon": 148.18168,
      "timestamp": "2018-04-22T02:05:02Z",
      "version": 1,
      "changeset": 58301181,
      "user": "GavinX",
      "uid": 156191,
      "tags": {
        "name": "Geehi Horse Camp",
        "operator": "Kosciuzko National Park Service",
        "tents": "yes",
        "tourism": "camp_site"
      }
    },
    {
      "type": "node",
      "id": 5627916160,
      "lat": -36.1145575,
      "lon": 148.2964966,
      "timestamp": "2018-05-19T04:30:52Z",
      "version": 1,
      "changeset": 59095035,
      "user": "inas",
      "uid": 7523,
      "tags": {
        "note": "just a clearing with stone circle - no amenities",
        "source": "survey",
        "tourism": "camp_site"
      }
    },
    {
      "type": "node",
      "id": 5935830390,
      "lat": -36.4399303,
      "lon": 148.2701856,
      "timestamp": "2018-09-28T01:09:02Z",
      "version": 1,
      "changeset": 62993927,
      "user": "breno-au",
      "uid": 859676,
      "tags": {
        "name": "Muellers Pass",
        "natural": "saddle"
      }
    },
    {
      "type": "node",
      "id": 5935830406,
      "lat": -36.4681446,
      "lon": 148.2706899,
      "timestamp": "2018-09-28T01:09:02Z",
      "version": 1,
      "changeset": 62993927,
      "user": "breno-au",
      "uid": 859676,
      "tags": {
        "name": "Etheridge Gap",
        "natural": "saddle"
      }
    },
    {
      "type": "node",
      "id": 5935879494,
      "lat": -36.2487143,
      "lon": 148.2447535,
      "timestamp": "2018-09-28T02:18:23Z",
      "version": 1,
      "changeset": 62994634,
      "user": "breno-au",
      "uid": 859676,
      "tags": {
        "natural": "spring"
      }
    },
    {
      "type": "node",
      "id": 6084915781,
      "lat": -36.1226019,
      "lon": 147.7776521,
      "timestamp": "2018-11-23T10:19:36Z",
      "version": 1,
      "changeset": 64814662,
      "user": "Derringer",
      "uid": 10906,
      "tags": {
        "name": "Bluff Falls Camping Area",
        "tourism": "camp_site"
      }
    },
    {
      "type": "node",
      "id": 7802408907,
      "lat": -36.4992529,
      "lon": 148.3108572,
      "timestamp": "2020-08-11T02:01:43Z",
      "version": 1,
      "changeset": 89221840,
      "user": "aharvey",
      "uid": 237525,
      "tags": {
        "amenity": "drinking_water"
      }
    },
    {
      "type": "node",
      "id": 8018355650,
      "lat": -36.2116143,
      "lon": 148.3373843,
      "timestamp": "2020-10-18T11:17:56Z",
      "version": 1,
      "changeset": 92653729,
      "user": "Bushman86",
      "uid": 12002260,
      "tags": {
        "access": "yes",
        "amenity": "drinking_water",
        "description": "old pipe flowing with cold spring water, as fresh as anything.",
        "fee": "no",
        "source": "local knowledge"
      }
    },
    {
      "type": "way",
      "id": 241936947,
      "timestamp": "2015-04-18T07:55:28Z",
      "version": 2,
      "changeset": 30301928,
      "user": "Narelle",
      "uid": 86447,
      "center": {
        "lat": -36.3663928,
        "lon": 148.171536
      },
      "nodes": [],
      "tags": {
        "amenity": "shelter",
        "building": "hut",
        "name": "Doctors Hut",
        "shelter_type": "basic_hut",
        "source": "bing",
        "tourism": "wilderness_hut"
      }
    },
    {
      "type": "way",
      "id": 241936949,
      "timestamp": "2015-04-18T07:55:28Z",
      "version": 2,
      "changeset": 30301928,
      "user": "Narelle",
      "uid": 86447,
      "center": {
        "lat": -36.3920134,
        "lon": 148.1830789
      },
      "nodes": [],
      "tags": {
        "amenity": "shelter",
        "building": "hut",
        "name": "Dr Forbes Hut",
        "shelter_type": "basic_hut",
        "source": "bing",
        "tourism": "wilderness_hut"
      }
    },
    {
      "type": "way",
      "id": 241936950,
      "timestamp": "2015-04-18T07:55:28Z",
      "version": 3,
      "changeset": 30301928,
      "user": "Narelle",
      "uid": 86447,
      "center": {
        "lat": -36.3774703,
        "lon": 148.1796082
      },
      "nodes": [],
      "tags": {
        "amenity": "shelter",
        "building": "hut",
        "layer": "2",
        "name": "Geehi Hut",
        "shelter_type": "basic_hut",
        "source": "bing",
        "tourism": "wilderness_hut"
      }
    },
    {
      "type": "way",
      "id": 241936951,
      "timestamp": "2015-04-18T07:55:29Z",
      "version": 3,
      "changeset": 30301928,
      "user": "Narelle",
      "uid": 86447,
      "center": {
        "lat": -36.3691304,
        "lon": 148.1744432
      },
      "nodes": [],
      "tags": {
        "amenity": "shelter",
        "building": "hut",
        "layer": "2",
        "name": "Keebles Hut",
        "shelter_type": "basic_hut",
        "source": "bing",
        "tourism": "wilderness_hut"
      }
    },
    {
      "type": "way",
      "id": 241936952,
      "timestamp": "2015-04-18T07:55:29Z",
      "version": 2,
      "changeset": 30301928,
      "user": "Narelle",
      "uid": 86447,
      "center": {
        "lat": -36.3605813,
        "lon": 148.1638214
      },
      "nodes": [],
      "tags": {
        "amenity": "shelter",
        "building": "hut",
        "name": "Old Geehi Hut",
        "shelter_type": "basic_hut",
        "source": "bing",
        "tourism": "wilderness_hut"
      }
    },
    {
      "type": "way",
      "id": 242352227,
      "timestamp": "2014-04-28T00:59:06Z",
      "version": 2,
      "changeset": 21990215,
      "user": "stevage",
      "uid": 201443,
      "center": {
        "lat": -36.3851632,
        "lon": 148.1813312
      },
      "nodes": [],
      "tags": {
        "amenity": "shelter",
        "source": "bing"
      }
    },
    {
      "type": "way",
      "id": 242356841,
      "timestamp": "2015-04-18T07:55:29Z",
      "version": 2,
      "changeset": 30301928,
      "user": "Narelle",
      "uid": 86447,
      "center": {
        "lat": -36.2930344,
        "lon": 148.1428597
      },
      "nodes": [],
      "tags": {
        "amenity": "shelter",
        "building": "hut",
        "name": "Major Clews Hut",
        "shelter_type": "basic_hut",
        "source": "bing",
        "tourism": "wilderness_hut"
      }
    },
    {
      "type": "way",
      "id": 345646785,
      "timestamp": "2015-05-17T03:57:53Z",
      "version": 1,
      "changeset": 31216866,
      "user": "Warin61",
      "uid": 1830192,
      "center": {
        "lat": -36.0468114,
        "lon": 147.9290355
      },
      "nodes": [],
      "tags": {
        "name": "Clearwater By The Upper Murray Caravan Park",
        "tourism": "camp_site"
      }
    },
    {
      "type": "way",
      "id": 431370718,
      "timestamp": "2016-07-16T11:15:48Z",
      "version": 1,
      "changeset": 40777525,
      "user": "giotec",
      "uid": 1723595,
      "center": {
        "lat": -36.5038561,
        "lon": 148.303625
      },
      "nodes": [],
      "tags": {
        "amenity": "shelter"
      }
    },
    {
      "type": "way",
      "id": 628702365,
      "timestamp": "2018-09-28T01:09:04Z",
      "version": 1,
      "changeset": 62993927,
      "user": "breno-au",
      "uid": 859676,
      "center": {
        "lat": -36.4501351,
        "lon": 148.2827449
      },
      "nodes": [],
      "tags": {
        "building": "cabin",
        "ele": "2030",
        "name": "Seamans Hut",
        "note": "For day use and emergency overnight shelter only.",
        "tourism": "wilderness_hut",
        "website": "https://khuts.org/index.php/the-huts/kosciuszko-national-park/764-seamans-hut",
        "wikidata": "Q7440684",
        "wikipedia": "en:Seaman's Hut"
      }
    },
    {
      "type": "way",
      "id": 635206788,
      "timestamp": "2018-10-17T08:17:14Z",
      "version": 1,
      "changeset": 63602115,
      "user": "breno-au",
      "uid": 859676,
      "center": {
        "lat": -36.4775334,
        "lon": 148.2561151
      },
      "nodes": [],
      "tags": {
        "amenity": "shelter",
        "building": "hut",
        "name": "Cootapatamba Hut",
        "shelter_type": "basic_hut",
        "source": "survey",
        "tourism": "wilderness_hut"
      }
    },
    {
      "type": "way",
      "id": 635446127,
      "timestamp": "2018-10-17T21:52:37Z",
      "version": 1,
      "changeset": 63626454,
      "user": "breno-au",
      "uid": 859676,
      "center": {
        "lat": -36.5253873,
        "lon": 148.1935783
      },
      "nodes": [],
      "tags": {
        "name": "Leatherbarrel Creek Camping & Picnic Area",
        "tourism": "camp_site"
      }
    },
    {
      "type": "way",
      "id": 666206886,
      "timestamp": "2020-10-25T09:09:21Z",
      "version": 2,
      "changeset": 93009655,
      "user": "Narow9",
      "uid": 9619367,
      "center": {
        "lat": -36.5831969,
        "lon": 148.2576467
      },
      "nodes": [],
      "tags": {
        "amenity": "shelter",
        "bench": "yes",
        "bin": "no",
        "building": "hut",
        "name": "Cascade Hut",
        "shelter_type": "basic_hut",
        "toilet": "pit",
        "tourism": "wilderness_hut"
      }
    },
    {
      "type": "way",
      "id": 711256925,
      "timestamp": "2021-12-16T09:32:03Z",
      "version": 3,
      "changeset": 114997959,
      "user": "GavinX",
      "uid": 156191,
      "center": {
        "lat": -36.3962265,
        "lon": 148.3560387
      },
      "nodes": [],
      "tags": {
        "amenity": "shelter",
        "building": "yes",
        "name": "Illawong Lodge",
        "reservation": "required",
        "shelter_type": "basic_hut",
        "url": "https://www.illawong.asn.au/"
      }
    },
    {
      "type": "way",
      "id": 860330485,
      "timestamp": "2020-10-18T11:17:56Z",
      "version": 1,
      "changeset": 92653729,
      "user": "Bushman86",
      "uid": 12002260,
      "center": {
        "lat": -36.2120562,
        "lon": 148.3382553
      },
      "nodes": [],
      "tags": {
        "building": "hut",
        "name": "Grey Mare Hut",
        "tourism": "wilderness_hut"
      }
    },
    {
      "type": "way",
      "id": 861242630,
      "timestamp": "2020-10-21T02:42:27Z",
      "version": 1,
      "changeset": 92796251,
      "user": "Velo Mapper",
      "uid": 1704952,
      "center": {
        "lat": -36.2130398,
        "lon": 147.8356932
      },
      "nodes": [],
      "tags": {
        "amenity": "shelter",
        "building": "yes"
      }
    },
    {
      "type": "way",
      "id": 888320501,
      "timestamp": "2020-12-25T05:27:27Z",
      "version": 1,
      "changeset": 96409028,
      "user": "2hu4u",
      "uid": 11484057,
      "center": {
        "lat": -36.1894167,
        "lon": 147.9128648
      },
      "nodes": [],
      "tags": {
        "amenity": "shelter",
        "building": "yes",
        "shelter_type": "picnic_shelter"
      }
    }
  ]
}