{
  "osm3s": {
    "timestamp_osm_date": "2021-09-09T23:59:59Z",
    "timestamp_osm_base": "2021-09-10T03:50:32Z",
    "copyright": "The data included in this document is from www.openstreetmap.org. The data is made available under ODbL."
  },
  "elements": [
    {
      "type": "node",
      "id": 1829874484,
      "lat": -49.2853406,
      "lon": -73.1394202,
      "timestamp": "2014-11-21T04:09:16Z",
      "version": 3,
      "changeset": 26921425,
      "user": "Federico Explorador",
      "uid": 293454,
      "tags": {
        "name": "Campamento Circo De Los Altares",
        "tourism": "camp_site"
      }
    },
    {
      "type": "node",
      "id": 2838304257,
      "lat": -49.0194551,
      "lon": -73.5051745,
      "timestamp": "2020-01-21T15:21:30Z",
      "version": 6,
      "changeset": 79863663,
      "user": "CamelCaseNick",
      "uid": 9563645,
      "tags": {
        "ele": "3623",
        "name": "Volcán Lautaro",
        "natural": "volcano",
        "prominence": "3345",
        "source: prominence": "https://en.wikipedia.org/wiki/List_of_peaks_by_prominence",
        "wikidata": "Q3044652"
      }
    },
    {
      "type": "node",
      "id": 4121986670,
      "lat": -49.1759667,
      "lon": -73.1334847,
      "timestamp": "2019-03-29T00:50:39Z",
      "version": 2,
      "changeset": 68648023,
      "user": "Federico Explorador",
      "uid": 293454,
      "tags": {
        "name": "Paso Marconi (collado)",
        "name:de": "Marconi-Sattel",
        "name:it": "Abra Marconi",
        "natural": "saddle"
      }
    },
    {
      "type": "node",
      "id": 5319073592,
      "lat": -49.0775766,
      "lon": -73.7981381,
      "timestamp": "2018-01-03T21:23:58Z",
      "version": 1,
      "changeset": 55140227,
      "user": "jptolosa",
      "uid": 1975220,
      "tags": {
        "name": "Portezuelo Santa Bárbara",
        "natural": "saddle"
      }
    },
    {
      "type": "node",
      "id": 6369233600,
      "lat": -49.357353,
      "lon": -73.1635621,
      "timestamp": "2019-03-29T00:50:34Z",
      "version": 1,
      "changeset": 68648023,
      "user": "Federico Explorador",
      "uid": 293454,
      "tags": {
        "name": "Boca: Entrada de río",
        "natural": "cave_entrance"
      }
    },
    {
      "type": "node",
      "id": 6369233694,
      "lat": -49.2809153,
      "lon": -73.1437969,
      "timestamp": "2019-03-29T00:50:35Z",
      "version": 1,
      "changeset": 68648023,
      "user": "Federico Explorador",
      "uid": 293454,
      "tags": {
        "tourism": "camp_site"
      }
    },
    {
      "type": "way",
      "id": 547534842,
      "timestamp": "2017-12-18T00:29:25Z",
      "version": 1,
      "changeset": 54717206,
      "user": "Osmand+",
      "uid": 1433092,
      "center": {
        "lat": -49.1600981,
        "lon": -73.139515
      },
      "nodes": [],
      "tags": {
        "building": "yes",
        "ele": "1600",
        "name": "Refugio García Soto",
        "tourism": "alpine_hut"
      }
    }
  ]
}