{
  "osm3s": {
    "timestamp_osm_date": "2021-08-22T23:59:59Z",
    "timestamp_osm_base": "2021-08-23T05:52:41Z",
    "copyright": "The data included in this document is from www.openstreetmap.org. The data is made available under ODbL."
  },
  "elements": [
    {
      "type": "node",
      "id": 267678780,
      "lat": 28.0213832,
      "lon": 84.9276406,
      "timestamp": "2015-04-26T11:15:01Z",
      "version": 2,
      "changeset": 30498909,
      "user": "seichter",
      "uid": 66497,
      "tags": {
        "name": "Baguwabesi",
        "place": "hamlet"
      }
    },
    {
      "type": "node",
      "id": 267679554,
      "lat": 28.0311934,
      "lon": 84.9667138,
      "timestamp": "2015-04-30T11:30:53Z",
      "version": 5,
      "changeset": 30656548,
      "user": "PlaneMad",
      "uid": 1306,
      "tags": {
        "amenity": "telephone",
        "name": "Kintang Phedi",
        "place": "village",
        "shop": "convenience"
      }
    },
    {
      "type": "node",
      "id": 267684825,
      "lat": 28.1590564,
      "lon": 85.0548336,
      "timestamp": "2015-04-30T11:28:41Z",
      "version": 6,
      "changeset": 30656465,
      "user": "PlaneMad",
      "uid": 1306,
      "tags": {
        "name": "Borang",
        "place": "town"
      }
    },
    {
      "type": "node",
      "id": 267691995,
      "lat": 28.0462291,
      "lon": 84.8123842,
      "timestamp": "2019-08-01T09:25:24Z",
      "version": 3,
      "changeset": 72889068,
      "user": "Sundar1",
      "uid": 9530130,
      "tags": {
        "name": "Ārughāt Bāzār",
        "place": "village"
      }
    },
    {
      "type": "node",
      "id": 268669741,
      "lat": 27.90423,
      "lon": 84.538429,
      "timestamp": "2017-02-09T14:13:02Z",
      "version": 6,
      "changeset": 45947878,
      "user": "iWowik",
      "uid": 481934,
      "tags": {
        "name": "Aanbu Khaireni",
        "place": "town",
        "wikidata": "Q4741936",
        "wikipedia": "en:Anbu Khaireni"
      }
    },
    {
      "type": "node",
      "id": 268669853,
      "lat": 27.9634543,
      "lon": 84.4116123,
      "timestamp": "2020-10-16T11:40:21Z",
      "version": 9,
      "changeset": 92582049,
      "user": "Sundar1",
      "uid": 9530130,
      "tags": {
        "ele": "389",
        "name": "Dumre",
        "note": "2nd Dumre in Nepal",
        "place": "town"
      }
    },
    {
      "type": "node",
      "id": 269103220,
      "lat": 28.0440088,
      "lon": 84.8359959,
      "timestamp": "2008-06-10T19:28:37Z",
      "version": 2,
      "changeset": 122426,
      "user": "Arnaud Saint Léger",
      "uid": 24234,
      "tags": {
        "amenity": "telephone",
        "name": "Birta",
        "place": "village",
        "shop": "convenience"
      }
    },
    {
      "type": "node",
      "id": 269103221,
      "lat": 28.042819,
      "lon": 84.8223526,
      "timestamp": "2008-06-08T06:59:12Z",
      "version": 1,
      "changeset": 96193,
      "user": "Arnaud Saint Léger",
      "uid": 24234,
      "tags": {
        "name": "Shingatar",
        "place": "village"
      }
    },
    {
      "type": "node",
      "id": 269103222,
      "lat": 28.025486,
      "lon": 84.8647382,
      "timestamp": "2020-09-02T12:28:34Z",
      "version": 5,
      "changeset": 90304552,
      "user": "Sundar1",
      "uid": 9530130,
      "tags": {
        "alt_name": "Kaste",
        "name": "Salyankot",
        "name:ne": "सल्यानकोट",
        "place": "hamlet",
        "wikidata": "Q3414660",
        "wikipedia": "en:Salyankot"
      }
    },
    {
      "type": "node",
      "id": 269103223,
      "lat": 28.0166123,
      "lon": 84.916593,
      "timestamp": "2008-06-08T06:59:12Z",
      "version": 1,
      "changeset": 96193,
      "user": "Arnaud Saint Léger",
      "uid": 24234,
      "tags": {
        "name": "Chapthok",
        "place": "village"
      }
    },
    {
      "type": "node",
      "id": 269560819,
      "lat": 28.0249517,
      "lon": 84.8898681,
      "timestamp": "2020-09-02T12:28:34Z",
      "version": 2,
      "changeset": 90304552,
      "user": "Sundar1",
      "uid": 9530130,
      "tags": {
        "name": "Degav",
        "place": "hamlet"
      }
    },
    {
      "type": "node",
      "id": 269560820,
      "lat": 28.0301497,
      "lon": 84.8967166,
      "timestamp": "2020-09-02T12:28:34Z",
      "version": 3,
      "changeset": 90304552,
      "user": "Sundar1",
      "uid": 9530130,
      "tags": {
        "name": "Belung",
        "place": "hamlet",
        "shop": "convenience"
      }
    },
    {
      "type": "node",
      "id": 269560821,
      "lat": 28.0228189,
      "lon": 84.9033508,
      "timestamp": "2008-06-10T19:19:03Z",
      "version": 1,
      "changeset": 122426,
      "user": "Arnaud Saint Léger",
      "uid": 24234,
      "tags": {
        "name": "Kosthok",
        "place": "village"
      }
    },
    {
      "type": "node",
      "id": 269563672,
      "lat": 28.050339,
      "lon": 84.976677,
      "timestamp": "2017-02-09T14:13:03Z",
      "version": 3,
      "changeset": 45947878,
      "user": "iWowik",
      "uid": 481934,
      "tags": {
        "name": "Darkha",
        "place": "village",
        "shop": "convenience",
        "wikidata": "Q3412666",
        "wikipedia": "en:Darkha"
      }
    },
    {
      "type": "node",
      "id": 269563673,
      "lat": 28.0655171,
      "lon": 84.9846341,
      "timestamp": "2008-06-10T19:36:39Z",
      "version": 1,
      "changeset": 122426,
      "user": "Arnaud Saint Léger",
      "uid": 24234,
      "tags": {
        "name": "Gangsang",
        "place": "village"
      }
    },
    {
      "type": "node",
      "id": 269563674,
      "lat": 28.0684736,
      "lon": 84.9858077,
      "timestamp": "2015-11-28T02:40:24Z",
      "version": 2,
      "changeset": 35621617,
      "user": "Ian Kurashige",
      "uid": 3397501,
      "tags": {
        "name": "Dharka",
        "place": "town"
      }
    },
    {
      "type": "node",
      "id": 269563675,
      "lat": 28.0761514,
      "lon": 84.9923655,
      "timestamp": "2017-03-27T07:28:46Z",
      "version": 2,
      "changeset": 47193375,
      "user": "Pramod Khatiwada",
      "uid": 2931131,
      "tags": {
        "name": "Dharna",
        "place": "village"
      }
    },
    {
      "type": "node",
      "id": 269567049,
      "lat": 28.0936633,
      "lon": 85.019776,
      "timestamp": "2015-11-28T02:50:41Z",
      "version": 3,
      "changeset": 35621672,
      "user": "Ian Kurashige",
      "uid": 3397501,
      "tags": {
        "name": "Sangyung",
        "place": "village"
      }
    },
    {
      "type": "node",
      "id": 269567050,
      "lat": 28.1338314,
      "lon": 85.0291178,
      "timestamp": "2015-11-28T02:40:24Z",
      "version": 2,
      "changeset": 35621617,
      "user": "Ian Kurashige",
      "uid": 3397501,
      "tags": {
        "name": "Garsyong",
        "place": "village"
      }
    },
    {
      "type": "node",
      "id": 279339374,
      "lat": 27.8119935,
      "lon": 84.9613649,
      "timestamp": "2008-07-18T19:40:04Z",
      "version": 1,
      "changeset": 526931,
      "user": "Arnaud Saint Léger",
      "uid": 24234,
      "tags": {
        "name": "Barani",
        "place": "village"
      }
    },
    {
      "type": "node",
      "id": 279339376,
      "lat": 27.8724268,
      "lon": 84.6228073,
      "timestamp": "2008-07-18T19:40:04Z",
      "version": 1,
      "changeset": 526931,
      "user": "Arnaud Saint Léger",
      "uid": 24234,
      "tags": {
        "name": "Kurintar",
        "place": "village"
      }
    },
    {
      "type": "node",
      "id": 279374584,
      "lat": 27.8046804,
      "lon": 84.8771186,
      "timestamp": "2014-08-13T09:06:33Z",
      "version": 2,
      "changeset": 24718679,
      "user": "Manoj Thapa",
      "uid": 781054,
      "tags": {
        "name": "Gajuri",
        "place": "hamlet"
      }
    },
    {
      "type": "node",
      "id": 279374585,
      "lat": 27.8069683,
      "lon": 84.942947,
      "timestamp": "2014-11-07T13:53:02Z",
      "version": 2,
      "changeset": 26614990,
      "user": "redrace",
      "uid": 149451,
      "tags": {
        "name": "Adamghat",
        "place": "village"
      }
    },
    {
      "type": "node",
      "id": 279374588,
      "lat": 27.7957177,
      "lon": 84.9963728,
      "timestamp": "2008-07-18T21:44:32Z",
      "version": 1,
      "changeset": 529196,
      "user": "Arnaud Saint Léger",
      "uid": 24234,
      "tags": {
        "name": "Gardo Khola",
        "place": "village"
      }
    },
    {
      "type": "node",
      "id": 279374592,
      "lat": 27.7980844,
      "lon": 85.0017588,
      "timestamp": "2008-07-18T21:44:33Z",
      "version": 1,
      "changeset": 529196,
      "user": "Arnaud Saint Léger",
      "uid": 24234,
      "tags": {
        "name": "Galcchi",
        "place": "village"
      }
    },
    {
      "type": "node",
      "id": 293621413,
      "lat": 28.231316,
      "lon": 84.376144,
      "timestamp": "2020-02-26T05:28:19Z",
      "version": 20,
      "changeset": 81483431,
      "user": "iWowik",
      "uid": 481934,
      "tags": {
        "admin_level": "8",
        "ele": "760",
        "is_in:country": "Nepal",
        "is_in:district": "लमजुङ",
        "name": "Besisahar",
        "name:ja": "ベシサハル",
        "name:ne": "बेसीसहर",
        "place": "town",
        "population": "15442",
        "wikidata": "Q829880",
        "wikipedia": "en:Besisahar"
      }
    },
    {
      "type": "node",
      "id": 316985037,
      "lat": 27.9380224,
      "lon": 84.4066959,
      "timestamp": "2020-09-02T10:48:07Z",
      "version": 9,
      "changeset": 90298318,
      "user": "Sundar1",
      "uid": 9530130,
      "tags": {
        "elevation": "971m",
        "name": "Bandipur",
        "place": "village",
        "wikidata": "Q806327",
        "wikipedia": "en:Bandipur"
      }
    },
    {
      "type": "node",
      "id": 567088223,
      "lat": 27.8561616,
      "lon": 84.560951,
      "timestamp": "2019-04-23T21:37:46Z",
      "version": 5,
      "changeset": 69505326,
      "user": "geow",
      "uid": 223093,
      "tags": {
        "name": "Mugling",
        "place": "village",
        "population": "1500"
      }
    },
    {
      "type": "node",
      "id": 847654459,
      "lat": 28.0343132,
      "lon": 84.4622678,
      "timestamp": "2016-08-24T04:36:20Z",
      "version": 2,
      "changeset": 41652798,
      "user": "Parassrest",
      "uid": 3569249,
      "tags": {
        "name": "Turture",
        "name:ne": "टर्टुरे",
        "place": "village"
      }
    },
    {
      "type": "node",
      "id": 1046595865,
      "lat": 28.1492453,
      "lon": 84.8630253,
      "timestamp": "2010-12-18T22:57:49Z",
      "version": 1,
      "changeset": 6701461,
      "user": "andybryant",
      "uid": 55352,
      "tags": {
        "tourism": "camp_site"
      }
    },
    {
      "type": "node",
      "id": 1046601033,
      "lat": 28.228503,
      "lon": 84.8745663,
      "timestamp": "2015-04-30T21:18:23Z",
      "version": 2,
      "changeset": 30673856,
      "user": "seichter",
      "uid": 66497,
      "tags": {
        "tourism": "camp_site"
      }
    },
    {
      "type": "node",
      "id": 1046605051,
      "lat": 28.2751772,
      "lon": 84.8984079,
      "timestamp": "2018-08-17T17:52:41Z",
      "version": 4,
      "changeset": 61753351,
      "user": "Yeti-17",
      "uid": 6969191,
      "tags": {
        "name": "Hot Springs",
        "natural": "spring"
      }
    },
    {
      "type": "node",
      "id": 1078765777,
      "lat": 28.229313,
      "lon": 84.8737685,
      "timestamp": "2015-04-26T22:55:49Z",
      "version": 2,
      "changeset": 30520614,
      "user": "CloCkWeRX",
      "uid": 172061,
      "tags": {
        "name": "Machhakholagon",
        "place": "village"
      }
    },
    {
      "type": "node",
      "id": 1078765936,
      "lat": 28.2756939,
      "lon": 84.8985132,
      "timestamp": "2018-08-17T17:52:41Z",
      "version": 4,
      "changeset": 61753351,
      "user": "Yeti-17",
      "uid": 6969191,
      "tags": {
        "name": "Tatopani",
        "place": "hamlet"
      }
    },
    {
      "type": "node",
      "id": 1078766092,
      "lat": 28.2954735,
      "lon": 84.9058538,
      "timestamp": "2018-10-28T09:46:12Z",
      "version": 6,
      "changeset": 63945394,
      "user": "Yeti-17",
      "uid": 6969191,
      "tags": {
        "alt_name": "Dovan",
        "name": "Dobhan",
        "place": "village"
      }
    },
    {
      "type": "node",
      "id": 1329319684,
      "lat": 27.9484821,
      "lon": 84.4183192,
      "timestamp": "2017-03-19T07:52:11Z",
      "version": 3,
      "changeset": 46973471,
      "user": "Papayaved",
      "uid": 406299,
      "tags": {
        "name": "Siddha Cave",
        "natural": "cave_entrance",
        "tourism": "attraction"
      }
    },
    {
      "type": "node",
      "id": 1329319686,
      "lat": 27.9487607,
      "lon": 84.4178506,
      "timestamp": "2011-06-18T06:24:16Z",
      "version": 1,
      "changeset": 8470325,
      "user": "Tungmar",
      "uid": 427807,
      "tags": {
        "amenity": "drinking_water"
      }
    },
    {
      "type": "node",
      "id": 1329323822,
      "lat": 27.9529236,
      "lon": 84.4218417,
      "timestamp": "2011-06-18T06:36:08Z",
      "version": 1,
      "changeset": 8470325,
      "user": "Tungmar",
      "uid": 427807,
      "tags": {
        "name": "Bimalnagar",
        "place": "village"
      }
    },
    {
      "type": "node",
      "id": 1329328793,
      "lat": 27.9406557,
      "lon": 84.3853701,
      "timestamp": "2011-06-18T06:54:59Z",
      "version": 1,
      "changeset": 8470325,
      "user": "Tungmar",
      "uid": 427807,
      "tags": {
        "amenity": "drinking_water"
      }
    },
    {
      "type": "node",
      "id": 1329328794,
      "lat": 27.9351014,
      "lon": 84.3975065,
      "timestamp": "2011-06-18T06:54:59Z",
      "version": 1,
      "changeset": 8470325,
      "user": "Tungmar",
      "uid": 427807,
      "tags": {
        "amenity": "drinking_water"
      }
    },
    {
      "type": "node",
      "id": 1329346738,
      "lat": 27.9326369,
      "lon": 84.3946065,
      "timestamp": "2011-06-18T07:45:06Z",
      "version": 1,
      "changeset": 8470325,
      "user": "Tungmar",
      "uid": 427807,
      "tags": {
        "amenity": "drinking_water"
      }
    },
    {
      "type": "node",
      "id": 1537553862,
      "lat": 27.8131268,
      "lon": 84.7641169,
      "timestamp": "2011-12-09T00:02:47Z",
      "version": 1,
      "changeset": 10069841,
      "user": "ArsenyN",
      "uid": 312696,
      "tags": {
        "name": "Bishaltar",
        "place": "hamlet"
      }
    },
    {
      "type": "node",
      "id": 1537553866,
      "lat": 27.8163594,
      "lon": 84.8083472,
      "timestamp": "2011-12-09T00:02:47Z",
      "version": 1,
      "changeset": 10069841,
      "user": "ArsenyN",
      "uid": 312696,
      "tags": {
        "name": "Salanghat",
        "place": "hamlet"
      }
    },
    {
      "type": "node",
      "id": 1617990127,
      "lat": 28.06925,
      "lon": 84.543739,
      "timestamp": "2017-02-09T14:17:16Z",
      "version": 6,
      "changeset": 45947878,
      "user": "iWowik",
      "uid": 481934,
      "tags": {
        "FIXME": "position",
        "ele": "1100",
        "name": "Amppipal",
        "note": "VDC",
        "place": "village",
        "wikidata": "Q4748539",
        "wikipedia": "en:Amppipal"
      }
    },
    {
      "type": "node",
      "id": 1686153402,
      "lat": 28.0559385,
      "lon": 84.4775581,
      "timestamp": "2012-03-22T19:23:40Z",
      "version": 1,
      "changeset": 11066684,
      "user": "Aleks-Berlin",
      "uid": 85218,
      "tags": {
        "name": "Chepe Ghat",
        "place": "hamlet"
      }
    },
    {
      "type": "node",
      "id": 1742495826,
      "lat": 28.3023618,
      "lon": 84.3937368,
      "timestamp": "2017-10-17T19:15:56Z",
      "version": 2,
      "changeset": 53021195,
      "user": "Władysław Komorek",
      "uid": 693154,
      "tags": {
        "name": "Ngadi Lamjung",
        "place": "hamlet",
        "source": "survey"
      }
    },
    {
      "type": "node",
      "id": 1742495827,
      "lat": 28.176794,
      "lon": 84.431168,
      "timestamp": "2017-02-09T14:17:16Z",
      "version": 6,
      "changeset": 45947878,
      "user": "iWowik",
      "uid": 481934,
      "tags": {
        "name": "Udipur",
        "place": "hamlet",
        "source": "survey",
        "wikidata": "Q3424883",
        "wikipedia": "en:Udipur"
      }
    },
    {
      "type": "node",
      "id": 1742495828,
      "lat": 28.2177279,
      "lon": 84.3837538,
      "timestamp": "2014-10-11T11:00:43Z",
      "version": 2,
      "changeset": 26001428,
      "user": "msushil",
      "uid": 1731344,
      "tags": {
        "name": "Ranikuwa",
        "place": "hamlet",
        "source": "survey"
      }
    },
    {
      "type": "node",
      "id": 1742495833,
      "lat": 28.1359981,
      "lon": 84.4330509,
      "timestamp": "2020-10-16T11:40:21Z",
      "version": 3,
      "changeset": 92582049,
      "user": "Sundar1",
      "uid": 9530130,
      "tags": {
        "name": "siudibar",
        "place": "village",
        "source": "survey"
      }
    },
    {
      "type": "node",
      "id": 1781577613,
      "lat": 28.2076918,
      "lon": 84.7761727,
      "timestamp": "2012-06-09T13:51:57Z",
      "version": 1,
      "changeset": 11845121,
      "user": "geow",
      "uid": 223093,
      "tags": {
        "natural": "spring"
      }
    },
    {
      "type": "node",
      "id": 1781649659,
      "lat": 28.2028314,
      "lon": 84.7466039,
      "timestamp": "2017-04-26T11:30:53Z",
      "version": 2,
      "changeset": 48160071,
      "user": "marek kleciak",
      "uid": 338611,
      "tags": {
        "ele": "1960",
        "name": "Barpak",
        "tourism": "camp_site"
      }
    },
    {
      "type": "node",
      "id": 1781649680,
      "lat": 28.2560992,
      "lon": 84.7690813,
      "timestamp": "2012-06-09T15:03:59Z",
      "version": 2,
      "changeset": 11845840,
      "user": "geow",
      "uid": 223093,
      "tags": {
        "ele": "3100",
        "tourism": "camp_site"
      }
    },
    {
      "type": "node",
      "id": 1782406900,
      "lat": 28.0041091,
      "lon": 84.6292582,
      "timestamp": "2020-02-01T14:36:52Z",
      "version": 4,
      "changeset": 80411666,
      "user": "Dave Andersen",
      "uid": 10700227,
      "tags": {
        "ele": "1380",
        "mountain_pass": "yes",
        "name": "Ghorka Darbar Pass",
        "name:en": "Ghorka Darbar Pass",
        "natural": "saddle"
      }
    },
    {
      "type": "node",
      "id": 1782445078,
      "lat": 28.0436781,
      "lon": 84.6288315,
      "timestamp": "2012-06-10T10:36:39Z",
      "version": 1,
      "changeset": 11852822,
      "user": "geow",
      "uid": 223093,
      "tags": {
        "ele": "480",
        "name": "Naya Sagu",
        "place": "village"
      }
    },
    {
      "type": "node",
      "id": 1782445085,
      "lat": 28.0638585,
      "lon": 84.6519898,
      "timestamp": "2015-05-02T22:19:50Z",
      "version": 2,
      "changeset": 30733930,
      "user": "geow",
      "uid": 223093,
      "tags": {
        "backcountry": "yes",
        "ele": "515",
        "tourism": "camp_site"
      }
    },
    {
      "type": "node",
      "id": 1990817863,
      "lat": 27.7223671,
      "lon": 84.4183589,
      "timestamp": "2012-10-31T10:50:01Z",
      "version": 1,
      "changeset": 13697585,
      "user": "Manoj Thapa",
      "uid": 781054,
      "tags": {
        "amenity": "drinking_water"
      }
    },
    {
      "type": "node",
      "id": 1995767582,
      "lat": 27.7391877,
      "lon": 84.4254257,
      "timestamp": "2021-07-11T18:05:44Z",
      "version": 2,
      "changeset": 107792714,
      "user": "Władysław Komorek",
      "uid": 693154,
      "tags": {
        "name": "Devghat",
        "name:ne": "देवघाट",
        "place": "village"
      }
    },
    {
      "type": "node",
      "id": 2105398484,
      "lat": 27.8079494,
      "lon": 84.7709318,
      "timestamp": "2015-04-27T20:01:37Z",
      "version": 2,
      "changeset": 30558327,
      "user": "Helmchen42",
      "uid": 1817244,
      "tags": {
        "name": "BeniGhat",
        "place": "hamlet"
      }
    },
    {
      "type": "node",
      "id": 2105398486,
      "lat": 27.9545964,
      "lon": 84.7400911,
      "timestamp": "2013-01-11T09:49:18Z",
      "version": 1,
      "changeset": 14607796,
      "user": "hellopratap",
      "uid": 1159797,
      "tags": {
        "name": "Kyamuntar",
        "place": "village"
      }
    },
    {
      "type": "node",
      "id": 2140333103,
      "lat": 27.754945,
      "lon": 85.0451271,
      "timestamp": "2014-08-13T09:06:34Z",
      "version": 2,
      "changeset": 24718679,
      "user": "Manoj Thapa",
      "uid": 781054,
      "tags": {
        "name": "Simle Bazzar",
        "place": "hamlet"
      }
    },
    {
      "type": "node",
      "id": 2192585842,
      "lat": 27.8490148,
      "lon": 85.0273018,
      "timestamp": "2020-09-02T12:28:34Z",
      "version": 3,
      "changeset": 90304552,
      "user": "Sundar1",
      "uid": 9530130,
      "tags": {
        "name": "Taruka Ghat",
        "place": "hamlet"
      }
    },
    {
      "type": "node",
      "id": 2318596406,
      "lat": 27.7566665,
      "lon": 84.5905309,
      "timestamp": "2019-09-19T10:31:09Z",
      "version": 2,
      "changeset": 74664880,
      "user": "Sundar1",
      "uid": 9530130,
      "tags": {
        "name": "Kolar",
        "place": "hamlet"
      }
    },
    {
      "type": "node",
      "id": 2411382433,
      "lat": 28.0973486,
      "lon": 84.835605,
      "timestamp": "2018-08-18T09:21:34Z",
      "version": 4,
      "changeset": 61765563,
      "user": "Yeti-17",
      "uid": 6969191,
      "tags": {
        "alt_name": "Arukhet",
        "name": "Arkhet Bazar",
        "place": "village"
      }
    },
    {
      "type": "node",
      "id": 2411382434,
      "lat": 28.1774302,
      "lon": 84.8796681,
      "timestamp": "2018-10-28T07:45:59Z",
      "version": 4,
      "changeset": 63943236,
      "user": "Yeti-17",
      "uid": 6969191,
      "tags": {
        "name": "Lapu Besi",
        "place": "village"
      }
    },
    {
      "type": "node",
      "id": 2456730578,
      "lat": 27.6916887,
      "lon": 84.4248689,
      "timestamp": "2020-01-29T13:00:38Z",
      "version": 2,
      "changeset": 80257750,
      "user": "marek kleciak",
      "uid": 338611,
      "tags": {
        "name": "K.L MALL",
        "shop": "supermarket"
      }
    },
    {
      "type": "node",
      "id": 2862498799,
      "lat": 27.8428051,
      "lon": 84.661724,
      "timestamp": "2020-09-02T10:48:07Z",
      "version": 5,
      "changeset": 90298318,
      "user": "Sundar1",
      "uid": 9530130,
      "tags": {
        "name": "Phishling",
        "place": "village"
      }
    },
    {
      "type": "node",
      "id": 2862517103,
      "lat": 27.8044981,
      "lon": 84.9052684,
      "timestamp": "2014-08-13T09:06:33Z",
      "version": 2,
      "changeset": 24718679,
      "user": "Manoj Thapa",
      "uid": 781054,
      "tags": {
        "name": "Ghatbesi",
        "place": "hamlet"
      }
    },
    {
      "type": "node",
      "id": 3013890962,
      "lat": 27.813705,
      "lon": 84.82724,
      "timestamp": "2017-02-09T14:17:48Z",
      "version": 3,
      "changeset": 45947878,
      "user": "iWowik",
      "uid": 481934,
      "tags": {
        "name": "Malekhu",
        "place": "hamlet",
        "wikidata": "Q17009320",
        "wikipedia": "en:Malekhu"
      }
    },
    {
      "type": "node",
      "id": 3013890964,
      "lat": 27.8062193,
      "lon": 84.836209,
      "timestamp": "2014-08-13T09:06:27Z",
      "version": 1,
      "changeset": 24718679,
      "user": "Manoj Thapa",
      "uid": 781054,
      "tags": {
        "name": "Purano Malekhu",
        "place": "hamlet"
      }
    },
    {
      "type": "node",
      "id": 3021631405,
      "lat": 27.934267,
      "lon": 84.706451,
      "timestamp": "2017-02-09T14:17:49Z",
      "version": 3,
      "changeset": 45947878,
      "user": "iWowik",
      "uid": 481934,
      "tags": {
        "name": "Namjung",
        "name:ne": "नाम्जुङ",
        "place": "village",
        "wikidata": "Q3416073",
        "wikipedia": "en:Namjung"
      }
    },
    {
      "type": "node",
      "id": 3121926169,
      "lat": 28.2283957,
      "lon": 84.379987,
      "timestamp": "2014-10-10T11:03:32Z",
      "version": 4,
      "changeset": 25980410,
      "user": "msushil",
      "uid": 1731344,
      "tags": {
        "amenity": "shelter",
        "fireplace": "no",
        "name": "Pratikshyalaya",
        "shelter_type": "weather_shelter"
      }
    },
    {
      "type": "node",
      "id": 3121926329,
      "lat": 28.229388,
      "lon": 84.3804717,
      "timestamp": "2014-10-10T10:16:29Z",
      "version": 2,
      "changeset": 25979681,
      "user": "msushil",
      "uid": 1731344,
      "tags": {
        "amenity": "shelter",
        "shelter_type": "weather_shelter"
      }
    },
    {
      "type": "node",
      "id": 3123595027,
      "lat": 28.2255679,
      "lon": 84.3787467,
      "timestamp": "2020-08-03T08:09:02Z",
      "version": 3,
      "changeset": 88864578,
      "user": "Sundar1",
      "uid": 9530130,
      "tags": {
        "name": "Sira Phat",
        "place": "hamlet"
      }
    },
    {
      "type": "node",
      "id": 3123595045,
      "lat": 28.2313496,
      "lon": 84.3878159,
      "timestamp": "2021-06-22T11:57:32Z",
      "version": 2,
      "changeset": 106775051,
      "user": "Sundar1",
      "uid": 9530130,
      "tags": {
        "name": "Bajakhet",
        "place": "hamlet"
      }
    },
    {
      "type": "node",
      "id": 3123694591,
      "lat": 28.2106658,
      "lon": 84.3967421,
      "timestamp": "2015-08-02T10:42:17Z",
      "version": 2,
      "changeset": 33046022,
      "user": "dipendra jha",
      "uid": 3115074,
      "tags": {
        "name": "Danai Gau",
        "place": "village"
      }
    },
    {
      "type": "node",
      "id": 3123694618,
      "lat": 28.2040565,
      "lon": 84.3949291,
      "timestamp": "2014-10-11T10:03:14Z",
      "version": 1,
      "changeset": 26000392,
      "user": "msushil",
      "uid": 1731344,
      "tags": {
        "name": "Bhakunde",
        "place": "village"
      }
    },
    {
      "type": "node",
      "id": 3123694626,
      "lat": 28.1902126,
      "lon": 84.3907708,
      "timestamp": "2020-10-16T11:40:21Z",
      "version": 3,
      "changeset": 92582049,
      "user": "Sundar1",
      "uid": 9530130,
      "tags": {
        "name": "Naruwal Magar Village",
        "place": "hamlet"
      }
    },
    {
      "type": "node",
      "id": 3123743130,
      "lat": 28.1803266,
      "lon": 84.3802225,
      "timestamp": "2014-10-11T11:00:38Z",
      "version": 1,
      "changeset": 26001428,
      "user": "msushil",
      "uid": 1731344,
      "tags": {
        "name": "Chisapaani",
        "place": "village"
      }
    },
    {
      "type": "node",
      "id": 3123743132,
      "lat": 28.148336,
      "lon": 84.439857,
      "timestamp": "2020-10-16T11:40:21Z",
      "version": 4,
      "changeset": 92582049,
      "user": "Sundar1",
      "uid": 9530130,
      "tags": {
        "name": "Bhotewodar",
        "place": "village",
        "wikidata": "Q4902059",
        "wikipedia": "en:Bhotewodar"
      }
    },
    {
      "type": "node",
      "id": 3123743144,
      "lat": 28.1280713,
      "lon": 84.4111275,
      "timestamp": "2015-04-30T06:14:45Z",
      "version": 4,
      "changeset": 30647705,
      "user": "PlaneMad",
      "uid": 1306,
      "tags": {
        "alt_name": "Bartār",
        "gns:ufi": "-1021712",
        "name": "Sundar Bazar",
        "place": "village",
        "source": "GNS"
      }
    },
    {
      "type": "node",
      "id": 3123743223,
      "lat": 28.1127549,
      "lon": 84.4309462,
      "timestamp": "2020-10-16T11:40:21Z",
      "version": 2,
      "changeset": 92582049,
      "user": "Sundar1",
      "uid": 9530130,
      "tags": {
        "name": "Paudi Bazar",
        "place": "village"
      }
    },
    {
      "type": "node",
      "id": 3123743252,
      "lat": 28.1971875,
      "lon": 84.4039562,
      "timestamp": "2020-10-16T11:40:21Z",
      "version": 2,
      "changeset": 92582049,
      "user": "Sundar1",
      "uid": 9530130,
      "tags": {
        "name": "Gairi",
        "place": "hamlet"
      }
    },
    {
      "type": "node",
      "id": 3123743293,
      "lat": 28.1997169,
      "lon": 84.4002869,
      "timestamp": "2014-10-11T11:00:41Z",
      "version": 1,
      "changeset": 26001428,
      "user": "msushil",
      "uid": 1731344,
      "tags": {
        "amenity": "shelter",
        "name": "Bus Waiting"
      }
    },
    {
      "type": "node",
      "id": 3341395284,
      "lat": 27.6975738,
      "lon": 84.4246161,
      "timestamp": "2015-02-10T08:48:23Z",
      "version": 1,
      "changeset": 28745586,
      "user": "Manoj Thapa",
      "uid": 781054,
      "tags": {
        "addr:street": "putali bazaar 3",
        "name": "smart shop",
        "shop": "convenience"
      }
    },
    {
      "type": "node",
      "id": 3341396555,
      "lat": 27.6985103,
      "lon": 84.425331,
      "timestamp": "2020-03-12T10:20:02Z",
      "version": 3,
      "changeset": 82106665,
      "user": "marek kleciak",
      "uid": 338611,
      "tags": {
        "addr:street": "mina bazaar marga",
        "name": "rohit stores",
        "shop": "convenience"
      }
    },
    {
      "type": "node",
      "id": 3343358306,
      "lat": 27.701272,
      "lon": 84.4289067,
      "timestamp": "2015-06-08T23:14:35Z",
      "version": 2,
      "changeset": 31831393,
      "user": "GeoFrizz",
      "uid": 2898171,
      "tags": {
        "name": "pardhan kirana pasal",
        "shop": "convenience"
      }
    },
    {
      "type": "node",
      "id": 3343362299,
      "lat": 27.7008872,
      "lon": 84.4277545,
      "timestamp": "2015-02-11T08:12:26Z",
      "version": 1,
      "changeset": 28767472,
      "user": "Swag_man",
      "uid": 2654419,
      "tags": {
        "name": "naulo pasal",
        "shop": "convenience"
      }
    },
    {
      "type": "node",
      "id": 3343362901,
      "lat": 27.7005858,
      "lon": 84.427359,
      "timestamp": "2015-02-11T08:12:24Z",
      "version": 1,
      "changeset": 28767475,
      "user": "Pujan Poudyal",
      "uid": 2516487,
      "tags": {
        "name": "naulo pashal",
        "shop": "convenience"
      }
    },
    {
      "type": "node",
      "id": 3343519987,
      "lat": 27.7315368,
      "lon": 84.4518418,
      "timestamp": "2015-02-11T09:24:25Z",
      "version": 1,
      "changeset": 28768578,
      "user": "Manoj Thapa",
      "uid": 781054,
      "tags": {
        "name": "Ramnagar",
        "place": "village"
      }
    },
    {
      "type": "node",
      "id": 3345308582,
      "lat": 27.7006828,
      "lon": 84.4273526,
      "timestamp": "2020-05-27T07:19:50Z",
      "version": 2,
      "changeset": 85813373,
      "user": "marek kleciak",
      "uid": 338611,
      "tags": {
        "name": "narayangarh",
        "opening_hours": "Tu-Su 07:00-19:00",
        "shop": "convenience"
      }
    },
    {
      "type": "node",
      "id": 3345308586,
      "lat": 27.7013189,
      "lon": 84.4281892,
      "timestamp": "2015-02-12T13:24:39Z",
      "version": 2,
      "changeset": 28795496,
      "user": "marek kleciak",
      "uid": 338611,
      "tags": {
        "name": "subh labh khadya udhyog",
        "opening_hours": "Tu-Su 07:00-18:00",
        "shop": "convenience"
      }
    },
    {
      "type": "node",
      "id": 3345308655,
      "lat": 27.7010077,
      "lon": 84.4275698,
      "timestamp": "2015-06-08T23:14:34Z",
      "version": 2,
      "changeset": 31831393,
      "user": "GeoFrizz",
      "uid": 2898171,
      "tags": {
        "name": "napal national dalit welfare organisation",
        "opening_hours": "Mo-Sa 09:00-20:00",
        "organic": "only",
        "shop": "supermarket"
      }
    },
    {
      "type": "node",
      "id": 3345309041,
      "lat": 27.6983989,
      "lon": 84.4237596,
      "timestamp": "2015-02-12T07:58:23Z",
      "version": 1,
      "changeset": 28789475,
      "user": "Sazal(Solaris)",
      "uid": 864593,
      "tags": {
        "name": "dhree krishna kirana",
        "shop": "convenience"
      }
    },
    {
      "type": "node",
      "id": 3345453765,
      "lat": 27.6995632,
      "lon": 84.425274,
      "timestamp": "2015-02-12T09:56:24Z",
      "version": 1,
      "changeset": 28791170,
      "user": "raymon 23",
      "uid": 2658218,
      "tags": {
        "name": "sudip kirana",
        "opening_hours": "Tu-Su 07:00-19:00",
        "phone": "9841308006",
        "shop": "convenience"
      }
    },
    {
      "type": "node",
      "id": 3345453856,
      "lat": 27.6986388,
      "lon": 84.4251876,
      "timestamp": "2015-02-12T09:56:34Z",
      "version": 1,
      "changeset": 28791170,
      "user": "raymon 23",
      "uid": 2658218,
      "tags": {
        "name": "p s traders",
        "opening_hours": "Tu-Su 09:00-20:00",
        "phone": "9845045985",
        "shop": "convenience"
      }
    },
    {
      "type": "node",
      "id": 3345454085,
      "lat": 27.6984141,
      "lon": 84.4250369,
      "timestamp": "2015-02-12T09:56:32Z",
      "version": 1,
      "changeset": 28791170,
      "user": "raymon 23",
      "uid": 2658218,
      "tags": {
        "name": "pr interprisesh",
        "opening_hours": "Tu-Su 07:00-19:00",
        "phone": "9845111094",
        "shop": "convenience"
      }
    },
    {
      "type": "node",
      "id": 3345463464,
      "lat": 27.6962496,
      "lon": 84.4256426,
      "timestamp": "2015-02-12T10:11:57Z",
      "version": 1,
      "changeset": 28791449,
      "user": "Tularam",
      "uid": 2658225,
      "tags": {
        "amenity": "drinking_water"
      }
    },
    {
      "type": "node",
      "id": 3347242926,
      "lat": 27.727471,
      "lon": 84.4090089,
      "timestamp": "2015-02-13T06:10:19Z",
      "version": 1,
      "changeset": 28813768,
      "user": "Biplov Bhandari",
      "uid": 751081,
      "tags": {
        "amenity": "drinking_water"
      }
    },
    {
      "type": "node",
      "id": 3347244248,
      "lat": 27.7275984,
      "lon": 84.4086473,
      "timestamp": "2015-02-13T06:10:13Z",
      "version": 1,
      "changeset": 28813768,
      "user": "Biplov Bhandari",
      "uid": 751081,
      "tags": {
        "amenity": "drinking_water"
      }
    },
    {
      "type": "node",
      "id": 3347244249,
      "lat": 27.7278293,
      "lon": 84.4085078,
      "timestamp": "2015-02-13T06:10:16Z",
      "version": 1,
      "changeset": 28813768,
      "user": "Biplov Bhandari",
      "uid": 751081,
      "tags": {
        "amenity": "drinking_water"
      }
    },
    {
      "type": "node",
      "id": 3347244250,
      "lat": 27.7273877,
      "lon": 84.4089639,
      "timestamp": "2015-02-13T06:10:22Z",
      "version": 1,
      "changeset": 28813768,
      "user": "Biplov Bhandari",
      "uid": 751081,
      "tags": {
        "amenity": "drinking_water"
      }
    },
    {
      "type": "node",
      "id": 3347244251,
      "lat": 27.724991,
      "lon": 84.4153413,
      "timestamp": "2015-02-13T06:10:27Z",
      "version": 1,
      "changeset": 28813768,
      "user": "Biplov Bhandari",
      "uid": 751081,
      "tags": {
        "amenity": "drinking_water"
      }
    },
    {
      "type": "node",
      "id": 3347244714,
      "lat": 27.7224009,
      "lon": 84.4185072,
      "timestamp": "2015-02-13T06:09:50Z",
      "version": 1,
      "changeset": 28813768,
      "user": "Biplov Bhandari",
      "uid": 751081,
      "tags": {
        "amenity": "drinking_water"
      }
    },
    {
      "type": "node",
      "id": 3347244715,
      "lat": 27.7270003,
      "lon": 84.4112581,
      "timestamp": "2015-02-13T06:10:24Z",
      "version": 1,
      "changeset": 28813768,
      "user": "Biplov Bhandari",
      "uid": 751081,
      "tags": {
        "amenity": "drinking_water"
      }
    },
    {
      "type": "node",
      "id": 3347244897,
      "lat": 27.7213495,
      "lon": 84.4184554,
      "timestamp": "2015-02-13T06:09:47Z",
      "version": 1,
      "changeset": 28813768,
      "user": "Biplov Bhandari",
      "uid": 751081,
      "tags": {
        "amenity": "drinking_water"
      }
    },
    {
      "type": "node",
      "id": 3347244898,
      "lat": 27.7237372,
      "lon": 84.4165684,
      "timestamp": "2015-02-13T06:09:53Z",
      "version": 1,
      "changeset": 28813768,
      "user": "Biplov Bhandari",
      "uid": 751081,
      "tags": {
        "amenity": "drinking_water"
      }
    },
    {
      "type": "node",
      "id": 3347244919,
      "lat": 27.724726,
      "lon": 84.4158203,
      "timestamp": "2015-02-13T06:09:58Z",
      "version": 1,
      "changeset": 28813768,
      "user": "Biplov Bhandari",
      "uid": 751081,
      "tags": {
        "amenity": "drinking_water"
      }
    },
    {
      "type": "node",
      "id": 3386580344,
      "lat": 28.202909,
      "lon": 84.744514,
      "timestamp": "2021-01-04T07:03:50Z",
      "version": 8,
      "changeset": 96884309,
      "user": "geow",
      "uid": 223093,
      "tags": {
        "ele": "1905",
        "name": "Barpak",
        "name:ne": "बारपाक",
        "place": "village",
        "population": "15000",
        "wikidata": "Q4863075",
        "wikipedia": "en:Barpak"
      }
    },
    {
      "type": "node",
      "id": 3386661752,
      "lat": 28.2191492,
      "lon": 84.8013991,
      "timestamp": "2015-04-26T03:14:51Z",
      "version": 2,
      "changeset": 30489801,
      "user": "ApoorvaLal",
      "uid": 2858910,
      "tags": {
        "name": "Laprak",
        "place": "village"
      }
    },
    {
      "type": "node",
      "id": 3386661753,
      "lat": 28.2241473,
      "lon": 84.8380229,
      "timestamp": "2015-04-26T03:28:28Z",
      "version": 2,
      "changeset": 30489926,
      "user": "ApoorvaLal",
      "uid": 2858910,
      "tags": {
        "name": "Singhla",
        "place": "village"
      }
    },
    {
      "type": "node",
      "id": 3387669747,
      "lat": 27.9108933,
      "lon": 84.8952805,
      "timestamp": "2017-11-01T08:32:30Z",
      "version": 12,
      "changeset": 53417034,
      "user": "Jeewan ad",
      "uid": 6613875,
      "tags": {
        "capital": "5",
        "name": "Dhading Besi",
        "name:ne": "धादिंग बेंसी",
        "place": "town",
        "wikidata": "Q3361494",
        "wikipedia": "en:Dhading Besi"
      }
    },
    {
      "type": "node",
      "id": 3412229477,
      "lat": 27.6853632,
      "lon": 84.4292564,
      "timestamp": "2016-12-29T06:07:38Z",
      "version": 2,
      "changeset": 44748393,
      "user": "Manoj Thapa",
      "uid": 781054,
      "tags": {
        "name": "Ashok Kirana and Gas Store",
        "shop": "convenience"
      }
    },
    {
      "type": "node",
      "id": 3434412313,
      "lat": 28.2306719,
      "lon": 84.3759524,
      "timestamp": "2015-04-03T14:50:24Z",
      "version": 1,
      "changeset": 29953574,
      "user": "msushil",
      "uid": 1731344,
      "tags": {
        "amenity": "drinking_water",
        "name": "Padhera"
      }
    },
    {
      "type": "node",
      "id": 3451531046,
      "lat": 27.6844626,
      "lon": 84.5025314,
      "timestamp": "2015-04-12T07:16:21Z",
      "version": 1,
      "changeset": 30156892,
      "user": "AnujDhungana",
      "uid": 2807438,
      "tags": {
        "name": "Sujal Store",
        "shop": "convenience"
      }
    },
    {
      "type": "node",
      "id": 3451580820,
      "lat": 27.6844471,
      "lon": 84.5046397,
      "timestamp": "2015-04-23T05:39:20Z",
      "version": 3,
      "changeset": 30420443,
      "user": "MeghaShrestha",
      "uid": 1290299,
      "tags": {
        "name": "RP Traders",
        "opening_hours": "6:00 - 19:00",
        "operator": "Padam Giri",
        "phone": "+977984505456",
        "shop": "supermarket"
      }
    },
    {
      "type": "node",
      "id": 3453337498,
      "lat": 27.6843342,
      "lon": 84.5036323,
      "timestamp": "2015-04-13T12:00:32Z",
      "version": 2,
      "changeset": 30185611,
      "user": "kiran rijal",
      "uid": 2823494,
      "tags": {
        "contact:phone": "9855064982",
        "name": "Sapkota Traders",
        "shop": "convenience",
        "source": "BajrabarahiFieldVisit"
      }
    },
    {
      "type": "node",
      "id": 3453919587,
      "lat": 27.6841054,
      "lon": 84.5096428,
      "timestamp": "2015-04-29T05:10:12Z",
      "version": 2,
      "changeset": 30605329,
      "user": "ruthmaben",
      "uid": 2554698,
      "tags": {
        "contact:phone": "056690591",
        "name": "ramkrishna store",
        "opening_hours": "06:30-20:00",
        "shop": "convenience"
      }
    },
    {
      "type": "node",
      "id": 3455059330,
      "lat": 27.6888285,
      "lon": 84.5128154,
      "timestamp": "2020-07-29T11:24:34Z",
      "version": 3,
      "changeset": 88675514,
      "user": "Sundar1",
      "uid": 9530130,
      "tags": {
        "amenity": "drinking_water",
        "junction": "yes",
        "name": "Baglunge Chok"
      }
    },
    {
      "type": "node",
      "id": 3455075427,
      "lat": 27.688933,
      "lon": 84.4997453,
      "timestamp": "2015-04-14T04:38:45Z",
      "version": 1,
      "changeset": 30203471,
      "user": "Ajay Mahato",
      "uid": 2822981,
      "tags": {
        "name": "Chaudhary kirana and cld store",
        "shop": "convenience"
      }
    },
    {
      "type": "node",
      "id": 3455075428,
      "lat": 27.6889246,
      "lon": 84.4993932,
      "timestamp": "2015-04-14T04:38:45Z",
      "version": 1,
      "changeset": 30203471,
      "user": "Ajay Mahato",
      "uid": 2822981,
      "tags": {
        "name": "Man Kumar cold store",
        "shop": "convenience"
      }
    },
    {
      "type": "node",
      "id": 3455080904,
      "lat": 27.691093,
      "lon": 84.4964852,
      "timestamp": "2015-04-14T04:53:34Z",
      "version": 1,
      "changeset": 30203570,
      "user": "Ajay Mahato",
      "uid": 2822981,
      "tags": {
        "name": "Kirana and cold store",
        "shop": "convenience"
      }
    },
    {
      "type": "node",
      "id": 3455080905,
      "lat": 27.6910305,
      "lon": 84.496734,
      "timestamp": "2015-04-14T04:53:34Z",
      "version": 1,
      "changeset": 30203570,
      "user": "Ajay Mahato",
      "uid": 2822981,
      "tags": {
        "name": "Sushila kirana",
        "shop": "convenience"
      }
    },
    {
      "type": "node",
      "id": 3456943998,
      "lat": 27.6917407,
      "lon": 84.4874086,
      "timestamp": "2015-04-15T08:00:42Z",
      "version": 1,
      "changeset": 30229597,
      "user": "Sandhya Bogati",
      "uid": 2826353,
      "tags": {
        "amenity": "drinking_water"
      }
    },
    {
      "type": "node",
      "id": 3457053966,
      "lat": 27.6926169,
      "lon": 84.4999859,
      "timestamp": "2015-04-15T09:23:26Z",
      "version": 1,
      "changeset": 30231022,
      "user": "MeghaShrestha",
      "uid": 1290299,
      "tags": {
        "amenity": "drinking_water"
      }
    },
    {
      "type": "node",
      "id": 3457367792,
      "lat": 27.6837622,
      "lon": 84.511374,
      "timestamp": "2015-04-29T05:10:12Z",
      "version": 2,
      "changeset": 30605329,
      "user": "ruthmaben",
      "uid": 2554698,
      "tags": {
        "name": "raywati",
        "opening_hours": "06:00-20:00",
        "shop": "convenience"
      }
    },
    {
      "type": "node",
      "id": 3458640354,
      "lat": 27.6879193,
      "lon": 84.488386,
      "timestamp": "2015-04-16T02:39:29Z",
      "version": 1,
      "changeset": 30253672,
      "user": "ckaran191",
      "uid": 2822876,
      "tags": {
        "name": "jalsingh kirina pasai",
        "shop": "convenience"
      }
    },
    {
      "type": "node",
      "id": 3458640392,
      "lat": 27.6876865,
      "lon": 84.4869695,
      "timestamp": "2015-04-16T02:39:29Z",
      "version": 1,
      "changeset": 30253672,
      "user": "ckaran191",
      "uid": 2822876,
      "tags": {
        "name": "sabunam kirana pasal",
        "shop": "convenience"
      }
    },
    {
      "type": "node",
      "id": 3458694131,
      "lat": 27.6929924,
      "lon": 84.4966456,
      "timestamp": "2015-04-16T04:06:05Z",
      "version": 1,
      "changeset": 30254307,
      "user": "ckaran191",
      "uid": 2822876,
      "tags": {
        "name": "sandip kirana pasal",
        "shop": "convenience"
      }
    },
    {
      "type": "node",
      "id": 3458933046,
      "lat": 27.687641,
      "lon": 84.4894939,
      "timestamp": "2015-04-16T08:01:33Z",
      "version": 1,
      "changeset": 30257412,
      "user": "Mahato Bishwanath",
      "uid": 2829683,
      "tags": {
        "name": "Pharnindra Kirana Pasal",
        "shop": "convenience"
      }
    },
    {
      "type": "node",
      "id": 3458933047,
      "lat": 27.6837757,
      "lon": 84.486444,
      "timestamp": "2015-04-16T08:01:33Z",
      "version": 1,
      "changeset": 30257412,
      "user": "Mahato Bishwanath",
      "uid": 2829683,
      "tags": {
        "name": "Rabindra Cold Stores",
        "shop": "convenience"
      }
    },
    {
      "type": "node",
      "id": 3476664322,
      "lat": 28.1794478,
      "lon": 84.9946443,
      "timestamp": "2015-05-02T19:20:52Z",
      "version": 2,
      "changeset": 30729913,
      "user": "Chalishgaon",
      "uid": 2885444,
      "tags": {
        "name": "Khading",
        "place": "village"
      }
    },
    {
      "type": "node",
      "id": 3478149112,
      "lat": 27.992549,
      "lon": 84.9098921,
      "timestamp": "2020-09-02T12:28:34Z",
      "version": 4,
      "changeset": 90304552,
      "user": "Sundar1",
      "uid": 9530130,
      "tags": {
        "name": "Charange Phedi, Katunje-9",
        "place": "hamlet"
      }
    },
    {
      "type": "node",
      "id": 3478161247,
      "lat": 27.8909959,
      "lon": 85.0602277,
      "timestamp": "2017-11-03T06:07:36Z",
      "version": 2,
      "changeset": 53469197,
      "user": "Manoj Thapa",
      "uid": 781054,
      "tags": {
        "name": "Bhanjyangthok",
        "place": "hamlet"
      }
    },
    {
      "type": "node",
      "id": 3478419268,
      "lat": 28.1948733,
      "lon": 84.7273835,
      "timestamp": "2015-04-26T10:02:09Z",
      "version": 2,
      "changeset": 30497306,
      "user": "jgc",
      "uid": 219187,
      "tags": {
        "name": "Mandre",
        "place": "hamlet",
        "source": "GNS; Bing"
      }
    },
    {
      "type": "node",
      "id": 3479599375,
      "lat": 28.2063592,
      "lon": 84.7331954,
      "timestamp": "2021-04-30T08:35:04Z",
      "version": 2,
      "changeset": 103895784,
      "user": "piaco_dk",
      "uid": 3442203,
      "tags": {
        "name": "Thailidada",
        "place": "hamlet",
        "source": "Bing"
      }
    },
    {
      "type": "node",
      "id": 3479656920,
      "lat": 28.1085112,
      "lon": 84.9946631,
      "timestamp": "2015-05-03T21:45:32Z",
      "version": 3,
      "changeset": 30757306,
      "user": "Chalishgaon",
      "uid": 2885444,
      "tags": {
        "name": "Tajimarang",
        "place": "village"
      }
    },
    {
      "type": "node",
      "id": 3480023278,
      "lat": 28.2118996,
      "lon": 84.8601824,
      "timestamp": "2015-04-26T22:10:37Z",
      "version": 1,
      "changeset": 30519771,
      "user": "fmoine",
      "uid": 524831,
      "tags": {
        "gns:ufi": "-1022216",
        "name": "Labsibot",
        "place": "village",
        "source": "GNS"
      }
    },
    {
      "type": "node",
      "id": 3480033793,
      "lat": 28.1650758,
      "lon": 84.9037916,
      "timestamp": "2015-04-26T22:15:30Z",
      "version": 1,
      "changeset": 30519871,
      "user": "fmoine",
      "uid": 524831,
      "tags": {
        "gns:ufi": "-1021909",
        "name": "Dharot",
        "place": "hamlet",
        "source": "GNS"
      }
    },
    {
      "type": "node",
      "id": 3480044145,
      "lat": 28.0880057,
      "lon": 84.8436979,
      "timestamp": "2021-01-26T11:09:32Z",
      "version": 6,
      "changeset": 98162748,
      "user": "Sundar1",
      "uid": 9530130,
      "tags": {
        "gns:ufi": "-1021796",
        "name": "Budhathum",
        "place": "village",
        "source": "GNS",
        "wikidata": "Q3412593",
        "wikipedia": "en:Budhathum"
      }
    },
    {
      "type": "node",
      "id": 3480057167,
      "lat": 28.036492,
      "lon": 85.007824,
      "timestamp": "2015-04-26T22:27:29Z",
      "version": 1,
      "changeset": 30520139,
      "user": "fmoine",
      "uid": 524831,
      "tags": {
        "gns:ufi": "-1022007",
        "name": "Gumbung",
        "place": "hamlet",
        "source": "GNS"
      }
    },
    {
      "type": "node",
      "id": 3480067893,
      "lat": 27.8624333,
      "lon": 84.9238474,
      "timestamp": "2021-02-19T06:26:06Z",
      "version": 4,
      "changeset": 99567575,
      "user": "Anil Basnet",
      "uid": 3686666,
      "tags": {
        "alt_name": "Mathlo Dhāding",
        "gns:ufi": "-1021897",
        "name": "Sunaula Bazzar",
        "place": "hamlet",
        "source": "GNS"
      }
    },
    {
      "type": "node",
      "id": 3480072545,
      "lat": 27.7278387,
      "lon": 84.78496,
      "timestamp": "2015-05-08T22:11:37Z",
      "version": 2,
      "changeset": 30922024,
      "user": "rab",
      "uid": 36894,
      "tags": {
        "gns:ufi": "-1022119",
        "name": "Kāndrāng Garhi",
        "place": "hamlet",
        "source": "GNS"
      }
    },
    {
      "type": "node",
      "id": 3480075072,
      "lat": 27.7038241,
      "lon": 84.4161619,
      "timestamp": "2019-03-25T13:00:07Z",
      "version": 3,
      "changeset": 68505682,
      "user": "Sundar1",
      "uid": 9530130,
      "tags": {
        "gns:ufi": "-1022332",
        "name": "Gaindakot",
        "place": "town",
        "source": "GNS"
      }
    },
    {
      "type": "node",
      "id": 3480119120,
      "lat": 27.886465,
      "lon": 84.687927,
      "timestamp": "2017-02-09T14:17:57Z",
      "version": 3,
      "changeset": 45947878,
      "user": "iWowik",
      "uid": 481934,
      "tags": {
        "gns:ufi": "-1022293",
        "name": "Makaising",
        "place": "hamlet",
        "source": "GNS",
        "wikidata": "Q3419835",
        "wikipedia": "en:Makaising"
      }
    },
    {
      "type": "node",
      "id": 3480237050,
      "lat": 28.1136088,
      "lon": 85.0011168,
      "timestamp": "2015-07-22T07:20:28Z",
      "version": 5,
      "changeset": 32794634,
      "user": "Richard Bull",
      "uid": 1080183,
      "tags": {
        "name": "Richet",
        "place": "village",
        "source": "Field data"
      }
    },
    {
      "type": "node",
      "id": 3480237062,
      "lat": 28.140368,
      "lon": 85.0020763,
      "timestamp": "2015-11-28T02:40:24Z",
      "version": 5,
      "changeset": 35621617,
      "user": "Ian Kurashige",
      "uid": 3397501,
      "tags": {
        "name": "Kachet",
        "place": "hamlet"
      }
    },
    {
      "type": "node",
      "id": 3480238363,
      "lat": 28.1031175,
      "lon": 84.5506495,
      "timestamp": "2015-04-26T23:45:39Z",
      "version": 1,
      "changeset": 30521313,
      "user": "fmoine",
      "uid": 524831,
      "tags": {
        "gns:ufi": "-1022356",
        "name": "Munge",
        "place": "hamlet",
        "source": "GNS"
      }
    },
    {
      "type": "node",
      "id": 3480240161,
      "lat": 28.1199339,
      "lon": 84.7114494,
      "timestamp": "2015-04-26T23:47:26Z",
      "version": 1,
      "changeset": 30521340,
      "user": "fmoine",
      "uid": 524831,
      "tags": {
        "gns:ufi": "-1022074",
        "name": "Jiwādanda",
        "place": "hamlet",
        "source": "GNS"
      }
    },
    {
      "type": "node",
      "id": 3480248471,
      "lat": 28.1122662,
      "lon": 85.0239248,
      "timestamp": "2015-11-28T02:40:23Z",
      "version": 4,
      "changeset": 35621617,
      "user": "Ian Kurashige",
      "uid": 3397501,
      "tags": {
        "name": "Tingchet",
        "place": "village"
      }
    },
    {
      "type": "node",
      "id": 3480407901,
      "lat": 27.7516794,
      "lon": 84.7807212,
      "timestamp": "2015-04-27T02:49:27Z",
      "version": 1,
      "changeset": 30523545,
      "user": "SK53",
      "uid": 84681,
      "tags": {
        "name": "Rotesh",
        "place": "hamlet",
        "source": "USGS Military Map 1960"
      }
    },
    {
      "type": "node",
      "id": 3480407902,
      "lat": 27.7267227,
      "lon": 84.7981629,
      "timestamp": "2015-04-27T02:49:27Z",
      "version": 1,
      "changeset": 30523545,
      "user": "SK53",
      "uid": 84681,
      "tags": {
        "name": "Simthali",
        "place": "hamlet",
        "source": "USGS Military Map 1960"
      }
    },
    {
      "type": "node",
      "id": 3481214428,
      "lat": 27.9046635,
      "lon": 84.564211,
      "timestamp": "2015-04-29T07:37:41Z",
      "version": 2,
      "changeset": 30608985,
      "user": "PlaneMad",
      "uid": 1306,
      "tags": {
        "name": "Dandagaun",
        "place": "village"
      }
    },
    {
      "type": "node",
      "id": 3484091909,
      "lat": 27.981268,
      "lon": 84.750023,
      "timestamp": "2017-10-03T12:57:32Z",
      "version": 7,
      "changeset": 52595518,
      "user": "mueschel",
      "uid": 616774,
      "tags": {
        "admin_level": "8",
        "admin_unit": "Village development committee",
        "fixme": "true",
        "is_in:country": "Nepal",
        "is_in:country_code": "NP",
        "is_in:district": "गोरखा",
        "mapping_project": "quakemaps",
        "name": "Borlang",
        "note": "these locations and village names might not be 100% accurate",
        "place": "village",
        "wikidata": "Q3411322",
        "wikipedia": "en:Borlang"
      }
    },
    {
      "type": "node",
      "id": 3484103336,
      "lat": 27.8881577,
      "lon": 84.5690916,
      "timestamp": "2017-10-03T12:57:32Z",
      "version": 7,
      "changeset": 52595518,
      "user": "mueschel",
      "uid": 616774,
      "tags": {
        "admin_level": "8",
        "admin_unit": "Village development committee",
        "fixme": "true",
        "is_in:country": "Nepal",
        "is_in:country_code": "NP",
        "is_in:district": "गोरखा",
        "mapping_project": "quakemaps",
        "name": "Kotgau",
        "note": "these locations and village names might not be 100% accurate",
        "place": "village"
      }
    },
    {
      "type": "node",
      "id": 3484118699,
      "lat": 27.9915006,
      "lon": 84.5362188,
      "timestamp": "2017-10-03T12:57:33Z",
      "version": 4,
      "changeset": 52595518,
      "user": "mueschel",
      "uid": 616774,
      "tags": {
        "admin_level": "8",
        "admin_unit": "Village development committee",
        "fixme": "true",
        "is_in:country": "Nepal",
        "is_in:country_code": "NP",
        "is_in:district": "गोरखा",
        "mapping_project": "quakemaps",
        "name": "Bhirkot",
        "note": "these locations and village names might not be 100% accurate",
        "place": "village"
      }
    },
    {
      "type": "node",
      "id": 3484122505,
      "lat": 28.0066533,
      "lon": 84.6555239,
      "timestamp": "2021-06-25T01:30:17Z",
      "version": 9,
      "changeset": 106928083,
      "user": "Supath Dhital",
      "uid": 10572167,
      "tags": {
        "admin_level": "8",
        "admin_unit": "Village development committee",
        "fixme": "true",
        "is_in:country": "Nepal",
        "is_in:country_code": "NP",
        "is_in:district": "गोरखा",
        "mapping_project": "quakemaps",
        "name": "Finam",
        "name:ne": "फिनाम",
        "note": "these locations and village names might not be 100% accurate",
        "place": "hamlet",
        "wikidata": "Q3411267",
        "wikipedia": "en:Phinam"
      }
    },
    {
      "type": "node",
      "id": 3484127180,
      "lat": 28.129965,
      "lon": 84.476326,
      "timestamp": "2017-10-03T12:57:35Z",
      "version": 6,
      "changeset": 52595518,
      "user": "mueschel",
      "uid": 616774,
      "tags": {
        "admin_level": "8",
        "admin_unit": "Village development committee",
        "fixme": "true",
        "is_in:country": "Nepal",
        "is_in:country_code": "NP",
        "is_in:district": "लमजुङ",
        "mapping_project": "quakemaps",
        "name": "Mohoriyakot",
        "note": "these locations and village names might not be 100% accurate",
        "place": "village",
        "wikidata": "Q3422103",
        "wikipedia": "en:Mohoriyakot"
      }
    },
    {
      "type": "node",
      "id": 3486490932,
      "lat": 27.9488811,
      "lon": 85.046933,
      "timestamp": "2015-04-29T12:26:57Z",
      "version": 1,
      "changeset": 30617749,
      "user": "fmoine",
      "uid": 524831,
      "tags": {
        "name": "Samari",
        "place": "hamlet"
      }
    },
    {
      "type": "node",
      "id": 3488620377,
      "lat": 27.9131181,
      "lon": 84.9949665,
      "timestamp": "2020-09-02T12:28:34Z",
      "version": 3,
      "changeset": 90304552,
      "user": "Sundar1",
      "uid": 9530130,
      "tags": {
        "name": "Kaulebhanjyang",
        "place": "hamlet"
      }
    },
    {
      "type": "node",
      "id": 3489895368,
      "lat": 27.969103,
      "lon": 84.685211,
      "timestamp": "2017-02-09T14:18:01Z",
      "version": 3,
      "changeset": 45947878,
      "user": "iWowik",
      "uid": 481934,
      "tags": {
        "name": "Bunkot",
        "place": "hamlet",
        "source": "Geonames",
        "wikidata": "Q3414319",
        "wikipedia": "en:Bunkot"
      }
    },
    {
      "type": "node",
      "id": 3490845652,
      "lat": 28.107046,
      "lon": 84.855034,
      "timestamp": "2017-02-09T14:18:01Z",
      "version": 5,
      "changeset": 45947878,
      "user": "iWowik",
      "uid": 481934,
      "tags": {
        "name": "Baseri",
        "place": "village",
        "wikidata": "Q4866726",
        "wikipedia": "en:Baseri"
      }
    },
    {
      "type": "node",
      "id": 3493678200,
      "lat": 28.1879124,
      "lon": 85.0076394,
      "timestamp": "2015-05-02T19:20:52Z",
      "version": 1,
      "changeset": 30729913,
      "user": "Chalishgaon",
      "uid": 2885444,
      "tags": {
        "name": "Kupchet",
        "place": "hamlet"
      }
    },
    {
      "type": "node",
      "id": 3493678202,
      "lat": 28.1671897,
      "lon": 85.0153087,
      "timestamp": "2017-07-02T09:24:37Z",
      "version": 2,
      "changeset": 49980322,
      "user": "ptityeti",
      "uid": 57872,
      "tags": {
        "name": "Lapagaon",
        "place": "village"
      }
    },
    {
      "type": "node",
      "id": 3494909937,
      "lat": 28.0859447,
      "lon": 84.9007499,
      "timestamp": "2015-05-03T12:11:31Z",
      "version": 1,
      "changeset": 30746127,
      "user": "Manoj Thapa",
      "uid": 781054,
      "tags": {
        "name": "Dangsing",
        "place": "hamlet"
      }
    },
    {
      "type": "node",
      "id": 3494909938,
      "lat": 28.0903937,
      "lon": 84.8797982,
      "timestamp": "2015-05-03T12:11:31Z",
      "version": 1,
      "changeset": 30746127,
      "user": "Manoj Thapa",
      "uid": 781054,
      "tags": {
        "name": "Majhuwa",
        "place": "hamlet"
      }
    },
    {
      "type": "node",
      "id": 3494909939,
      "lat": 28.094705,
      "lon": 84.860718,
      "timestamp": "2015-05-03T12:11:31Z",
      "version": 1,
      "changeset": 30746127,
      "user": "Manoj Thapa",
      "uid": 781054,
      "tags": {
        "name": "Mangsire",
        "place": "hamlet"
      }
    },
    {
      "type": "node",
      "id": 3495043003,
      "lat": 28.078231,
      "lon": 84.8505124,
      "timestamp": "2015-05-03T13:20:17Z",
      "version": 1,
      "changeset": 30747758,
      "user": "Manoj Thapa",
      "uid": 781054,
      "tags": {
        "name": "Amithi",
        "place": "hamlet"
      }
    },
    {
      "type": "node",
      "id": 3495043004,
      "lat": 28.0526931,
      "lon": 84.8851421,
      "timestamp": "2015-05-03T13:20:17Z",
      "version": 1,
      "changeset": 30747758,
      "user": "Manoj Thapa",
      "uid": 781054,
      "tags": {
        "name": "Odar gau",
        "place": "hamlet"
      }
    },
    {
      "type": "node",
      "id": 3495842560,
      "lat": 27.9365462,
      "lon": 84.7027116,
      "timestamp": "2015-05-03T21:12:14Z",
      "version": 1,
      "changeset": 30760373,
      "user": "RikC",
      "uid": 2878308,
      "tags": {
        "tourism": "camp_site"
      }
    },
    {
      "type": "node",
      "id": 3495884419,
      "lat": 28.1327011,
      "lon": 85.0159875,
      "timestamp": "2015-11-28T02:40:24Z",
      "version": 3,
      "changeset": 35621617,
      "user": "Ian Kurashige",
      "uid": 3397501,
      "tags": {
        "name": "Tenchet",
        "place": "village"
      }
    },
    {
      "type": "node",
      "id": 3495884422,
      "lat": 28.1197573,
      "lon": 84.9818269,
      "timestamp": "2015-11-28T02:40:24Z",
      "version": 3,
      "changeset": 35621617,
      "user": "Ian Kurashige",
      "uid": 3397501,
      "tags": {
        "name": "Kichet",
        "place": "village"
      }
    },
    {
      "type": "node",
      "id": 3495884423,
      "lat": 28.1399757,
      "lon": 85.0329472,
      "timestamp": "2015-11-28T02:40:24Z",
      "version": 3,
      "changeset": 35621617,
      "user": "Ian Kurashige",
      "uid": 3397501,
      "tags": {
        "name": "Syupchet",
        "place": "village"
      }
    },
    {
      "type": "node",
      "id": 3498807855,
      "lat": 28.1818225,
      "lon": 84.5930659,
      "timestamp": "2015-05-05T10:12:34Z",
      "version": 1,
      "changeset": 30804807,
      "user": "Natuser",
      "uid": 1319999,
      "tags": {
        "name": "Ilam Pokhari",
        "place": "hamlet"
      }
    },
    {
      "type": "node",
      "id": 3503204992,
      "lat": 28.1670039,
      "lon": 84.7052305,
      "timestamp": "2021-04-30T16:33:31Z",
      "version": 3,
      "changeset": 103925090,
      "user": "piaco_dk",
      "uid": 3442203,
      "tags": {
        "ele": "780",
        "name": "Baluwa",
        "place": "village"
      }
    },
    {
      "type": "node",
      "id": 3508350305,
      "lat": 28.0614977,
      "lon": 84.7759383,
      "timestamp": "2015-05-10T11:01:32Z",
      "version": 1,
      "changeset": 30960668,
      "user": "jgc",
      "uid": 219187,
      "tags": {
        "name": "Arupokhari",
        "place": "village",
        "source": "https://twitter.com/subhash580/status/597331464586334209"
      }
    },
    {
      "type": "node",
      "id": 3528097218,
      "lat": 28.0187182,
      "lon": 84.5513906,
      "timestamp": "2016-08-24T04:44:27Z",
      "version": 2,
      "changeset": 41652882,
      "user": "Parassrest",
      "uid": 3569249,
      "tags": {
        "name": "kharpani",
        "name:ne": "खरपानी",
        "place": "village"
      }
    },
    {
      "type": "node",
      "id": 3528102281,
      "lat": 28.0195108,
      "lon": 84.5406223,
      "timestamp": "2016-08-24T04:44:27Z",
      "version": 2,
      "changeset": 41652882,
      "user": "Parassrest",
      "uid": 3569249,
      "tags": {
        "name": "pauroti bhandar",
        "name:ne": "पाउरोटी भण्डार",
        "place": "village"
      }
    },
    {
      "type": "node",
      "id": 3528110414,
      "lat": 27.9952599,
      "lon": 84.5684588,
      "timestamp": "2018-03-16T08:44:03Z",
      "version": 3,
      "changeset": 57234523,
      "user": "Ram Rohan Panta",
      "uid": 2343621,
      "tags": {
        "name": "Chhebetar",
        "name:ne": "छेबेटार",
        "place": "village"
      }
    },
    {
      "type": "node",
      "id": 3539946119,
      "lat": 28.0244904,
      "lon": 84.5163746,
      "timestamp": "2015-05-23T21:02:01Z",
      "version": 1,
      "changeset": 31407166,
      "user": "Natuser",
      "uid": 1319999,
      "tags": {
        "name": "Luitel Bhaniyan",
        "place": "hamlet"
      }
    },
    {
      "type": "node",
      "id": 3566880074,
      "lat": 28.1999039,
      "lon": 84.823658,
      "timestamp": "2015-06-02T19:24:10Z",
      "version": 1,
      "changeset": 31674528,
      "user": "charlesfleche",
      "uid": 383081,
      "tags": {
        "name": "Gumda",
        "place": "village"
      }
    },
    {
      "type": "node",
      "id": 3566885018,
      "lat": 28.2053897,
      "lon": 84.84964,
      "timestamp": "2015-06-02T19:25:50Z",
      "version": 1,
      "changeset": 31674592,
      "user": "charlesfleche",
      "uid": 383081,
      "tags": {
        "name": "Yamgaun",
        "place": "village"
      }
    },
    {
      "type": "node",
      "id": 3571699497,
      "lat": 28.0779409,
      "lon": 84.9111093,
      "timestamp": "2020-09-02T12:28:34Z",
      "version": 2,
      "changeset": 90304552,
      "user": "Sundar1",
      "uid": 9530130,
      "tags": {
        "name": "Dhadkharka",
        "place": "hamlet"
      }
    },
    {
      "type": "node",
      "id": 3616594293,
      "lat": 28.069623,
      "lon": 84.9092526,
      "timestamp": "2020-09-02T12:28:34Z",
      "version": 2,
      "changeset": 90304552,
      "user": "Sundar1",
      "uid": 9530130,
      "tags": {
        "name": "Adhikari Tol",
        "place": "hamlet"
      }
    },
    {
      "type": "node",
      "id": 3616594294,
      "lat": 28.0798459,
      "lon": 84.9093189,
      "timestamp": "2020-09-02T12:28:34Z",
      "version": 2,
      "changeset": 90304552,
      "user": "Sundar1",
      "uid": 9530130,
      "tags": {
        "name": "Bagali Tole",
        "place": "hamlet"
      }
    },
    {
      "type": "node",
      "id": 3616594295,
      "lat": 28.0855323,
      "lon": 84.8982058,
      "timestamp": "2015-06-25T03:42:26Z",
      "version": 1,
      "changeset": 32196375,
      "user": "GautamPratik",
      "uid": 1700096,
      "tags": {
        "name": "Bharkeli",
        "place": "village"
      }
    },
    {
      "type": "node",
      "id": 3616594296,
      "lat": 28.0697368,
      "lon": 84.9059657,
      "timestamp": "2020-09-02T12:28:34Z",
      "version": 2,
      "changeset": 90304552,
      "user": "Sundar1",
      "uid": 9530130,
      "tags": {
        "name": "Budhathoki Tol",
        "place": "hamlet"
      }
    },
    {
      "type": "node",
      "id": 3616594297,
      "lat": 28.0743305,
      "lon": 84.918075,
      "timestamp": "2020-09-02T12:28:34Z",
      "version": 2,
      "changeset": 90304552,
      "user": "Sundar1",
      "uid": 9530130,
      "tags": {
        "name": "Kuwapani",
        "place": "hamlet"
      }
    },
    {
      "type": "node",
      "id": 3616594298,
      "lat": 28.0716629,
      "lon": 84.9230476,
      "timestamp": "2020-09-02T12:28:34Z",
      "version": 2,
      "changeset": 90304552,
      "user": "Sundar1",
      "uid": 9530130,
      "tags": {
        "name": "Sandan",
        "place": "hamlet"
      }
    },
    {
      "type": "node",
      "id": 3616594299,
      "lat": 28.0765488,
      "lon": 84.8972358,
      "timestamp": "2020-09-02T12:28:34Z",
      "version": 2,
      "changeset": 90304552,
      "user": "Sundar1",
      "uid": 9530130,
      "tags": {
        "name": "Tallo Majuwa",
        "place": "hamlet"
      }
    },
    {
      "type": "node",
      "id": 3616594300,
      "lat": 28.0819252,
      "lon": 84.9069752,
      "timestamp": "2020-09-02T12:28:34Z",
      "version": 2,
      "changeset": 90304552,
      "user": "Sundar1",
      "uid": 9530130,
      "tags": {
        "name": "Thula Gau",
        "place": "hamlet"
      }
    },
    {
      "type": "node",
      "id": 3616597852,
      "lat": 28.0469279,
      "lon": 84.913915,
      "timestamp": "2020-12-08T12:31:21Z",
      "version": 3,
      "changeset": 95487439,
      "user": "Sundar1",
      "uid": 9530130,
      "tags": {
        "name": "Basnet Tol",
        "place": "hamlet"
      }
    },
    {
      "type": "node",
      "id": 3616597853,
      "lat": 28.0598572,
      "lon": 84.9053406,
      "timestamp": "2020-09-02T12:28:34Z",
      "version": 2,
      "changeset": 90304552,
      "user": "Sundar1",
      "uid": 9530130,
      "tags": {
        "name": "Bhir Kuna",
        "place": "hamlet"
      }
    },
    {
      "type": "node",
      "id": 3616597854,
      "lat": 28.0720326,
      "lon": 84.9062065,
      "timestamp": "2020-09-02T12:28:34Z",
      "version": 2,
      "changeset": 90304552,
      "user": "Sundar1",
      "uid": 9530130,
      "tags": {
        "name": "Deurali",
        "place": "hamlet"
      }
    },
    {
      "type": "node",
      "id": 3616597855,
      "lat": 28.0490767,
      "lon": 84.9124307,
      "timestamp": "2020-09-02T12:28:34Z",
      "version": 2,
      "changeset": 90304552,
      "user": "Sundar1",
      "uid": 9530130,
      "tags": {
        "name": "Kattike",
        "place": "hamlet"
      }
    },
    {
      "type": "node",
      "id": 3616597856,
      "lat": 28.0389915,
      "lon": 84.9050419,
      "timestamp": "2020-12-08T12:31:21Z",
      "version": 3,
      "changeset": 95487439,
      "user": "Sundar1",
      "uid": 9530130,
      "tags": {
        "name": "Maha Bhir",
        "place": "hamlet"
      }
    },
    {
      "type": "node",
      "id": 3616597857,
      "lat": 28.0649564,
      "lon": 84.912639,
      "timestamp": "2020-09-02T12:28:34Z",
      "version": 2,
      "changeset": 90304552,
      "user": "Sundar1",
      "uid": 9530130,
      "tags": {
        "name": "Major Tol",
        "place": "hamlet"
      }
    },
    {
      "type": "node",
      "id": 3616597858,
      "lat": 28.052984,
      "lon": 84.8981367,
      "timestamp": "2015-06-25T03:50:05Z",
      "version": 1,
      "changeset": 32196426,
      "user": "GautamPratik",
      "uid": 1700096,
      "tags": {
        "name": "Mathlo Kalleri",
        "place": "village"
      }
    },
    {
      "type": "node",
      "id": 3616597859,
      "lat": 28.0657492,
      "lon": 84.9152822,
      "timestamp": "2020-09-02T12:28:34Z",
      "version": 2,
      "changeset": 90304552,
      "user": "Sundar1",
      "uid": 9530130,
      "tags": {
        "name": "Sarki Tol",
        "place": "hamlet"
      }
    },
    {
      "type": "node",
      "id": 3616597860,
      "lat": 28.0611461,
      "lon": 84.8993933,
      "timestamp": "2020-09-02T12:28:34Z",
      "version": 2,
      "changeset": 90304552,
      "user": "Sundar1",
      "uid": 9530130,
      "tags": {
        "name": "Suka Bhanjyang",
        "place": "hamlet"
      }
    },
    {
      "type": "node",
      "id": 3616597861,
      "lat": 28.04793,
      "lon": 84.9043606,
      "timestamp": "2020-09-02T12:28:34Z",
      "version": 2,
      "changeset": 90304552,
      "user": "Sundar1",
      "uid": 9530130,
      "tags": {
        "name": "Tallo Kalleri",
        "place": "hamlet"
      }
    },
    {
      "type": "node",
      "id": 3616597862,
      "lat": 28.0648099,
      "lon": 84.905003,
      "timestamp": "2020-09-02T12:28:34Z",
      "version": 2,
      "changeset": 90304552,
      "user": "Sundar1",
      "uid": 9530130,
      "tags": {
        "name": "Thade Tol",
        "place": "hamlet"
      }
    },
    {
      "type": "node",
      "id": 3616597863,
      "lat": 28.0647185,
      "lon": 84.9197414,
      "timestamp": "2020-09-02T12:28:34Z",
      "version": 2,
      "changeset": 90304552,
      "user": "Sundar1",
      "uid": 9530130,
      "tags": {
        "name": "Tinkhande",
        "place": "hamlet"
      }
    },
    {
      "type": "node",
      "id": 3691036082,
      "lat": 28.1792561,
      "lon": 85.0690275,
      "timestamp": "2021-04-28T21:13:58Z",
      "version": 2,
      "changeset": 103801804,
      "user": "seichter",
      "uid": 66497,
      "tags": {
        "name": "Gobre gaun",
        "place": "hamlet"
      }
    },
    {
      "type": "node",
      "id": 3691036083,
      "lat": 28.1706683,
      "lon": 85.0692434,
      "timestamp": "2017-06-22T10:16:31Z",
      "version": 2,
      "changeset": 49742532,
      "user": "Bishal9841",
      "uid": 3573216,
      "tags": {
        "name": "Awoi Gaun",
        "place": "village"
      }
    },
    {
      "type": "node",
      "id": 3691036084,
      "lat": 28.1692893,
      "lon": 85.0613069,
      "timestamp": "2015-08-11T09:37:15Z",
      "version": 1,
      "changeset": 33261461,
      "user": "Pujan Poudyal",
      "uid": 2516487,
      "tags": {
        "name": "Isim Gaon",
        "place": "village"
      }
    },
    {
      "type": "node",
      "id": 3691036085,
      "lat": 28.166719,
      "lon": 85.0626664,
      "timestamp": "2015-08-11T09:37:15Z",
      "version": 1,
      "changeset": 33261461,
      "user": "Pujan Poudyal",
      "uid": 2516487,
      "tags": {
        "name": "Khyadar",
        "place": "village"
      }
    },
    {
      "type": "node",
      "id": 3691036086,
      "lat": 28.1556772,
      "lon": 85.05137,
      "timestamp": "2015-08-11T09:37:15Z",
      "version": 1,
      "changeset": 33261461,
      "user": "Pujan Poudyal",
      "uid": 2516487,
      "tags": {
        "name": "Ramden (Ukhum)",
        "place": "village"
      }
    },
    {
      "type": "node",
      "id": 3691065948,
      "lat": 28.2019532,
      "lon": 85.0695046,
      "timestamp": "2015-08-11T10:01:05Z",
      "version": 1,
      "changeset": 33261909,
      "user": "Pujan Poudyal",
      "uid": 2516487,
      "tags": {
        "name": "Tatopani (Hot Spring)",
        "natural": "spring"
      }
    },
    {
      "type": "node",
      "id": 3726314411,
      "lat": 27.9320616,
      "lon": 84.8964706,
      "timestamp": "2017-08-29T09:50:40Z",
      "version": 2,
      "changeset": 51534497,
      "user": "Manoj Thapa",
      "uid": 781054,
      "tags": {
        "name": "Aal Dada",
        "place": "village"
      }
    },
    {
      "type": "node",
      "id": 3726315643,
      "lat": 27.9172341,
      "lon": 84.8860414,
      "timestamp": "2017-08-22T09:11:41Z",
      "version": 3,
      "changeset": 51331974,
      "user": "Manoj Thapa",
      "uid": 781054,
      "tags": {
        "name": "Sankos Gau",
        "place": "village"
      }
    },
    {
      "type": "node",
      "id": 3726315645,
      "lat": 27.9271055,
      "lon": 84.8934317,
      "timestamp": "2017-08-29T09:50:40Z",
      "version": 2,
      "changeset": 51534497,
      "user": "Manoj Thapa",
      "uid": 781054,
      "tags": {
        "name": "Vhaduwar Gau",
        "place": "village"
      }
    },
    {
      "type": "node",
      "id": 3726315646,
      "lat": 27.9357005,
      "lon": 84.9034571,
      "timestamp": "2017-08-29T07:12:37Z",
      "version": 4,
      "changeset": 51529660,
      "user": "Manoj Thapa",
      "uid": 781054,
      "tags": {
        "name": "Pachagare",
        "place": "village"
      }
    },
    {
      "type": "node",
      "id": 3726315834,
      "lat": 27.9462738,
      "lon": 84.9069796,
      "timestamp": "2017-11-07T05:24:47Z",
      "version": 3,
      "changeset": 53571864,
      "user": "Manoj Thapa",
      "uid": 781054,
      "tags": {
        "name": "Syauli Dada",
        "place": "village"
      }
    },
    {
      "type": "node",
      "id": 3726315835,
      "lat": 27.9621096,
      "lon": 84.9141777,
      "timestamp": "2017-11-07T05:27:18Z",
      "version": 2,
      "changeset": 53571895,
      "user": "Manoj Thapa",
      "uid": 781054,
      "tags": {
        "name": "Jumre Dada",
        "place": "village"
      }
    },
    {
      "type": "node",
      "id": 3726315836,
      "lat": 27.9668477,
      "lon": 84.9153566,
      "timestamp": "2017-11-07T05:30:24Z",
      "version": 2,
      "changeset": 53571931,
      "user": "Manoj Thapa",
      "uid": 781054,
      "tags": {
        "name": "Kerung Gau",
        "place": "village"
      }
    },
    {
      "type": "node",
      "id": 3728573211,
      "lat": 27.9076251,
      "lon": 84.9088575,
      "timestamp": "2017-10-27T11:07:59Z",
      "version": 5,
      "changeset": 53287051,
      "user": "Jeewan ad",
      "uid": 6613875,
      "tags": {
        "name": "Izara Gau",
        "place": "village"
      }
    },
    {
      "type": "node",
      "id": 3728573212,
      "lat": 27.9144104,
      "lon": 84.9236143,
      "timestamp": "2017-10-30T09:16:02Z",
      "version": 2,
      "changeset": 53361756,
      "user": "Manoj Thapa",
      "uid": 781054,
      "tags": {
        "name": "Paandhare",
        "place": "village"
      }
    },
    {
      "type": "node",
      "id": 3728573213,
      "lat": 27.9178088,
      "lon": 84.9325901,
      "timestamp": "2017-09-04T06:02:14Z",
      "version": 2,
      "changeset": 51707992,
      "user": "Manoj Thapa",
      "uid": 781054,
      "tags": {
        "name": "Shoraghara",
        "name:ne": "सोरघर",
        "place": "village"
      }
    },
    {
      "type": "node",
      "id": 3728573273,
      "lat": 27.9115586,
      "lon": 84.9156681,
      "timestamp": "2017-10-30T09:16:02Z",
      "version": 2,
      "changeset": 53361756,
      "user": "Manoj Thapa",
      "uid": 781054,
      "tags": {
        "name": "Rijal Gau",
        "place": "village"
      }
    },
    {
      "type": "node",
      "id": 3743636790,
      "lat": 27.9102664,
      "lon": 84.92315,
      "timestamp": "2017-10-30T09:16:02Z",
      "version": 2,
      "changeset": 53361756,
      "user": "Manoj Thapa",
      "uid": 781054,
      "tags": {
        "name": "Bhandari Gau",
        "place": "village"
      }
    },
    {
      "type": "node",
      "id": 3743636791,
      "lat": 27.9111306,
      "lon": 84.931161,
      "timestamp": "2017-08-22T08:53:16Z",
      "version": 2,
      "changeset": 51331198,
      "user": "Manoj Thapa",
      "uid": 781054,
      "tags": {
        "name": "Dodheli",
        "place": "village"
      }
    },
    {
      "type": "node",
      "id": 3779153246,
      "lat": 27.9843894,
      "lon": 84.5721412,
      "timestamp": "2018-03-03T16:58:28Z",
      "version": 3,
      "changeset": 56851885,
      "user": "Ram Rohan Panta",
      "uid": 2343621,
      "tags": {
        "name": "Chhebetar",
        "name:ne": "छेबेटार",
        "place": "village"
      }
    },
    {
      "type": "node",
      "id": 3864229121,
      "lat": 28.1177856,
      "lon": 85.018657,
      "timestamp": "2015-11-28T02:40:23Z",
      "version": 2,
      "changeset": 35621617,
      "user": "Ian Kurashige",
      "uid": 3397501,
      "tags": {
        "name": "Kokhim",
        "place": "village"
      }
    },
    {
      "type": "node",
      "id": 3864255170,
      "lat": 28.124251,
      "lon": 85.0319725,
      "timestamp": "2015-11-28T02:40:22Z",
      "version": 1,
      "changeset": 35621617,
      "user": "Ian Kurashige",
      "uid": 3397501,
      "tags": {
        "name": "Chyamthali",
        "place": "village"
      }
    },
    {
      "type": "node",
      "id": 3864255171,
      "lat": 28.119931,
      "lon": 85.0343508,
      "timestamp": "2015-11-28T02:40:23Z",
      "version": 1,
      "changeset": 35621617,
      "user": "Ian Kurashige",
      "uid": 3397501,
      "tags": {
        "name": "Lakcho",
        "place": "village"
      }
    },
    {
      "type": "node",
      "id": 3864255172,
      "lat": 28.1248503,
      "lon": 85.03915,
      "timestamp": "2015-11-28T02:40:23Z",
      "version": 1,
      "changeset": 35621617,
      "user": "Ian Kurashige",
      "uid": 3397501,
      "tags": {
        "name": "Chhapchet",
        "place": "village"
      }
    },
    {
      "type": "node",
      "id": 3864255173,
      "lat": 28.1229276,
      "lon": 85.0377202,
      "timestamp": "2015-11-28T02:40:23Z",
      "version": 1,
      "changeset": 35621617,
      "user": "Ian Kurashige",
      "uid": 3397501,
      "tags": {
        "name": "Yamchet",
        "place": "village"
      }
    },
    {
      "type": "node",
      "id": 3864255174,
      "lat": 28.1084029,
      "lon": 85.0231662,
      "timestamp": "2015-11-28T02:40:23Z",
      "version": 1,
      "changeset": 35621617,
      "user": "Ian Kurashige",
      "uid": 3397501,
      "tags": {
        "name": "Paticho",
        "place": "village"
      }
    },
    {
      "type": "node",
      "id": 3864255175,
      "lat": 28.1146552,
      "lon": 85.0129783,
      "timestamp": "2015-11-28T02:40:23Z",
      "version": 1,
      "changeset": 35621617,
      "user": "Ian Kurashige",
      "uid": 3397501,
      "tags": {
        "name": "Kalamrang",
        "place": "village"
      }
    },
    {
      "type": "node",
      "id": 3864255176,
      "lat": 28.1289883,
      "lon": 85.0017143,
      "timestamp": "2015-11-28T02:40:23Z",
      "version": 1,
      "changeset": 35621617,
      "user": "Ian Kurashige",
      "uid": 3397501,
      "tags": {
        "name": "Karang",
        "place": "village"
      }
    },
    {
      "type": "node",
      "id": 3864255177,
      "lat": 28.0930331,
      "lon": 84.9899277,
      "timestamp": "2015-11-28T02:40:23Z",
      "version": 1,
      "changeset": 35621617,
      "user": "Ian Kurashige",
      "uid": 3397501,
      "tags": {
        "name": "Rigaon",
        "place": "village"
      }
    },
    {
      "type": "node",
      "id": 3864255179,
      "lat": 28.0863647,
      "lon": 84.9681464,
      "timestamp": "2015-11-28T02:40:23Z",
      "version": 1,
      "changeset": 35621617,
      "user": "Ian Kurashige",
      "uid": 3397501,
      "tags": {
        "name": "Tawal",
        "place": "village"
      }
    },
    {
      "type": "node",
      "id": 3864255180,
      "lat": 28.0866449,
      "lon": 84.961459,
      "timestamp": "2015-11-28T02:40:23Z",
      "version": 1,
      "changeset": 35621617,
      "user": "Ian Kurashige",
      "uid": 3397501,
      "tags": {
        "name": "Dhuseni",
        "place": "village"
      }
    },
    {
      "type": "node",
      "id": 3864255181,
      "lat": 28.0824589,
      "lon": 84.9802137,
      "timestamp": "2015-11-28T02:40:23Z",
      "version": 1,
      "changeset": 35621617,
      "user": "Ian Kurashige",
      "uid": 3397501,
      "tags": {
        "name": "Sokthali",
        "place": "village"
      }
    },
    {
      "type": "node",
      "id": 3864255182,
      "lat": 28.0755037,
      "lon": 84.9791863,
      "timestamp": "2015-11-28T02:40:23Z",
      "version": 1,
      "changeset": 35621617,
      "user": "Ian Kurashige",
      "uid": 3397501,
      "tags": {
        "name": "Barre",
        "place": "village"
      }
    },
    {
      "type": "node",
      "id": 3864255183,
      "lat": 28.0860187,
      "lon": 84.9873868,
      "timestamp": "2015-11-28T02:40:23Z",
      "version": 1,
      "changeset": 35621617,
      "user": "Ian Kurashige",
      "uid": 3397501,
      "tags": {
        "name": "Purung",
        "place": "village"
      }
    },
    {
      "type": "node",
      "id": 3864258446,
      "lat": 28.0964263,
      "lon": 84.9697858,
      "timestamp": "2015-11-28T02:50:41Z",
      "version": 1,
      "changeset": 35621672,
      "user": "Ian Kurashige",
      "uid": 3397501,
      "tags": {
        "name": "Konglang",
        "place": "village"
      }
    },
    {
      "type": "node",
      "id": 3864258447,
      "lat": 28.0935066,
      "lon": 85.0000394,
      "timestamp": "2015-11-28T02:50:41Z",
      "version": 1,
      "changeset": 35621672,
      "user": "Ian Kurashige",
      "uid": 3397501,
      "tags": {
        "name": "Chogegaon",
        "place": "village"
      }
    },
    {
      "type": "node",
      "id": 3864258448,
      "lat": 28.1017739,
      "lon": 84.9993033,
      "timestamp": "2015-11-28T02:50:41Z",
      "version": 1,
      "changeset": 35621672,
      "user": "Ian Kurashige",
      "uid": 3397501,
      "tags": {
        "name": "Chamtang",
        "place": "village"
      }
    },
    {
      "type": "node",
      "id": 4044344045,
      "lat": 27.8366189,
      "lon": 85.0611359,
      "timestamp": "2016-03-06T18:33:53Z",
      "version": 1,
      "changeset": 37650968,
      "user": "Nikku369",
      "uid": 3686559,
      "tags": {
        "name": "Duipipal",
        "place": "village"
      }
    },
    {
      "type": "node",
      "id": 4079614654,
      "lat": 27.9727289,
      "lon": 84.9222806,
      "timestamp": "2020-09-02T12:28:34Z",
      "version": 3,
      "changeset": 90304552,
      "user": "Sundar1",
      "uid": 9530130,
      "tags": {
        "alt_name": "Katunje-8",
        "name": "Gairigau",
        "place": "hamlet"
      }
    },
    {
      "type": "node",
      "id": 4079614931,
      "lat": 27.9801497,
      "lon": 84.9257975,
      "timestamp": "2020-09-02T12:28:34Z",
      "version": 3,
      "changeset": 90304552,
      "user": "Sundar1",
      "uid": 9530130,
      "tags": {
        "name": "Charunge",
        "place": "hamlet"
      }
    },
    {
      "type": "node",
      "id": 4206968202,
      "lat": 27.8556279,
      "lon": 84.5594947,
      "timestamp": "2016-05-25T12:30:58Z",
      "version": 1,
      "changeset": 39555230,
      "user": "Nirab Pudasaini",
      "uid": 826065,
      "tags": {
        "name": "Aryal Showroom",
        "shop": "convenience"
      }
    },
    {
      "type": "node",
      "id": 4206968211,
      "lat": 27.8562996,
      "lon": 84.5607456,
      "timestamp": "2016-05-25T12:30:58Z",
      "version": 1,
      "changeset": 39555230,
      "user": "Nirab Pudasaini",
      "uid": 826065,
      "tags": {
        "name": "Rupa Cold Store",
        "shop": "convenience"
      }
    },
    {
      "type": "node",
      "id": 4305384190,
      "lat": 27.9599296,
      "lon": 84.6763105,
      "timestamp": "2016-07-16T04:56:49Z",
      "version": 1,
      "changeset": 40772874,
      "user": "नBन",
      "uid": 3787378,
      "tags": {
        "amenity": "drinking_water"
      }
    },
    {
      "type": "node",
      "id": 4305409689,
      "lat": 27.9612025,
      "lon": 84.6784561,
      "timestamp": "2016-07-16T04:56:52Z",
      "version": 1,
      "changeset": 40772874,
      "user": "नBन",
      "uid": 3787378,
      "tags": {
        "amenity": "drinking_water"
      }
    },
    {
      "type": "node",
      "id": 4305409791,
      "lat": 27.9577676,
      "lon": 84.6744265,
      "timestamp": "2016-07-16T04:57:02Z",
      "version": 1,
      "changeset": 40772874,
      "user": "नBन",
      "uid": 3787378,
      "tags": {
        "amenity": "shelter"
      }
    },
    {
      "type": "node",
      "id": 4305409792,
      "lat": 27.9572524,
      "lon": 84.6761804,
      "timestamp": "2016-07-16T04:57:03Z",
      "version": 1,
      "changeset": 40772874,
      "user": "नBन",
      "uid": 3787378,
      "tags": {
        "amenity": "drinking_water"
      }
    },
    {
      "type": "node",
      "id": 4312151846,
      "lat": 27.9291913,
      "lon": 84.5733627,
      "timestamp": "2017-10-05T23:21:43Z",
      "version": 3,
      "changeset": 52668755,
      "user": "Raju68",
      "uid": 6578079,
      "tags": {
        "name": "Bhogteni",
        "name:en": "Bhogateni",
        "place": "village"
      }
    },
    {
      "type": "node",
      "id": 4357172966,
      "lat": 28.1863701,
      "lon": 84.6353948,
      "timestamp": "2016-08-19T07:53:28Z",
      "version": 1,
      "changeset": 41550497,
      "user": "marek kleciak",
      "uid": 338611,
      "tags": {
        "name": "Dtar",
        "place": "village"
      }
    },
    {
      "type": "node",
      "id": 4454300854,
      "lat": 27.8705669,
      "lon": 84.8259833,
      "timestamp": "2017-11-06T06:05:32Z",
      "version": 2,
      "changeset": 53545677,
      "user": "Manoj Thapa",
      "uid": 781054,
      "tags": {
        "name": "Nalang",
        "place": "village"
      }
    },
    {
      "type": "node",
      "id": 4454302289,
      "lat": 27.9008422,
      "lon": 84.8999729,
      "timestamp": "2017-11-06T05:40:43Z",
      "version": 3,
      "changeset": 53545352,
      "user": "Manoj Thapa",
      "uid": 781054,
      "tags": {
        "name": "Ratmate Danda",
        "place": "village"
      }
    },
    {
      "type": "node",
      "id": 4457839908,
      "lat": 27.8372646,
      "lon": 84.9603736,
      "timestamp": "2016-10-21T12:59:09Z",
      "version": 1,
      "changeset": 43058975,
      "user": "Bhim Rokka",
      "uid": 4489113,
      "tags": {
        "amenity": "drinking_water",
        "name": "Barbhanyang Drinking Water Supply Tank"
      }
    },
    {
      "type": "node",
      "id": 4457860748,
      "lat": 27.8357503,
      "lon": 84.9617401,
      "timestamp": "2016-10-21T13:13:33Z",
      "version": 1,
      "changeset": 43059306,
      "user": "Bhim Rokka",
      "uid": 4489113,
      "tags": {
        "amenity": "drinking_water",
        "name": "Drinking Water Tap"
      }
    },
    {
      "type": "node",
      "id": 4457877986,
      "lat": 27.8144924,
      "lon": 84.9663566,
      "timestamp": "2016-10-21T13:35:46Z",
      "version": 1,
      "changeset": 43059869,
      "user": "Bhim Rokka",
      "uid": 4489113,
      "tags": {
        "name": "Sana Kisan Krisi Sahakari Sanstha",
        "shop": "supermarket"
      }
    },
    {
      "type": "node",
      "id": 4472098789,
      "lat": 27.6852617,
      "lon": 84.4336233,
      "timestamp": "2016-10-31T02:58:41Z",
      "version": 1,
      "changeset": 43295675,
      "user": "Nishan poudel",
      "uid": 4395593,
      "tags": {
        "amenity": "shelter",
        "internet_access": "wlan"
      }
    },
    {
      "type": "node",
      "id": 4496257634,
      "lat": 28.0718581,
      "lon": 84.3764743,
      "timestamp": "2016-11-12T04:41:38Z",
      "version": 1,
      "changeset": 43574978,
      "user": "Lokdip",
      "uid": 4761950,
      "tags": {
        "amenity": "drinking_water",
        "name": "Naspati Khola"
      }
    },
    {
      "type": "node",
      "id": 4544885593,
      "lat": 27.8530014,
      "lon": 85.0565438,
      "timestamp": "2016-12-08T14:06:51Z",
      "version": 1,
      "changeset": 44258826,
      "user": "Ramesh Rai",
      "uid": 4941193,
      "tags": {
        "amenity": "drinking_water",
        "name:en": "dhunge dhara",
        "name:hi": "english"
      }
    },
    {
      "type": "node",
      "id": 4553842993,
      "lat": 27.6868858,
      "lon": 84.5601516,
      "timestamp": "2016-12-14T12:22:59Z",
      "version": 1,
      "changeset": 44396127,
      "user": "Sarozz",
      "uid": 4958978,
      "tags": {
        "amenity": "drinking_water"
      }
    },
    {
      "type": "node",
      "id": 4659784093,
      "lat": 27.8610526,
      "lon": 84.6417427,
      "timestamp": "2017-05-23T09:39:11Z",
      "version": 2,
      "changeset": 48911709,
      "user": "Alisha12",
      "uid": 4204463,
      "tags": {
        "internet_access": "wlan",
        "name": "Gorkha Beach Resort",
        "name:en": "Gorkha Beach Resort",
        "tourism": "camp_site"
      }
    },
    {
      "type": "node",
      "id": 4702982389,
      "lat": 27.6894332,
      "lon": 84.5179636,
      "timestamp": "2017-02-24T06:30:08Z",
      "version": 2,
      "changeset": 46358331,
      "user": "Ghanshyam Bastola GB",
      "uid": 5376508,
      "tags": {
        "amenity": "shelter",
        "internet_access": "wlan"
      }
    },
    {
      "type": "node",
      "id": 4724120190,
      "lat": 27.6894128,
      "lon": 84.5179941,
      "timestamp": "2017-03-08T14:18:07Z",
      "version": 1,
      "changeset": 46681775,
      "user": "Ghanshyam Bastola GB",
      "uid": 5376508,
      "tags": {
        "amenity": "shelter",
        "internet_access": "wlan"
      }
    },
    {
      "type": "node",
      "id": 4733336167,
      "lat": 27.7514015,
      "lon": 85.0672979,
      "timestamp": "2017-03-14T04:45:32Z",
      "version": 1,
      "changeset": 46829884,
      "user": "Manoj Thapa",
      "uid": 781054,
      "tags": {
        "name": "Mahadev Besi",
        "place": "village"
      }
    },
    {
      "type": "node",
      "id": 4748672822,
      "lat": 27.8652695,
      "lon": 84.8119947,
      "timestamp": "2017-03-22T11:49:33Z",
      "version": 1,
      "changeset": 47065920,
      "user": "Rabinshr",
      "uid": 5415446,
      "tags": {
        "amenity": "shelter"
      }
    },
    {
      "type": "node",
      "id": 4757473068,
      "lat": 27.9379069,
      "lon": 84.8582791,
      "timestamp": "2017-10-30T07:54:32Z",
      "version": 2,
      "changeset": 53359986,
      "user": "Manoj Thapa",
      "uid": 781054,
      "tags": {
        "name": "Jyamire Bhanjyang",
        "place": "village"
      }
    },
    {
      "type": "node",
      "id": 4757474457,
      "lat": 27.9060717,
      "lon": 84.8699883,
      "timestamp": "2017-12-13T08:35:49Z",
      "version": 4,
      "changeset": 54588999,
      "user": "Jeewan ad",
      "uid": 6613875,
      "tags": {
        "name": "Ramkot Kumal Gaun",
        "name:ne": "रम्कोट कुमाल गाउँ",
        "place": "village"
      }
    },
    {
      "type": "node",
      "id": 4757474727,
      "lat": 27.9629507,
      "lon": 84.8516345,
      "timestamp": "2017-09-20T05:42:30Z",
      "version": 2,
      "changeset": 52199185,
      "user": "Ro Sun",
      "uid": 3112087,
      "tags": {
        "name": "Gola Bhanjyang",
        "place": "village"
      }
    },
    {
      "type": "node",
      "id": 4793477772,
      "lat": 27.9393415,
      "lon": 84.5537928,
      "timestamp": "2017-04-14T14:14:16Z",
      "version": 1,
      "changeset": 47781611,
      "user": "marek kleciak",
      "uid": 338611,
      "tags": {
        "name": "Abuwa",
        "place": "village"
      }
    },
    {
      "type": "node",
      "id": 4793479296,
      "lat": 27.9439524,
      "lon": 84.5520397,
      "timestamp": "2017-04-14T14:15:53Z",
      "version": 1,
      "changeset": 47781663,
      "user": "marek kleciak",
      "uid": 338611,
      "tags": {
        "name": "Karmasin",
        "place": "village"
      }
    },
    {
      "type": "node",
      "id": 4793484020,
      "lat": 27.9567051,
      "lon": 84.5597336,
      "timestamp": "2017-04-14T14:20:04Z",
      "version": 1,
      "changeset": 47781813,
      "user": "marek kleciak",
      "uid": 338611,
      "tags": {
        "name": "Syauli Bazaar",
        "place": "village"
      }
    },
    {
      "type": "node",
      "id": 4793529412,
      "lat": 27.9706524,
      "lon": 84.5922799,
      "timestamp": "2017-04-14T14:46:14Z",
      "version": 1,
      "changeset": 47782733,
      "user": "marek kleciak",
      "uid": 338611,
      "tags": {
        "name": "Birenchok",
        "place": "village"
      }
    },
    {
      "type": "node",
      "id": 4796444522,
      "lat": 27.8669507,
      "lon": 84.6354059,
      "timestamp": "2018-01-04T12:53:00Z",
      "version": 3,
      "changeset": 55156913,
      "user": "Oreg",
      "uid": 1926670,
      "tags": {
        "name": "Adrenaline Rush Rafting Camp",
        "name:de": "Adrenaline Rush Rafting Camp",
        "name:en": "Adrenaline Rush Rafting Camp",
        "tourism": "camp_site"
      }
    },
    {
      "type": "node",
      "id": 4800345719,
      "lat": 27.8820254,
      "lon": 84.590809,
      "timestamp": "2020-09-02T10:48:07Z",
      "version": 2,
      "changeset": 90298318,
      "user": "Sundar1",
      "uid": 9530130,
      "tags": {
        "name": "Silintar",
        "place": "hamlet"
      }
    },
    {
      "type": "node",
      "id": 4800364653,
      "lat": 27.8769995,
      "lon": 84.570004,
      "timestamp": "2020-09-02T10:48:07Z",
      "version": 2,
      "changeset": 90298318,
      "user": "Sundar1",
      "uid": 9530130,
      "tags": {
        "name": "Gyajhadada",
        "place": "hamlet"
      }
    },
    {
      "type": "node",
      "id": 4800371211,
      "lat": 27.8947728,
      "lon": 84.5438775,
      "timestamp": "2020-09-02T10:48:07Z",
      "version": 2,
      "changeset": 90298318,
      "user": "Sundar1",
      "uid": 9530130,
      "tags": {
        "name": "Namjun",
        "place": "hamlet"
      }
    },
    {
      "type": "node",
      "id": 4815807684,
      "lat": 28.1857856,
      "lon": 84.6424261,
      "timestamp": "2017-04-25T14:48:13Z",
      "version": 1,
      "changeset": 48127973,
      "user": "marek kleciak",
      "uid": 338611,
      "tags": {
        "name": "Lamidada",
        "place": "village"
      }
    },
    {
      "type": "node",
      "id": 4820069366,
      "lat": 27.9781659,
      "lon": 84.5727814,
      "timestamp": "2017-04-27T11:45:04Z",
      "version": 1,
      "changeset": 48192062,
      "user": "marek kleciak",
      "uid": 338611,
      "tags": {
        "name": "Nagapani",
        "place": "village"
      }
    },
    {
      "type": "node",
      "id": 4836749771,
      "lat": 28.2544003,
      "lon": 84.8831375,
      "timestamp": "2017-05-05T12:16:16Z",
      "version": 1,
      "changeset": 48425206,
      "user": "Ivan M",
      "uid": 57845,
      "tags": {
        "name": "Khorlabesi",
        "place": "village"
      }
    },
    {
      "type": "node",
      "id": 4861374023,
      "lat": 27.7989026,
      "lon": 84.7418198,
      "timestamp": "2017-05-18T08:38:17Z",
      "version": 1,
      "changeset": 48783580,
      "user": "Avishek Sedhai",
      "uid": 4957081,
      "tags": {
        "email": "avizrokz12@gmail.com",
        "internet_access": "wlan",
        "name": "English, Nepali, Hindi",
        "name:en": "Avishek Pountry Farm",
        "opening_hours": "Mo-Su 05:00-21:00",
        "operator": "Roshan Sedhai",
        "phone": "+9779802978308",
        "shop": "convenience"
      }
    },
    {
      "type": "node",
      "id": 4867299821,
      "lat": 27.8027672,
      "lon": 84.7389784,
      "timestamp": "2017-05-21T01:05:29Z",
      "version": 1,
      "changeset": 48853300,
      "user": "Avishek Sedhai",
      "uid": 4957081,
      "tags": {
        "addr:street": "Prithvi Rajmarga",
        "internet_access": "wlan",
        "name": "Nepali English",
        "name:en": "Gajuwa Sahakari",
        "opening_hours": "Mo-Su 06:00-18:00",
        "operator": "Corporative Ownership",
        "shop": "convenience"
      }
    },
    {
      "type": "node",
      "id": 4893741522,
      "lat": 28.0691875,
      "lon": 84.4806116,
      "timestamp": "2017-06-03T12:53:54Z",
      "version": 1,
      "changeset": 49219873,
      "user": "UmEs Manandhar",
      "uid": 4097300,
      "tags": {
        "amenity": "drinking_water",
        "name:en": "OHT"
      }
    },