{
  "osm3s": {
    "timestamp_osm_date": "2021-09-30T23:59:59Z",
    "timestamp_osm_base": "2021-10-01T04:34:13Z",
    "copyright": "The data included in this document is from www.openstreetmap.org. The data is made available under ODbL."
  },
  "elements": [
    {
      "type": "node",
      "id": 26692137,
      "lat": 43.6589011,
      "lon": 6.9239103,
      "timestamp": "2020-11-13T00:03:48Z",
      "version": 25,
      "changeset": 94023789,
      "user": "Olyon",
      "uid": 1443767,
      "tags": {
        "capital": "7",
        "name": "Grasse",
        "name:fr": "Grasse",
        "name:ja": "グラース",
        "name:oc": "Grassa",
        "name:ru": "Грас",
        "place": "town",
        "postal_code": "06130;06520",
        "ref:FR:SIREN": "210600698",
        "source:name:oc": "ieo-bdtopoc",
        "website": "http://www.ville-grasse.fr/",
        "wikidata": "Q173705",
        "wikipedia": "fr:Grasse"
      }
    },
    {
      "type": "node",
      "id": 26692534,
      "lat": 43.6008898,
      "lon": 6.9963543,
      "timestamp": "2020-04-28T15:31:51Z",
      "version": 17,
      "changeset": 84276812,
      "user": "oc-OpenStreetMap",
      "uid": 4224320,
      "tags": {
        "addr:postcode": "06250",
        "name": "Mougins",
        "name:ja": "ムージャン",
        "name:oc": "Mogins",
        "name:ru": "Мужен",
        "place": "town",
        "population": "18917",
        "source:name:oc": "ieo-bdtopoc",
        "source:population": "INSEE 2013",
        "wikidata": "Q220673",
        "wikipedia": "fr:Mougins"
      }
    },
    {
      "type": "node",
      "id": 26694316,
      "lat": 43.5810901,
      "lon": 6.9557118,
      "timestamp": "2020-04-28T11:21:34Z",
      "version": 23,
      "changeset": 84262430,
      "user": "oc-OpenStreetMap",
      "uid": 4224320,
      "tags": {
        "addr:postcode": "06550",
        "name": "La Roquette-sur-Siagne",
        "name:oc": "La Roqueta de Sianha",
        "name:ru": "Ла-Рокетт-сюр-Сьянь",
        "place": "village",
        "population": "4962",
        "ref:FR:SIREN": "210601084",
        "source:name:oc": "ieo-bdtopoc",
        "source:population": "INSEE 2013",
        "wikidata": "Q662120",
        "wikipedia": "fr:La Roquette-sur-Siagne"
      }
    },
    {
      "type": "node",
      "id": 26694333,
      "lat": 43.6203852,
      "lon": 6.9703991,
      "timestamp": "2020-04-28T15:31:51Z",
      "version": 18,
      "changeset": 84276812,
      "user": "oc-OpenStreetMap",
      "uid": 4224320,
      "tags": {
        "addr:postcode": "06370",
        "name": "Mouans-Sartoux",
        "name:ja": "ムアン＝サルトゥー",
        "name:oc": "Moans-Sartòu",
        "name:ru": "Муан-Сарту",
        "place": "town",
        "population": "10198",
        "ref:FR:SIREN": "210600847",
        "source:name:oc": "ieo-bdtopoc",
        "source:population": "INSEE 2013",
        "wikidata": "Q322723",
        "wikipedia": "fr:Mouans-Sartoux"
      }
    },
    {
      "type": "node",
      "id": 26694387,
      "lat": 43.641141,
      "lon": 7.0086255,
      "timestamp": "2020-01-20T07:30:53Z",
      "version": 27,
      "changeset": 79782031,
      "user": "jcr83",
      "uid": 234940,
      "tags": {
        "name": "Valbonne",
        "name:fr": "Valbonne",
        "name:ja": "ヴァルボンヌ",
        "name:oc": "Vaubòna",
        "name:ru": "Вальбонн",
        "place": "town",
        "postal_code": "06560",
        "ref:FR:SIREN": "210601522",
        "source:name:oc": "ieo-bdtopoc",
        "website": "https://www.ville-valbonne.fr/",
        "wikidata": "Q383436",
        "wikipedia": "fr:Valbonne"
      }
    },
    {
      "type": "node",
      "id": 26694595,
      "lat": 43.617944,
      "lon": 6.765164,
      "timestamp": "2020-01-18T13:38:22Z",
      "version": 17,
      "changeset": 79731183,
      "user": "daop5510",
      "uid": 300696,
      "tags": {
        "name": "Montauroux",
        "name:oc": "Montauron",
        "name:ru": "Монтору",
        "place": "village",
        "ref:FR:SIREN": "218300812",
        "source:name:oc": "ieo-bdtopoc"
      }
    },
    {
      "type": "node",
      "id": 26694810,
      "lat": 43.6001505,
      "lon": 6.9105552,
      "timestamp": "2020-01-20T07:30:53Z",
      "version": 20,
      "changeset": 79782031,
      "user": "jcr83",
      "uid": 234940,
      "tags": {
        "name": "Auribeau-sur-Siagne",
        "name:ru": "Орибо-сюр-Сьянь",
        "place": "village",
        "postal_code": "06810",
        "ref:FR:SIREN": "210600078"
      }
    },
    {
      "type": "node",
      "id": 26695208,
      "lat": 43.641991,
      "lon": 6.8756858,
      "timestamp": "2020-04-28T15:31:52Z",
      "version": 25,
      "changeset": 84276812,
      "user": "oc-OpenStreetMap",
      "uid": 4224320,
      "tags": {
        "name": "Peymeinade",
        "name:oc": "Puegmeinada",
        "name:ru": "Пейменад",
        "place": "village",
        "postal_code": "06530",
        "ref:FR:SIREN": "210600953",
        "source:name:oc": "ieo-bdtopoc"
      }
    },
    {
      "type": "node",
      "id": 26695354,
      "lat": 43.5928477,
      "lon": 6.9306639,
      "timestamp": "2020-04-28T15:31:53Z",
      "version": 20,
      "changeset": 84276812,
      "user": "oc-OpenStreetMap",
      "uid": 4224320,
      "tags": {
        "name": "Pégomas",
        "name:ja": "ペゴマ",
        "name:oc": "Pegomàs",
        "name:ru": "Пегома",
        "place": "village",
        "postal_code": "06580",
        "ref:FR:SIREN": "210600904",
        "source:name:oc": "ieo-bdtopoc",
        "wikidata": "Q287518",
        "wikipedia": "fr:Pégomas"
      }
    },
    {
      "type": "node",
      "id": 26695506,
      "lat": 43.6743043,
      "lon": 7.0059129,
      "timestamp": "2020-04-28T11:21:36Z",
      "version": 16,
      "changeset": 84262430,
      "user": "oc-OpenStreetMap",
      "uid": 4224320,
      "tags": {
        "addr:postcode": "06650",
        "name": "Le Rouret",
        "name:oc": "Lo Roret",
        "name:ru": "Ле-Руре",
        "place": "village",
        "population": "3857",
        "ref:FR:SIREN": "210601126",
        "source:name:oc": "ieo-bdtopoc",
        "source:population": "INSEE 2013"
      }
    },
    {
      "type": "node",
      "id": 26696195,
      "lat": 43.6238666,
      "lon": 6.6949071,
      "timestamp": "2020-04-28T16:08:48Z",
      "version": 15,
      "changeset": 84278595,
      "user": "Farot",
      "uid": 10617233,
      "tags": {
        "addr:postcode": "83440",
        "name": "Fayence",
        "name:oc": "Faiença",
        "name:ru": "Файанс",
        "place": "village",
        "ref:FR:SIREN": "218300556",
        "source:name:oc": "ieo-bdtopoc"
      }
    },
    {
      "type": "node",
      "id": 26697073,
      "lat": 43.6505213,
      "lon": 6.7925537,
      "timestamp": "2020-01-20T07:30:53Z",
      "version": 21,
      "changeset": 79782031,
      "user": "jcr83",
      "uid": 234940,
      "tags": {
        "name": "Saint-Cézaire-sur-Siagne",
        "name:oc": "Sant Cesari",
        "name:ru": "Сен-Сезер-сюр-Сьянь",
        "place": "village",
        "postal_code": "06530",
        "ref:FR:SIREN": "210601183",
        "source:name:oc": "ieo-bdtopoc",
        "wikidata": "Q853458",
        "wikipedia": "fr:Saint-Cézaire-sur-Siagne"
      }
    },
    {
      "type": "node",
      "id": 26697834,
      "lat": 43.6747381,
      "lon": 6.9758576,
      "timestamp": "2020-04-28T11:21:38Z",
      "version": 28,
      "changeset": 84262430,
      "user": "oc-OpenStreetMap",
      "uid": 4224320,
      "tags": {
        "name": "Châteauneuf-Grasse",
        "name:oc": "Castèunòu",
        "name:ru": "Шатонёф-Грас",
        "place": "village",
        "postal_code": "06740",
        "ref:FR:SIREN": "210600383",
        "source:name:oc": "ieo-bdtopoc",
        "wikidata": "Q324244",
        "wikipedia": "fr:Châteauneuf-de-Grasse"
      }
    },
    {
      "type": "node",
      "id": 26698073,
      "lat": 43.7012408,
      "lon": 6.988256,
      "timestamp": "2020-04-28T11:21:38Z",
      "version": 16,
      "changeset": 84262430,
      "user": "oc-OpenStreetMap",
      "uid": 4224320,
      "tags": {
        "addr:postcode": "06620",
        "name": "Le Bar-sur-Loup",
        "name:oc": "So Barn",
        "name:ru": "Ле-Бар-сюр-Лу",
        "place": "village",
        "population": "2795",
        "ref:FR:SIREN": "210600102",
        "source:name:oc": "ieo-bdtopoc",
        "source:population": "INSEE 2013"
      }
    },
    {
      "type": "node",
      "id": 26858587,
      "lat": 43.7018892,
      "lon": 6.9952681,
      "timestamp": "2015-08-15T18:49:54Z",
      "version": 5,
      "changeset": 33357109,
      "user": "bot_gileri",
      "uid": 2772976,
      "tags": {
        "addr:city": "Le-Bar-sur-Loup",
        "addr:country": "FR",
        "addr:housenumber": "965",
        "addr:postcode": "06620",
        "addr:street": "Chemin des Vergers",
        "name": "Les Gorges du Loup",
        "phone": "+33 4 93 42 45 06",
        "tourism": "camp_site",
        "url": "http://www.lesgorgesduloup.com"
      }
    },
    {
      "type": "node",
      "id": 26858913,
      "lat": 43.9576437,
      "lon": 6.8624345,
      "timestamp": "2010-10-04T19:19:33Z",
      "version": 3,
      "changeset": 5956548,
      "user": "Jocelyn",
      "uid": 8834,
      "tags": {
        "name": "Origan",
        "tourism": "camp_site"
      }
    },
    {
      "type": "node",
      "id": 26863759,
      "lat": 44.0683359,
      "lon": 6.5299921,
      "timestamp": "2021-03-21T22:24:17Z",
      "version": 6,
      "changeset": 101459642,
      "user": "fgouget",
      "uid": 2678738,
      "tags": {
        "alt_name": "Montagne de Cordeil;Montagne de Cordeuil",
        "ele": "2115",
        "name": "Montagne de Cordœil",
        "natural": "peak",
        "wikidata": "Q3322276",
        "wikipedia": "fr:Montagne de Cordœil"
      }
    },
    {
      "type": "node",
      "id": 26863772,
      "lat": 43.814938,
      "lon": 6.9694053,
      "timestamp": "2017-02-17T20:43:48Z",
      "version": 6,
      "changeset": 46177374,
      "user": "ouleyang",
      "uid": 22827,
      "tags": {
        "ele": "1778",
        "name": "Cime du Cheiron",
        "natural": "peak",
        "wikidata": "Q744188"
      }
    },
    {
      "type": "node",
      "id": 26864024,
      "lat": 43.8417408,
      "lon": 6.3510082,
      "timestamp": "2017-10-08T17:04:25Z",
      "version": 7,
      "changeset": 52736384,
      "user": "Kris Anselmo",
      "uid": 2735877,
      "tags": {
        "ele": "1930",
        "name": "Mourre de Chanier",
        "natural": "peak",
        "wikidata": "Q3326159",
        "wikipedia": "fr:Mourre de Chanier"
      }
    },
    {
      "type": "node",
      "id": 26864390,
      "lat": 44.0210876,
      "lon": 6.5902138,
      "timestamp": "2021-05-11T02:07:37Z",
      "version": 7,
      "changeset": 104479378,
      "user": "Hervé TUC",
      "uid": 922338,
      "tags": {
        "ele": "1996",
        "name": "Puy de Rent",
        "natural": "peak",
        "website": "https://www.refuges.info/point/1485/sommet/Mercantour-Argentera/Puy-de-Rent/",
        "wikidata": "Q16802229"
      }
    },
    {
      "type": "node",
      "id": 26864745,
      "lat": 43.8953449,
      "lon": 6.6373695,
      "timestamp": "2019-12-14T10:34:40Z",
      "version": 4,
      "changeset": 78404187,
      "user": "kdkeller",
      "uid": 43207,
      "tags": {
        "ele": "1941",
        "name": "Sommet de la Bernarde",
        "natural": "peak",
        "wikidata": "Q3964650"
      }
    },
    {
      "type": "node",
      "id": 26914691,
      "lat": 43.742475,
      "lon": 7.0087789,
      "timestamp": "2020-04-28T11:21:39Z",
      "version": 16,
      "changeset": 84262430,
      "user": "oc-OpenStreetMap",
      "uid": 4224320,
      "tags": {
        "addr:postcode": "06620",
        "name": "Courmes",
        "name:oc": "Cormes",
        "name:ru": "Курм",
        "place": "village",
        "population": "100",
        "ref:FR:SIREN": "210600490",
        "source:name:oc": "ieo-bdtopoc",
        "source:population": "INSEE 2013"
      }
    },
    {
      "type": "node",
      "id": 27473664,
      "lat": 43.8654587,
      "lon": 6.4640039,
      "timestamp": "2018-12-24T13:59:22Z",
      "version": 11,
      "changeset": 65741478,
      "user": "AL68",
      "uid": 1745073,
      "tags": {
        "ele": "1148",
        "mountain_pass": "yes",
        "name": "Col des Lèques",
        "natural": "saddle",
        "wikidata": "Q2982222",
        "wikipedia": "fr:Col des Lèques"
      }
    },
    {
      "type": "node",
      "id": 27473999,
      "lat": 43.8301121,
      "lon": 6.5572147,
      "timestamp": "2020-04-28T15:53:02Z",
      "version": 16,
      "changeset": 84277864,
      "user": "Farot",
      "uid": 10617233,
      "tags": {
        "addr:postcode": "04120",
        "name": "La Garde",
        "name:oc": "La Garda",
        "place": "village",
        "ref:FR:SIREN": "210400925",
        "source:name:oc": "ieo-bdtopoc"
      }
    },
    {
      "type": "node",
      "id": 31422154,
      "lat": 43.7195336,
      "lon": 6.9787811,
      "timestamp": "2020-04-28T11:21:39Z",
      "version": 14,
      "changeset": 84262430,
      "user": "oc-OpenStreetMap",
      "uid": 4224320,
      "tags": {
        "addr:postcode": "06620",
        "name": "Gourdon",
        "name:oc": "Gordon",
        "name:ru": "Гурдон",
        "place": "village",
        "population": "426",
        "ref:FR:SIREN": "210600680",
        "source:name:oc": "ieo-bdtopoc",
        "source:population": "INSEE 2013",
        "wikidata": "Q272364",
        "wikipedia": "fr:Gourdon (Alpes-Maritimes)"
      }
    },
    {
      "type": "node",
      "id": 31460208,
      "lat": 43.783204,
      "lon": 6.9561088,
      "timestamp": "2020-04-28T11:21:40Z",
      "version": 13,
      "changeset": 84262430,
      "user": "oc-OpenStreetMap",
      "uid": 4224320,
      "tags": {
        "addr:postcode": "06620",
        "name": "Cipières",
        "name:oc": "Cipieras",
        "place": "village",
        "population": "373",
        "source:name:oc": "ieo-bdtopoc",
        "source:population": "INSEE 2013"
      }
    },
    {
      "type": "node",
      "id": 32523419,
      "lat": 43.7951809,
      "lon": 6.9435947,
      "timestamp": "2020-04-28T11:21:40Z",
      "version": 16,
      "changeset": 84262430,
      "user": "oc-OpenStreetMap",
      "uid": 4224320,
      "tags": {
        "addr:postcode": "06620",
        "name": "Gréolières",
        "name:ja": "グレオリエール",
        "name:oc": "Greulieras",
        "name:ru": "Греольер",
        "place": "village",
        "population": "559",
        "source:name:oc": "ieo-bdtopoc",
        "source:population": "INSEE 2013",
        "wikidata": "Q672657",
        "wikipedia": "fr:Gréolières"
      }
    },
    {
      "type": "node",
      "id": 32587237,
      "lat": 43.6818468,
      "lon": 6.8131735,
      "timestamp": "2018-11-08T16:27:42Z",
      "version": 8,
      "changeset": 64298190,
      "user": "oc-OpenStreetMap",
      "uid": 4224320,
      "tags": {
        "ele": "695",
        "mountain_pass": "yes",
        "name": "Col de la Lèque",
        "name:oc": "Pas de la Lèca",
        "natural": "saddle",
        "ref": "Col de la Lèque",
        "source:name:oc": "ieo-bdtopoc"
      }
    },
    {
      "type": "node",
      "id": 36268641,
      "lat": 43.9531061,
      "lon": 6.3683581,
      "timestamp": "2020-04-23T21:42:31Z",
      "version": 15,
      "changeset": 84024070,
      "user": "oc-OpenStreetMap",
      "uid": 4224320,
      "tags": {
        "addr:postcode": "04330",
        "name": "Barrême",
        "name:oc": "Barrema",
        "place": "village",
        "ref:FR:SIREN": "210400222",
        "source:name:oc": "ieo-bdtopoc"
      }
    },
    {
      "type": "node",
      "id": 36268644,
      "lat": 43.9134483,
      "lon": 6.4065153,
      "timestamp": "2020-04-23T21:42:31Z",
      "version": 12,
      "changeset": 84024070,
      "user": "oc-OpenStreetMap",
      "uid": 4224320,
      "tags": {
        "addr:postcode": "04330",
        "name": "Senez",
        "name:oc": "Seneç",
        "place": "village",
        "ref:FR:SIREN": "210402046",
        "source:name:oc": "ieo-bdtopoc"
      }
    },
    {
      "type": "node",
      "id": 36268645,
      "lat": 43.7742384,
      "lon": 6.7041357,
      "timestamp": "2020-04-28T15:31:56Z",
      "version": 16,
      "changeset": 84276812,
      "user": "oc-OpenStreetMap",
      "uid": 4224320,
      "tags": {
        "addr:postcode": "06750",
        "name": "Séranon",
        "name:oc": "Seranon",
        "place": "village",
        "population": "477",
        "ref:FR:SIREN": "210601340",
        "source:name:oc": "ieo-bdtopoc",
        "source:population": "INSEE 2013",
        "wikidata": "Q773130",
        "wikipedia": "fr:Séranon"
      }
    },
    {
      "type": "node",
      "id": 36268646,
      "lat": 43.7304557,
      "lon": 6.7829294,
      "timestamp": "2020-04-28T11:21:41Z",
      "version": 20,
      "changeset": 84262430,
      "user": "oc-OpenStreetMap",
      "uid": 4224320,
      "tags": {
        "name": "Escragnolles",
        "name:oc": "Escranhòla",
        "place": "village",
        "postal_code": "06460",
        "ref:FR:SIREN": "210600581",
        "source:name:oc": "ieo-bdtopoc",
        "wikidata": "Q669328",
        "wikipedia": "fr:Escragnolles"
      }
    },
    {
      "type": "node",
      "id": 36268647,
      "lat": 43.6987023,
      "lon": 6.8478583,
      "timestamp": "2020-04-28T15:31:56Z",
      "version": 18,
      "changeset": 84276812,
      "user": "oc-OpenStreetMap",
      "uid": 4224320,
      "tags": {
        "name": "Saint-Vallier-de-Thiey",
        "name:oc": "Sant Valier de Tièir",
        "name:ru": "Сен-Валье-де-Тье",
        "place": "village",
        "postal_code": "06460",
        "ref:FR:SIREN": "210601308",
        "source:name:oc": "ieo-bdtopoc",
        "wikidata": "Q840084",
        "wikipedia": "fr:Saint-Vallier-de-Thiey"
      }
    },
    {
      "type": "node",
      "id": 48028355,
      "lat": 43.7594642,
      "lon": 6.8612045,
      "timestamp": "2021-09-21T13:01:37Z",
      "version": 5,
      "changeset": 111495858,
      "user": "Lulucmy",
      "uid": 2936082,
      "tags": {
        "ele": "1108",
        "mountain_pass": "yes",
        "name": "Col de la Sine",
        "natural": "saddle"
      }
    },
    {
      "type": "node",
      "id": 212975884,
      "lat": 43.6896953,
      "lon": 6.7136872,
      "timestamp": "2020-04-28T16:09:47Z",
      "version": 14,
      "changeset": 84278651,
      "user": "Farot",
      "uid": 10617233,
      "tags": {
        "addr:postcode": "83440",
        "alt_name": "Mons-en-Provence",
        "name": "Mons",
        "name:oc": "Mons",
        "name:ru": "Мон",
        "old_name": "Mouns-en-Prouvenço",
        "place": "village",
        "source:name:oc": "ieo-bdtopoc"
      }
    },
    {
      "type": "node",
      "id": 244198502,
      "lat": 43.8307735,
      "lon": 6.9701607,
      "timestamp": "2017-09-25T01:39:44Z",
      "version": 3,
      "changeset": 52342326,
      "user": "nyuriks",
      "uid": 339581,
      "tags": {
        "name": "Gréolières les Neiges",
        "name:ja": "グレオリエール＝レ＝ネージュ",
        "place": "hamlet",
        "wikidata": "Q3118616",
        "wikipedia": "fr:Gréolières-les-Neiges"
      }
    },
    {
      "type": "node",
      "id": 268737594,
      "lat": 43.7796864,
      "lon": 6.3413854,
      "timestamp": "2020-02-08T01:12:42Z",
      "version": 12,
      "changeset": 80713158,
      "user": "vincent_95",
      "uid": 49047,
      "tags": {
        "addr:postcode": "04120",
        "name": "La Palud-sur-Verdon",
        "name:oc": "La Palús de Verdon",
        "place": "village",
        "source:name:oc": "ieo-bdtopoc"
      }
    },
    {
      "type": "node",
      "id": 275016362,
      "lat": 43.9555155,
      "lon": 6.8951839,
      "timestamp": "2020-04-28T15:31:57Z",
      "version": 22,
      "changeset": 84276812,
      "user": "oc-OpenStreetMap",
      "uid": 4224320,
      "tags": {
        "name": "Puget-Théniers",
        "name:fr": "Puget-Théniers",
        "name:it": "Poggeto Tenieri",
        "name:oc": "Lo Puget Tenier",
        "place": "village",
        "postal_code": "06260",
        "ref:FR:SIREN": "210600995",
        "source:name:oc": "ieo-bdtopoc"
      }
    },
    {
      "type": "node",
      "id": 275401918,
      "lat": 43.9782,
      "lon": 7.0297191,
      "timestamp": "2020-04-28T15:31:58Z",
      "version": 12,
      "changeset": 84276812,
      "user": "oc-OpenStreetMap",
      "uid": 4224320,
      "tags": {
        "addr:postcode": "06710",
        "name": "Thiéry",
        "name:it": "Tieri",
        "name:oc": "Tièri",
        "place": "village",
        "population": "103",
        "source:name:oc": "ieo-bdtopoc",
        "source:population": "INSEE 2013"
      }
    },
    {
      "type": "node",
      "id": 275402118,
      "lat": 43.9956119,
      "lon": 7.016194,
      "timestamp": "2021-02-08T18:12:17Z",
      "version": 12,
      "changeset": 98924914,
      "user": "Farot",
      "uid": 10617233,
      "tags": {
        "addr:postcode": "06260",
        "name": "Lieuche",
        "name:it": "Lieucia",
        "name:oc": "Lieucha",
        "place": "village",
        "population": "40",
        "source:name:oc": "ieo-bdtopoc"
      }
    },
    {
      "type": "node",
      "id": 288149630,
      "lat": 43.5902231,
      "lon": 6.8755091,
      "timestamp": "2020-04-28T16:10:40Z",
      "version": 11,
      "changeset": 84278681,
      "user": "Farot",
      "uid": 10617233,
      "tags": {
        "addr:postcode": "83440",
        "name": "Tanneron",
        "name:oc": "Taneron",
        "place": "village",
        "source:name:oc": "ieo-bdtopoc",
        "wikidata": "Q818113",
        "wikipedia": "fr:Tanneron"
      }
    },
    {
      "type": "node",
      "id": 295946924,
      "lat": 43.9614136,
      "lon": 6.4930951,
      "timestamp": "2020-08-01T15:04:16Z",
      "version": 15,
      "changeset": 88817331,
      "user": "sergio7826",
      "uid": 411998,
      "tags": {
        "ele": "988",
        "mountain_pass": "yes",
        "name": "Col des Robines",
        "natural": "saddle",
        "wikidata": "Q2982236",
        "wikipedia": "fr:Col des Robines"
      }
    },
    {
      "type": "node",
      "id": 295954686,
      "lat": 43.9620556,
      "lon": 6.469151,
      "timestamp": "2020-04-23T21:42:48Z",
      "version": 13,
      "changeset": 84024070,
      "user": "oc-OpenStreetMap",
      "uid": 4224320,
      "tags": {
        "addr:postcode": "04170",
        "name": "Moriez",
        "name:oc": "Moriers",
        "place": "village",
        "source:name:oc": "ieo-bdtopoc"
      }
    },
    {
      "type": "node",
      "id": 295954692,
      "lat": 43.9690942,
      "lon": 6.5093724,
      "timestamp": "2020-04-23T21:42:48Z",
      "version": 15,
      "changeset": 84024070,
      "user": "oc-OpenStreetMap",
      "uid": 4224320,
      "tags": {
        "addr:postcode": "04170",
        "name": "Saint-André-les-Alpes",
        "name:oc": "Sant Andrieu (deis Aups)",
        "place": "village",
        "population": "924",
        "ref:FR:SIREN": "210401733",
        "source:name:oc": "ieo-bdtopoc",
        "wikidata": "Q865582",
        "wikipedia": "fr:Saint-André-les-Alpes"
      }
    },
    {
      "type": "node",
      "id": 295954697,
      "lat": 43.9685751,
      "lon": 6.5082384,
      "timestamp": "2019-12-06T11:15:53Z",
      "version": 2,
      "changeset": 78045309,
      "user": "Guillaume Doukhan",
      "uid": 2056585,
      "tags": {
        "amenity": "drinking_water"
      }
    },
    {
      "type": "node",
      "id": 295978524,
      "lat": 43.9833939,
      "lon": 6.4573403,
      "timestamp": "2020-08-01T15:04:17Z",
      "version": 2,
      "changeset": 88817331,
      "user": "sergio7826",
      "uid": 411998,
      "tags": {
        "amenity": "drinking_water"
      }
    },
    {
      "type": "node",
      "id": 295978530,
      "lat": 43.984632,
      "lon": 6.4566524,
      "timestamp": "2008-09-11T21:14:12Z",
      "version": 1,
      "changeset": 606361,
      "user": "sly",
      "uid": 24572,
      "tags": {
        "amenity": "drinking_water"
      }
    },
    {
      "type": "node",
      "id": 295978532,
      "lat": 43.9898261,
      "lon": 6.4546229,
      "timestamp": "2008-09-11T21:14:12Z",
      "version": 1,
      "changeset": 606361,
      "user": "sly",
      "uid": 24572,
      "tags": {
        "amenity": "drinking_water"
      }
    },
    {
      "type": "node",
      "id": 314106035,
      "lat": 43.6064684,
      "lon": 6.383876,
      "timestamp": "2020-01-18T13:38:22Z",
      "version": 13,
      "changeset": 79731183,
      "user": "daop5510",
      "uid": 300696,
      "tags": {
        "addr:postcode": "83111",
        "name": "Ampus",
        "name:oc": "Empurs",
        "place": "village",
        "ref:FR:SIREN": "218300036",
        "source:name:oc": "ieo-bdtopoc"
      }
    },
    {
      "type": "node",
      "id": 337832128,
      "lat": 43.7811557,
      "lon": 6.7178128,
      "timestamp": "2018-11-08T16:27:42Z",
      "version": 10,
      "changeset": 64298190,
      "user": "oc-OpenStreetMap",
      "uid": 4224320,
      "tags": {
        "ele": "1645",
        "name": "Bauroux",
        "name:oc": "Bauç Ros",
        "natural": "peak",
        "source:name:oc": "ieo-bdtopoc",
        "wikidata": "Q17621896"
      }
    },
    {
      "type": "node",
      "id": 337840666,
      "lat": 43.7873749,
      "lon": 6.7342876,
      "timestamp": "2019-05-23T12:23:46Z",
      "version": 7,
      "changeset": 70550078,
      "user": "ryra6453",
      "uid": 10209,
      "tags": {
        "ele": "1194",
        "mountain_pass": "yes",
        "name": "Col Bas",
        "natural": "saddle"
      }
    },
    {
      "type": "node",
      "id": 337887815,
      "lat": 43.7788903,
      "lon": 6.729661,
      "timestamp": "2020-04-27T18:37:37Z",
      "version": 13,
      "changeset": 84215547,
      "user": "oc-OpenStreetMap",
      "uid": 4224320,
      "tags": {
        "addr:postcode": "06750",
        "name": "Caille",
        "name:oc": "Calha",
        "place": "village",
        "population": "336",
        "ref:FR:SIREN": "210600284",
        "source:name:oc": "ieo-bdtopoc"
      }
    },
    {
      "type": "node",
      "id": 337967829,
      "lat": 43.7970759,
      "lon": 6.709446,
      "timestamp": "2020-04-28T15:31:59Z",
      "version": 15,
      "changeset": 84276812,
      "user": "oc-OpenStreetMap",
      "uid": 4224320,
      "tags": {
        "addr:postcode": "06750",
        "name": "Valderoure",
        "name:oc": "Vauderore",
        "place": "village",
        "population": "397",
        "source:name:oc": "ieo-bdtopoc",
        "source:population": "INSEE 2013",
        "wikidata": "Q615739",
        "wikipedia": "fr:Valderoure"
      }
    },
    {
      "type": "node",
      "id": 337968777,
      "lat": 43.7992734,
      "lon": 6.7341134,
      "timestamp": "2020-04-25T15:38:09Z",
      "version": 6,
      "changeset": 84110880,
      "user": "Olyon",
      "uid": 1443767,
      "tags": {
        "name": "La Ferrière",
        "place": "hamlet"
      }
    },
    {
      "type": "node",
      "id": 348708480,
      "lat": 43.5965092,
      "lon": 6.4510613,
      "timestamp": "2020-01-18T13:38:22Z",
      "version": 10,
      "changeset": 79731183,
      "user": "daop5510",
      "uid": 300696,
      "tags": {
        "addr:postcode": "83300",
        "name": "Châteaudouble",
        "name:oc": "Castèudoble",
        "place": "village",
        "source:name:oc": "ieo-bdtopoc"
      }
    },
    {
      "type": "node",
      "id": 349693048,
      "lat": 43.6018258,
      "lon": 6.5626928,
      "timestamp": "2020-01-18T13:38:22Z",
      "version": 15,
      "changeset": 79731183,
      "user": "daop5510",
      "uid": 300696,
      "tags": {
        "addr:postcode": "83830",
        "name": "Claviers",
        "name:oc": "Clavier",
        "place": "village",
        "ref:FR:SIREN": "218300416",
        "source:name:oc": "ieo-bdtopoc"
      }
    },
    {
      "type": "node",
      "id": 413490388,
      "lat": 43.8722163,
      "lon": 6.3693213,
      "timestamp": "2020-04-23T21:42:52Z",
      "version": 10,
      "changeset": 84024070,
      "user": "oc-OpenStreetMap",
      "uid": 4224320,
      "tags": {
        "addr:postcode": "04330",
        "name": "Blieux",
        "name:oc": "Blieus",
        "place": "village",
        "source:name:oc": "ieo-bdtopoc"
      }
    },
    {
      "type": "node",
      "id": 414066943,
      "lat": 43.9184505,
      "lon": 6.8324118,
      "timestamp": "2015-01-15T21:44:22Z",
      "version": 3,
      "changeset": 28174281,
      "user": "geow",
      "uid": 223093,
      "tags": {
        "ele": "1143",
        "mountain_pass": "yes",
        "name": "Col du Trébuchet",
        "natural": "saddle"
      }
    },
    {
      "type": "node",
      "id": 419958707,
      "lat": 43.8124079,
      "lon": 6.5994326,
      "timestamp": "2009-06-13T23:05:46Z",
      "version": 1,
      "changeset": 1509253,
      "user": "krysst",
      "uid": 16038,
      "tags": {
        "name": "La Bâtie",
        "place": "hamlet"
      }
    },
    {
      "type": "node",
      "id": 419989417,
      "lat": 43.7510436,
      "lon": 6.7298607,
      "timestamp": "2018-11-08T16:27:42Z",
      "version": 8,
      "changeset": 64298190,
      "user": "oc-OpenStreetMap",
      "uid": 4224320,
      "tags": {
        "ele": "1169",
        "name": "Col de Valferrière",
        "natural": "saddle"
      }
    },
    {
      "type": "node",
      "id": 442344452,
      "lat": 43.9741092,
      "lon": 6.9192146,
      "timestamp": "2020-01-02T20:02:19Z",
      "version": 13,
      "changeset": 79128845,
      "user": "oc-OpenStreetMap",
      "uid": 4224320,
      "tags": {
        "addr:postcode": "06260",
        "name": "Puget-Rostang",
        "name:it": "Poggetto Rostagno",
        "name:oc": "Lo Puget Rostanh",
        "place": "village",
        "population": "108",
        "ref:FR:SIREN": "210600987",
        "source:name:oc": "ieo-bdtopoc"
      }
    },
    {
      "type": "node",
      "id": 442344473,
      "lat": 43.9884995,
      "lon": 6.9084429,
      "timestamp": "2020-01-02T20:02:19Z",
      "version": 14,
      "changeset": 79128845,
      "user": "oc-OpenStreetMap",
      "uid": 4224320,
      "tags": {
        "addr:postcode": "06260",
        "alt_name:it": "Auvare",
        "name": "Auvare",
        "name:it": "Auvara",
        "name:oc": "Auvara",
        "place": "village",
        "population": "49",
        "ref:FR:SIREN": "210600086",
        "source:name:oc": "ieo-bdtopoc",
        "source:population": "INSEE 2013"
      }
    },
    {
      "type": "node",
      "id": 442345072,
      "lat": 43.9873813,
      "lon": 6.8747032,
      "timestamp": "2020-04-28T11:21:44Z",
      "version": 15,
      "changeset": 84262430,
      "user": "oc-OpenStreetMap",
      "uid": 4224320,
      "tags": {
        "addr:postcode": "06260",
        "name": "La Croix-sur-Roudoule",
        "name:it": "Croce sul Rodola",
        "name:oc": "La Crotz de Rodola",
        "place": "village",
        "population": "87",
        "ref:FR:SIREN": "210600516",
        "source:name:oc": "ieo-bdtopoc",
        "source:population": "INSEE 2013"
      }
    },
    {
      "type": "node",
      "id": 443633842,
      "lat": 43.7300754,
      "lon": 6.5725009,
      "timestamp": "2020-01-18T13:38:22Z",
      "version": 11,
      "changeset": 79731183,
      "user": "daop5510",
      "uid": 300696,
      "tags": {
        "addr:postcode": "83840",
        "ele": "1097",
        "name": "Bargème",
        "name:oc": "Bargema",
        "place": "village",
        "source:name:oc": "ieo-bdtopoc"
      }
    },
    {
      "type": "node",
      "id": 447968729,
      "lat": 43.8576185,
      "lon": 6.9146523,
      "timestamp": "2019-11-25T17:01:00Z",
      "version": 11,
      "changeset": 77535736,
      "user": "StephaneP",
      "uid": 439947,
      "tags": {
        "addr:postcode": "06910",
        "name": "Aiglun",
        "name:oc": "Aiglun",
        "place": "village",
        "population": "94",
        "ref:FR:SIREN": "210600011",
        "source:name:oc": "ieo-bdtopoc"
      }
    },
    {
      "type": "node",
      "id": 462745936,
      "lat": 43.7474273,
      "lon": 6.9159093,
      "timestamp": "2009-09-10T07:35:51Z",
      "version": 3,
      "changeset": 2432020,
      "user": "paddiloo",
      "uid": 57478,
      "tags": {
        "name": "Cresp",
        "place": "hamlet"
      }
    },
    {
      "type": "node",
      "id": 477014917,
      "lat": 43.6191015,
      "lon": 6.5510623,
      "timestamp": "2020-01-18T13:38:22Z",
      "version": 11,
      "changeset": 79731183,
      "user": "daop5510",
      "uid": 300696,
      "tags": {
        "addr:postcode": "83830",
        "name": "Bargemon",
        "name:oc": "Bargemon",
        "place": "village",
        "source:name:oc": "ieo-bdtopoc"
      }
    },
    {
      "type": "node",
      "id": 512686757,
      "lat": 43.7170161,
      "lon": 6.9785111,
      "timestamp": "2020-11-29T18:31:12Z",
      "version": 5,
      "changeset": 94995498,
      "user": "jcr83",
      "uid": 234940,
      "tags": {
        "amenity": "drinking_water"
      }
    },
    {
      "type": "node",
      "id": 526309395,
      "lat": 44.0081699,
      "lon": 6.7811905,
      "timestamp": "2020-04-23T21:42:56Z",
      "version": 15,
      "changeset": 84024070,
      "user": "oc-OpenStreetMap",
      "uid": 4224320,
      "tags": {
        "addr:postcode": "04320",
        "name": "Sausses",
        "name:oc": "Saussas",
        "place": "village",
        "ref:FR:SIREN": "210402020",
        "source:name:oc": "ieo-bdtopoc"
      }
    },
    {
      "type": "node",
      "id": 529647004,
      "lat": 43.5944516,
      "lon": 7.0086,
      "timestamp": "2009-10-12T19:42:52Z",
      "version": 1,
      "changeset": 2829376,
      "user": "Gnurfos",
      "uid": 181250,
      "tags": {
        "amenity": "drinking_water"
      }
    },
    {
      "type": "node",
      "id": 532438541,
      "lat": 43.8696786,
      "lon": 6.5800033,
      "timestamp": "2021-02-18T18:29:02Z",
      "version": 10,
      "changeset": 99542781,
      "user": "Farot",
      "uid": 10617233,
      "tags": {
        "addr:postcode": "04120",
        "name": "Demandolx",
        "name:oc": "Mandòus",
        "place": "village",
        "source:name:oc": "ieo-bdtopoc"
      }
    },
    {
      "type": "node",
      "id": 532445609,
      "lat": 43.891742,
      "lon": 6.5010751,
      "timestamp": "2021-06-08T18:51:01Z",
      "version": 4,
      "changeset": 106052710,
      "user": "Farot",
      "uid": 10617233,
      "tags": {
        "name": "La Baume",
        "name:oc": "La Bauma",
        "place": "hamlet",
        "source:name:oc": "ieo-bdtopoc"
      }
    },
    {
      "type": "node",
      "id": 549869510,
      "lat": 43.620025,
      "lon": 6.9712061,
      "timestamp": "2013-09-14T19:17:41Z",
      "version": 5,
      "changeset": 17838674,
      "user": "philippekerla",
      "uid": 79386,
      "tags": {
        "name": "Casino Shop",
        "operator": "Casino",
        "shop": "supermarket"
      }
    },
    {
      "type": "node",
      "id": 561458779,
      "lat": 43.72107,
      "lon": 6.9777534,
      "timestamp": "2020-05-12T20:24:27Z",
      "version": 2,
      "changeset": 85104843,
      "user": "jcr83",
      "uid": 234940,
      "tags": {
        "amenity": "drinking_water"
      }
    },
    {
      "type": "node",
      "id": 604018283,
      "lat": 43.7424149,
      "lon": 7.0089988,
      "timestamp": "2013-08-04T20:36:19Z",
      "version": 4,
      "changeset": 17220117,
      "user": "fmorel",
      "uid": 331938,
      "tags": {
        "amenity": "drinking_water"
      }
    },
    {
      "type": "node",
      "id": 638913794,
      "lat": 43.652594,
      "lon": 6.9255028,
      "timestamp": "2020-04-12T09:33:01Z",
      "version": 5,
      "changeset": 83421360,
      "user": "Test360",
      "uid": 1418137,
      "tags": {
        "brand": "Spar",
        "brand:wikidata": "Q610492",
        "name": "Spar",
        "operator": "Spar",
        "shop": "convenience"
      }
    },
    {
      "type": "node",
      "id": 661800591,
      "lat": 43.6127598,
      "lon": 6.481572,
      "timestamp": "2021-01-30T12:14:30Z",
      "version": 13,
      "changeset": 98411841,
      "user": "chamdam",
      "uid": 10397245,
      "tags": {
        "addr:postcode": "83131",
        "name": "Montferrat",
        "name:oc": "Montferrat",
        "place": "village",
        "population": "1538",
        "ref:FR:SIREN": "218300820",
        "source:name:oc": "ieo-bdtopoc",
        "wikidata": "Q1364725",
        "wikipedia": "fr:Montferrat (Var)"
      }
    },
    {
      "type": "node",
      "id": 661802342,
      "lat": 43.7092258,
      "lon": 6.5086122,
      "timestamp": "2020-01-18T13:38:22Z",
      "version": 11,
      "changeset": 79731183,
      "user": "daop5510",
      "uid": 300696,
      "tags": {
        "addr:postcode": "83840",
        "name": "Comps-sur-Artuby",
        "name:oc": "Comps d'Artubi",
        "place": "village",
        "source:name:oc": "ieo-bdtopoc"
      }
    },
    {
      "type": "node",
      "id": 692150703,
      "lat": 44.0033624,
      "lon": 6.6749566,
      "timestamp": "2015-01-15T21:44:00Z",
      "version": 2,
      "changeset": 28174281,
      "user": "geow",
      "uid": 223093,
      "tags": {
        "ele": "1350",
        "mountain_pass": "yes",
        "name": "Col de Pelloussis",
        "natural": "saddle"
      }
    },
    {
      "type": "node",
      "id": 692191028,
      "lat": 43.9604876,
      "lon": 6.6812262,
      "timestamp": "2015-05-17T15:11:37Z",
      "version": 2,
      "changeset": 31229794,
      "user": "devot",
      "uid": 2889303,
      "tags": {
        "name": "Chambre du Roi",
        "natural": "cave_entrance"
      }
    },
    {
      "type": "node",
      "id": 692761040,
      "lat": 43.8369095,
      "lon": 6.422686,
      "timestamp": "2013-11-02T17:22:19Z",
      "version": 2,
      "changeset": 18678751,
      "user": "gscholz",
      "uid": 109705,
      "tags": {
        "name": "Chasteuil",
        "place": "hamlet"
      }
    },
    {
      "type": "node",
      "id": 693663286,
      "lat": 44.0472857,
      "lon": 6.5932018,
      "timestamp": "2013-12-14T12:05:03Z",
      "version": 2,
      "changeset": 19447315,
      "user": "RedFox",
      "uid": 10610,
      "tags": {
        "name": "La Colle Saint-Michel",
        "place": "hamlet"
      }
    },
    {
      "type": "node",
      "id": 693663288,
      "lat": 43.9560874,
      "lon": 6.6862811,
      "timestamp": "2013-12-14T12:05:54Z",
      "version": 2,
      "changeset": 19447315,
      "user": "RedFox",
      "uid": 10610,
      "tags": {
        "name": "Les Scaffarels",
        "place": "hamlet"
      }
    },
    {
      "type": "node",
      "id": 694282508,
      "lat": 43.667772,
      "lon": 6.9857458,
      "timestamp": "2020-03-23T03:17:42Z",
      "version": 6,
      "changeset": 82500335,
      "user": "Olyon",
      "uid": 1443767,
      "tags": {
        "brand": "Carrefour Market",
        "brand:wikidata": "Q2689639",
        "brand:wikipedia": "fr:Carrefour Market",
        "name": "Carrefour Market",
        "operator": "Carrefour",
        "shop": "supermarket",
        "wheelchair": "yes"
      }
    },
    {
      "type": "node",
      "id": 699826014,
      "lat": 43.5807746,
      "lon": 7.0063868,
      "timestamp": "2020-03-23T03:17:42Z",
      "version": 3,
      "changeset": 82500335,
      "user": "Olyon",
      "uid": 1443767,
      "tags": {
        "brand": "Netto",
        "brand:wikidata": "Q2720988",
        "brand:wikipedia": "fr:Netto",
        "name": "Netto",
        "operator": "Netto",
        "shop": "supermarket"
      }
    },
    {
      "type": "node",
      "id": 700359745,
      "lat": 43.665392,
      "lon": 6.992786,
      "timestamp": "2020-06-16T12:30:44Z",
      "version": 3,
      "changeset": 86722154,
      "user": "jcr83",
      "uid": 234940,
      "tags": {
        "amenity": "drinking_water",
        "start_date": "1906"
      }
    },
    {
      "type": "node",
      "id": 700359746,
      "lat": 43.6650816,
      "lon": 7.0003555,
      "timestamp": "2010-04-17T22:01:18Z",
      "version": 1,
      "changeset": 4452847,
      "user": "Gnurfos",
      "uid": 181250,
      "tags": {
        "amenity": "drinking_water"
      }
    },
    {
      "type": "node",
      "id": 706941518,
      "lat": 43.8487499,
      "lon": 6.726347,
      "timestamp": "2020-04-28T15:32:01Z",
      "version": 12,
      "changeset": 84276812,
      "user": "oc-OpenStreetMap",
      "uid": 4224320,
      "tags": {
        "addr:postcode": "06850",
        "name": "Saint-Auban",
        "name:oc": "Sant Auban",
        "place": "village",
        "population": "222",
        "ref:FR:SIREN": "210601167",
        "source:name:oc": "ieo-bdtopoc",
        "source:population": "INSEE 2013"
      }
    },
    {
      "type": "node",
      "id": 706941538,
      "lat": 43.8642047,
      "lon": 6.7571672,
      "timestamp": "2020-04-27T18:37:38Z",
      "version": 13,
      "changeset": 84215547,
      "user": "oc-OpenStreetMap",
      "uid": 4224320,
      "tags": {
        "name": "Briançonnet",
        "name:oc": "Briançonet",
        "place": "village",
        "postal_code": "06850",
        "ref:FR:FANTOIR": "06024B142M",
        "source:name:oc": "ieo-bdtopoc"
      }
    },
    {
      "type": "node",
      "id": 706941549,
      "lat": 43.8885251,
      "lon": 6.8630222,
      "timestamp": "2020-04-28T11:21:48Z",
      "version": 11,
      "changeset": 84262430,
      "user": "oc-OpenStreetMap",
      "uid": 4224320,
      "tags": {
        "addr:postcode": "06910",
        "name": "Collongues",
        "name:oc": "Colongas",
        "place": "village",
        "population": "100",
        "ref:FR:SIREN": "210600458",
        "source:name:oc": "ieo-bdtopoc",
        "source:population": "INSEE 2013",
        "wikipedia": "fr:Collongues, Alpes-Maritimes"
      }
    },
    {
      "type": "node",
      "id": 706941630,
      "lat": 43.8834301,
      "lon": 6.9059993,
      "timestamp": "2020-04-28T15:32:01Z",
      "version": 12,
      "changeset": 84276812,
      "user": "oc-OpenStreetMap",
      "uid": 4224320,
      "tags": {
        "addr:postcode": "06910",
        "name": "Sallagriffon",
        "name:oc": "Salagrifon",
        "place": "village",
        "population": "50",
        "ref:FR:SIREN": "210601316",
        "source:name:oc": "ieo-bdtopoc",
        "source:population": "INSEE 2013",
        "wikidata": "Q988883",
        "wikipedia": "fr:Sallagriffon"
      }
    },
    {
      "type": "node",
      "id": 706965633,
      "lat": 43.8150776,
      "lon": 6.8038667,
      "timestamp": "2019-06-02T13:59:07Z",
      "version": 5,
      "changeset": 70857468,
      "user": "sergio7826",
      "uid": 411998,
      "tags": {
        "ele": "1439",
        "mountain_pass": "yes",
        "name": "Col de Bleine",
        "natural": "saddle"
      }
    },
    {
      "type": "node",
      "id": 707021132,
      "lat": 43.8723046,
      "lon": 7.0054621,
      "timestamp": "2020-04-28T11:21:48Z",
      "version": 15,
      "changeset": 84262430,
      "user": "oc-OpenStreetMap",
      "uid": 4224320,
      "tags": {
        "addr:postcode": "06910",
        "name": "La Roque-en-Provence",
        "name:it": "Roccasterone di Grassa",
        "name:oc": "Roquesteron de Grassa",
        "old_name": "Roquestéron-Grasse",
        "place": "village",
        "population": "79",
        "ref:FR:SIREN": "210601076",
        "source:name": "Décret n°2015-1487 du 16 novembre 2015 portant changement du nom de communes",
        "source:name:oc": "ieo-bdtopoc",
        "source:population": "INSEE 2013"
      }
    },
    {
      "type": "node",
      "id": 707021133,
      "lat": 43.8741078,
      "lon": 7.0060344,
      "timestamp": "2020-04-28T15:32:01Z",
      "version": 14,
      "changeset": 84276812,
      "user": "oc-OpenStreetMap",
      "uid": 4224320,
      "tags": {
        "name": "Roquestéron",
        "name:it": "Roccasterone",
        "name:oc": "Roquesteron",
        "place": "village",
        "population": "550",
        "postal_code": "06910",
        "ref:FR:SIREN": "210601068",
        "source:name:oc": "ieo-bdtopoc",
        "source:population": "INSEE 2013",
        "website": "https://roquesteron.fr/"
      }
    },
    {
      "type": "node",
      "id": 727296192,
      "lat": 43.6063305,
      "lon": 6.7566083,
      "timestamp": "2018-04-21T13:27:15Z",
      "version": 3,
      "changeset": 58290431,
      "user": "PanierAvide",
      "uid": 214436,
      "tags": {
        "brand": "Lidl",
        "brand:website": "http://www.lidl.fr",
        "brand:wikidata": "Q151954",
        "brand:wikipedia": "fr:Lidl",
        "name": "Lidl",
        "operator": "Lidl",
        "shop": "supermarket"
      }
    },
    {
      "type": "node",
      "id": 727296195,
      "lat": 43.6054138,
      "lon": 6.7667471,
      "timestamp": "2021-08-06T10:03:31Z",
      "version": 4,
      "changeset": 109250495,
      "user": "cpot",
      "uid": 14857,
      "tags": {
        "brand": "Aldi",
        "brand:wikidata": "Q125054",
        "disused": "yes",
        "name": "Aldi",
        "operator": "Aldi",
        "shop": "supermarket"
      }
    },
    {
      "type": "node",
      "id": 736464746,
      "lat": 43.7528054,
      "lon": 6.861257,
      "timestamp": "2019-08-17T21:29:05Z",
      "version": 3,
      "changeset": 73452139,
      "user": "Mg2",
      "uid": 852996,
      "tags": {
        "name": "Canaux",
        "place": "hamlet",
        "ref:FR:FANTOIR": "060031000E",
        "source:name": "cadastre-dgi-fr source : Direction Générale des Impôts - Cadastre. Mise à jour : 2019"
      }
    },
    {
      "type": "node",
      "id": 736464947,
      "lat": 43.7876313,
      "lon": 6.8464193,
      "timestamp": "2015-01-15T21:43:54Z",
      "version": 3,
      "changeset": 28174281,
      "user": "geow",
      "uid": 223093,
      "tags": {
        "ele": "1248",
        "mountain_pass": "yes",
        "name": "Col de Castellaras",
        "natural": "saddle"
      }
    },
    {
      "type": "node",
      "id": 736465048,
      "lat": 43.7419765,
      "lon": 6.9456811,
      "timestamp": "2015-04-03T11:41:21Z",
      "version": 3,
      "changeset": 29949860,
      "user": "Vlad",
      "uid": 24247,
      "tags": {
        "ele": "1120",
        "mountain_pass": "yes",
        "name": "Col de l'Êcre",
        "natural": "saddle"
      }
    },
    {
      "type": "node",
      "id": 743256812,
      "lat": 43.8864889,
      "lon": 7.0200438,
      "timestamp": "2014-02-10T18:02:49Z",
      "version": 4,
      "changeset": 20489890,
      "user": "rudolf",
      "uid": 52778,
      "tags": {
        "amenity": "drinking_water"
      }
    },
    {
      "type": "node",
      "id": 743256906,
      "lat": 43.8865729,
      "lon": 7.0202265,
      "timestamp": "2020-04-28T11:21:49Z",
      "version": 10,
      "changeset": 84262430,
      "user": "oc-OpenStreetMap",
      "uid": 4224320,
      "tags": {
        "addr:postcode": "06910",
        "alt_name:it": "Quebris",
        "name": "Cuébris",
        "name:it": "Cuebris",
        "name:oc": "Cuèbri",
        "place": "village",
        "population": "150",
        "ref:FR:SIREN": "210600524",
        "source:name:oc": "ieo-bdtopoc",
        "source:population": "INSEE 2013"
      }
    },
    {
      "type": "node",
      "id": 745625194,
      "lat": 43.8429126,
      "lon": 6.8587664,
      "timestamp": "2020-04-28T11:21:49Z",
      "version": 7,
      "changeset": 84262430,
      "user": "oc-OpenStreetMap",
      "uid": 4224320,
      "tags": {
        "addr:postcode": "06910",
        "name": "Le Mas",
        "name:oc": "Lo Mas",
        "place": "village",
        "population": "169",
        "source:name:oc": "ieo-bdtopoc",
        "source:population": "INSEE 2013"
      }
    },
    {
      "type": "node",
      "id": 745625252,
      "lat": 43.8386655,
      "lon": 6.82809,
      "timestamp": "2015-01-15T21:44:01Z",
      "version": 3,
      "changeset": 28174281,
      "user": "geow",
      "uid": 223093,
      "tags": {
        "ele": "1136",
        "mountain_pass": "yes",
        "name": "Col de Pinpinier",
        "natural": "saddle"
      }
    },
    {
      "type": "node",
      "id": 745694550,
      "lat": 43.8339656,
      "lon": 6.8418673,
      "timestamp": "2014-02-10T18:02:49Z",
      "version": 3,
      "changeset": 20489890,
      "user": "rudolf",
      "uid": 52778,
      "tags": {
        "amenity": "drinking_water"
      }
    },
    {
      "type": "node",
      "id": 745694863,
      "lat": 43.8340433,
      "lon": 6.8417748,
      "timestamp": "2010-05-22T16:15:26Z",
      "version": 1,
      "changeset": 4775702,
      "user": "stac",
      "uid": 259262,
      "tags": {
        "name": "Les Sausses",
        "place": "hamlet"
      }
    },
    {
      "type": "node",
      "id": 745747758,
      "lat": 43.864674,
      "lon": 6.7581504,
      "timestamp": "2014-08-21T11:36:51Z",
      "version": 4,
      "changeset": 24907181,
      "user": "Gaspard Le Gall",
      "uid": 2021646,
      "tags": {
        "amenity": "drinking_water"
      }
    },
    {
      "type": "node",
      "id": 747440853,
      "lat": 43.7954853,
      "lon": 6.9444768,
      "timestamp": "2010-05-24T20:16:44Z",
      "version": 1,
      "changeset": 4798117,
      "user": "stac",
      "uid": 259262,
      "tags": {
        "amenity": "drinking_water"
      }
    },
    {
      "type": "node",
      "id": 747440916,
      "lat": 43.8809293,
      "lon": 6.6905765,
      "timestamp": "2013-12-28T19:20:16Z",
      "version": 5,
      "changeset": 19684760,
      "user": "gscholz",
      "uid": 109705,
      "tags": {
        "name": "La Sagne",
        "place": "hamlet"
      }
    },
    {
      "type": "node",
      "id": 747441441,
      "lat": 43.8674829,
      "lon": 6.7103347,
      "timestamp": "2010-05-24T20:16:54Z",
      "version": 1,
      "changeset": 4798117,
      "user": "stac",
      "uid": 259262,
      "tags": {
        "name": "Le Prignolet",
        "place": "hamlet"
      }
    },
    {
      "type": "node",
      "id": 749497793,
      "lat": 43.7734923,
      "lon": 6.7858589,
      "timestamp": "2020-01-20T07:30:53Z",
      "version": 15,
      "changeset": 79782031,
      "user": "jcr83",
      "uid": 234940,
      "tags": {
        "name": "Andon",
        "name:oc": "Andaon",
        "place": "village",
        "postal_code": "06750",
        "ref:FR:SIREN": "210600037",
        "source:name:oc": "ieo-bdtopoc",
        "wikidata": "Q841565",
        "wikipedia": "fr:Andon (Alpes-Maritimes)"
      }
    },
    {
      "type": "node",
      "id": 749497876,
      "lat": 43.7756254,
      "lon": 6.8120705,
      "timestamp": "2015-01-15T21:44:34Z",
      "version": 4,
      "changeset": 28174281,
      "user": "geow",
      "uid": 223093,
      "tags": {
        "ele": "1175",
        "mountain_pass": "yes",
        "name": "Collet de la Selle",
        "natural": "saddle"
      }
    },
    {
      "type": "node",
      "id": 749784119,
      "lat": 43.7616764,
      "lon": 6.7592463,
      "timestamp": "2017-12-28T14:33:18Z",
      "version": 2,
      "changeset": 54984754,
      "user": "JFK73",
      "uid": 662440,
      "tags": {
        "name": "La Moulière",
        "place": "hamlet"
      }
    },
    {
      "type": "node",
      "id": 749784504,
      "lat": 43.7662129,
      "lon": 6.730841,
      "timestamp": "2015-01-15T21:44:10Z",
      "version": 2,
      "changeset": 28174281,
      "user": "geow",
      "uid": 223093,
      "tags": {
        "ele": "1401",
        "mountain_pass": "yes",
        "name": "Col de la Cornille",
        "natural": "saddle"
      }
    },
    {
      "type": "node",
      "id": 759597487,
      "lat": 43.9586931,
      "lon": 6.6299048,
      "timestamp": "2018-02-11T15:20:48Z",
      "version": 5,
      "changeset": 56266053,
      "user": "sergio7826",
      "uid": 411998,
      "tags": {
        "ele": "1471",
        "mountain_pass": "yes",
        "name": "Colle Basse",
        "natural": "saddle"
      }
    },
    {
      "type": "node",
      "id": 760028574,
      "lat": 43.7413269,
      "lon": 6.9000361,
      "timestamp": "2020-04-28T11:21:49Z",
      "version": 12,
      "changeset": 84262430,
      "user": "oc-OpenStreetMap",
      "uid": 4224320,
      "tags": {
        "addr:postcode": "06460",
        "name": "Caussols",
        "name:oc": "Caussòus",
        "name:ru": "Коссоль",
        "place": "village",
        "population": "242",
        "ref:FR:SIREN": "210600375",
        "source:name:oc": "ieo-bdtopoc",
        "source:population": "INSEE 2013",
        "wikidata": "Q845975",
        "wikipedia": "fr:Caussols"
      }
    },
    {
      "type": "node",
      "id": 765889286,
      "lat": 43.8902406,
      "lon": 6.8263163,
      "timestamp": "2019-08-04T08:36:31Z",
      "version": 4,
      "changeset": 72984646,
      "user": "oc-OpenStreetMap",
      "uid": 4224320,
      "tags": {
        "name": "Amirat",
        "name:oc": "Amirat",
        "place": "hamlet",
        "source:name:oc": "ieo-bdtopoc"
      }
    },
    {
      "type": "node",
      "id": 765889292,
      "lat": 43.8651017,
      "lon": 6.8047371,
      "timestamp": "2020-04-28T11:21:50Z",
      "version": 9,
      "changeset": 84262430,
      "user": "oc-OpenStreetMap",
      "uid": 4224320,
      "tags": {
        "addr:postcode": "06850",
        "name": "Gars",
        "name:oc": "Gars",
        "place": "village",
        "population": "60",
        "ref:FR:SIREN": "210600631",
        "source:name:oc": "ieo-bdtopoc"
      }
    },
    {
      "type": "node",
      "id": 765889378,
      "lat": 43.8879112,
      "lon": 6.8217125,
      "timestamp": "2015-02-14T18:57:48Z",
      "version": 2,
      "changeset": 28848912,
      "user": "gscholz",
      "uid": 109705,
      "tags": {
        "name": "Les Argots",
        "place": "hamlet"
      }
    },
    {
      "type": "node",
      "id": 765892780,
      "lat": 43.9145218,
      "lon": 6.8079459,
      "timestamp": "2020-04-23T21:43:00Z",
      "version": 8,
      "changeset": 84024070,
      "user": "oc-OpenStreetMap",
      "uid": 4224320,
      "tags": {
        "addr:postcode": "04320",
        "name": "Val-de-Chalvagne",
        "name:oc": "Vau de Chalvanha",
        "place": "village",
        "source:name:oc": "ieo-bdtopoc"
      }
    },
    {
      "type": "node",
      "id": 765893204,
      "lat": 43.8831285,
      "lon": 6.7816505,
      "timestamp": "2015-01-15T21:43:53Z",
      "version": 2,
      "changeset": 28174281,
      "user": "geow",
      "uid": 223093,
      "tags": {
        "ele": "1200",
        "mountain_pass": "yes",
        "name": "Col de Buis",
        "natural": "saddle"
      }
    },
    {
      "type": "node",
      "id": 765898060,
      "lat": 43.8378968,
      "lon": 6.757159,
      "timestamp": "2019-10-01T11:50:22Z",
      "version": 2,
      "changeset": 75146251,
      "user": "Cehagenmerak",
      "uid": 2333577,
      "tags": {
        "name": "Les Hautes Baumettes",
        "place": "hamlet"
      }
    },
    {
      "type": "node",
      "id": 765901569,
      "lat": 43.8048436,
      "lon": 6.8048661,
      "timestamp": "2015-05-25T11:20:49Z",
      "version": 6,
      "changeset": 31442227,
      "user": "rene78",
      "uid": 257555,
      "tags": {
        "name": "Thorenc",
        "place": "hamlet"
      }
    },
    {
      "type": "node",
      "id": 765912694,
      "lat": 43.7418656,
      "lon": 6.9009469,
      "timestamp": "2010-06-06T16:44:16Z",
      "version": 1,
      "changeset": 4919867,
      "user": "stac",
      "uid": 259262,
      "tags": {
        "amenity": "drinking_water"
      }
    },
    {
      "type": "node",
      "id": 771354926,
      "lat": 43.7954625,
      "lon": 6.9810413,
      "timestamp": "2012-05-09T17:41:38Z",
      "version": 3,
      "changeset": 11551478,
      "user": "sergio7826",
      "uid": 411998,
      "tags": {
        "name": "Saint-Pons",
        "place": "hamlet"
      }
    },
    {
      "type": "node",
      "id": 792084196,
      "lat": 43.9851409,
      "lon": 6.3996295,
      "timestamp": "2020-04-23T21:43:01Z",
      "version": 10,
      "changeset": 84024070,
      "user": "oc-OpenStreetMap",
      "uid": 4224320,
      "tags": {
        "addr:postcode": "04330",
        "name": "Saint-Lions",
        "name:oc": "Sant Lionç",
        "place": "village",
        "ref:FR:SIREN": "210401873",
        "source:name:oc": "ieo-bdtopoc"
      }
    },
    {
      "type": "node",
      "id": 792085247,
      "lat": 43.9956802,
      "lon": 6.3321435,
      "timestamp": "2013-12-14T12:04:30Z",
      "version": 2,
      "changeset": 19447315,
      "user": "RedFox",
      "uid": 10610,
      "tags": {
        "name": "Chaudon",
        "place": "hamlet"
      }
    },
    {
      "type": "node",
      "id": 804265058,
      "lat": 44.048645,
      "lon": 6.4430487,
      "timestamp": "2010-07-06T20:24:45Z",
      "version": 1,
      "changeset": 5154083,
      "user": "Djam",
      "uid": 24982,
      "tags": {
        "amenity": "drinking_water"
      }
    },
    {
      "type": "node",
      "id": 804265193,
      "lat": 44.0477576,
      "lon": 6.4434951,
      "timestamp": "2020-04-23T21:43:01Z",
      "version": 10,
      "changeset": 84024070,
      "user": "oc-OpenStreetMap",
      "uid": 4224320,
      "tags": {
        "addr:postcode": "04170",
        "name": "Lambruisse",
        "name:oc": "Lambrueissa",
        "place": "village",
        "source:name:oc": "ieo-bdtopoc"
      }
    },
    {
      "type": "node",
      "id": 817682404,
      "lat": 43.8910064,
      "lon": 6.728926,
      "timestamp": "2015-01-15T21:43:58Z",
      "version": 2,
      "changeset": 28174281,
      "user": "geow",
      "uid": 223093,
      "tags": {
        "ele": "1100",
        "mountain_pass": "yes",
        "name": "Col de Laval",
        "natural": "saddle"
      }
    },
    {
      "type": "node",
      "id": 823839005,
      "lat": 43.9141856,
      "lon": 6.54233,
      "timestamp": "2020-04-23T21:43:02Z",
      "version": 10,
      "changeset": 84024070,
      "user": "oc-OpenStreetMap",
      "uid": 4224320,
      "tags": {
        "addr:postcode": "04170",
        "name": "Saint-Julien-du-Verdon",
        "name:oc": "Sant Julian de Verdon",
        "place": "village",
        "ref:FR:SIREN": "210401832",
        "source:name:oc": "ieo-bdtopoc"
      }
    },
    {
      "type": "node",
      "id": 823839109,
      "lat": 43.7847772,
      "lon": 6.5184005,
      "timestamp": "2020-01-18T13:38:22Z",
      "version": 9,
      "changeset": 79731183,
      "user": "daop5510",
      "uid": 300696,
      "tags": {
        "addr:postcode": "83840",
        "name": "Le Bourguet",
        "name:oc": "Lo Borguet",
        "place": "village",
        "source:name:oc": "ieo-bdtopoc"
      }
    },
    {
      "type": "node",
      "id": 823840166,
      "lat": 43.8778295,
      "lon": 6.5075277,
      "timestamp": "2011-11-20T17:30:03Z",
      "version": 3,
      "changeset": 9887199,
      "user": "sergio7826",
      "uid": 411998,
      "tags": {
        "name": "Cheiron",
        "place": "hamlet"
      }
    },
    {
      "type": "node",
      "id": 823840295,
      "lat": 43.8695119,
      "lon": 6.5106406,
      "timestamp": "2019-11-02T20:17:53Z",
      "version": 2,
      "changeset": 76536916,
      "user": "sergio7826",
      "uid": 411998,
      "tags": {
        "alt_name": "Col de la Blache",
        "ele": "887",
        "name": "Col de Cheiron",
        "natural": "saddle"
      }
    },
    {
      "type": "node",
      "id": 823841446,
      "lat": 43.957775,
      "lon": 6.4339583,
      "timestamp": "2010-07-18T23:05:39Z",
      "version": 1,
      "changeset": 5256558,
      "user": "krysst",
      "uid": 16038,
      "tags": {
        "name": "Gévaudan",
        "place": "hamlet"
      }
    },
    {
      "type": "node",
      "id": 823842940,
      "lat": 43.8112883,
      "lon": 6.4922215,
      "timestamp": "2010-07-18T23:06:14Z",
      "version": 1,
      "changeset": 5256558,
      "user": "krysst",
      "uid": 16038,
      "tags": {
        "name": "Robion",
        "place": "hamlet"
      }
    },
    {
      "type": "node",
      "id": 823843575,
      "lat": 43.7425929,
      "lon": 6.4993468,
      "timestamp": "2020-05-10T11:18:44Z",
      "version": 4,
      "changeset": 84968064,
      "user": "BTH",
      "uid": 481447,
      "tags": {
        "name": "Jabron (Comps-sur-Artuby)",
        "place": "hamlet"
      }
    },
    {
      "type": "node",
      "id": 824116254,
      "lat": 43.8601435,
      "lon": 7.0247277,
      "timestamp": "2015-08-29T14:01:07Z",
      "version": 3,
      "changeset": 33664260,
      "user": "Antred",
      "uid": 2766625,
      "tags": {
        "addr:city": "Roquestéron",
        "addr:housenumber": "2",
        "addr:postcode": "06910",
        "addr:street": "Chemin Chabauda",
        "contact:name": "Françoise BONORINO",
        "contact:phone": "+33 4 93 05 91 85",
        "name": "Camping des Fines Roches",
        "phone": "+33 4 93 05 91 85",
        "stars": "2",
        "tourism": "camp_site"
      }
    },
    {
      "type": "node",
      "id": 824757050,
      "lat": 43.8608337,
      "lon": 6.9389222,
      "timestamp": "2010-07-19T16:44:45Z",
      "version": 1,
      "changeset": 5262827,
      "user": "stac",
      "uid": 259262,
      "tags": {
        "name": "Vascognes",
        "place": "hamlet"
      }
    },
    {
      "type": "node",
      "id": 825153298,
      "lat": 43.6614537,
      "lon": 6.9883789,
      "timestamp": "2013-05-02T20:03:05Z",
      "version": 2,
      "changeset": 15952033,
      "user": "fmorel",
      "uid": 331938,
      "tags": {
        "amenity": "drinking_water"
      }
    },
    {
      "type": "node",
      "id": 829831620,
      "lat": 43.6802923,
      "lon": 6.971321,
      "timestamp": "2021-02-17T07:57:36Z",
      "version": 3,
      "changeset": 99432185,
      "user": "jcr83",
      "uid": 234940,
      "tags": {
        "amenity": "drinking_water"
      }
    },
    {
      "type": "node",
      "id": 838065316,
      "lat": 43.6658266,
      "lon": 6.9273055,
      "timestamp": "2010-07-29T21:26:41Z",
      "version": 1,
      "changeset": 5350495,
      "user": "Raphink",
      "uid": 47924,
      "tags": {
        "amenity": "drinking_water",
        "fixme": "à replacer correctement quand les chemins seront tracés"
      }
    },
    {
      "type": "node",
      "id": 840875064,
      "lat": 43.6606517,
      "lon": 6.9471451,
      "timestamp": "2010-07-31T21:40:39Z",
      "version": 1,
      "changeset": 5366252,
      "user": "Raphink",
      "uid": 47924,
      "tags": {
        "amenity": "drinking_water"
      }
    },
    {
      "type": "node",
      "id": 840905072,
      "lat": 43.6425931,
      "lon": 6.9589522,
      "timestamp": "2010-07-31T21:55:55Z",
      "version": 1,
      "changeset": 5366388,
      "user": "Raphink",
      "uid": 47924,
      "tags": {
        "amenity": "drinking_water"
      }
    },
    {
      "type": "node",
      "id": 865472789,
      "lat": 44.0543709,
      "lon": 6.4268125,
      "timestamp": "2021-09-10T16:41:44Z",
      "version": 5,
      "changeset": 111032896,
      "user": "dahu83",
      "uid": 371756,
      "tags": {
        "ele": "1230",
        "mountain_pass": "yes",
        "name": "Col du Défens",
        "natural": "saddle"
      }
    },
    {
      "type": "node",
      "id": 879347715,
      "lat": 44.0441702,
      "lon": 6.5241418,
      "timestamp": "2013-12-14T12:04:14Z",
      "version": 4,
      "changeset": 19447315,
      "user": "RedFox",
      "uid": 10610,
      "tags": {
        "name": "Argens",
        "place": "hamlet"
      }
    },
    {
      "type": "node",
      "id": 894872239,
      "lat": 43.7989923,
      "lon": 6.4021491,
      "timestamp": "2019-11-25T17:01:40Z",
      "version": 10,
      "changeset": 77535779,
      "user": "StephaneP",
      "uid": 439947,
      "tags": {
        "addr:postcode": "04120",
        "name": "Rougon",
        "name:oc": "Rogon",
        "place": "village",
        "population": "105",
        "ref:FR:SIREN": "210401717",
        "source:name:oc": "ieo-bdtopoc"
      }
    },
    {
      "type": "node",
      "id": 925373311,
      "lat": 43.7802489,
      "lon": 6.3416497,
      "timestamp": "2021-08-31T16:32:00Z",
      "version": 7,
      "changeset": 110523320,
      "user": "geopard",
      "uid": 498848,
      "tags": {
        "addr:city": "La Palud-sur-Verdon",
        "addr:postcode": "04120",
        "addr:street": "Rue Principale",
        "brand": "Proxi",
        "brand:wikidata": "Q3408522",
        "brand:wikipedia": "fr:Proxi",
        "name": "Proxi",
        "opening_hours:covid19": "open",
        "operator": "Provi",
        "shop": "convenience"
      }
    },
    {
      "type": "node",
      "id": 935920756,
      "lat": 43.9530803,
      "lon": 6.5210223,
      "timestamp": "2011-05-05T17:21:59Z",
      "version": 2,
      "changeset": 8059038,
      "user": "Walter Schlögl",
      "uid": 78656,
      "tags": {
        "name": "Méouilles",
        "place": "hamlet"
      }
    },
    {
      "type": "node",
      "id": 938403134,
      "lat": 43.9963353,
      "lon": 6.9228535,
      "timestamp": "2015-01-15T21:44:00Z",
      "version": 4,
      "changeset": 28174281,
      "user": "geow",
      "uid": 223093,
      "tags": {
        "ele": "1474",
        "mountain_pass": "yes",
        "name": "Col de Panégière",
        "natural": "saddle"
      }
    },
    {
      "type": "node",
      "id": 938403501,
      "lat": 44.0045994,
      "lon": 6.9145334,
      "timestamp": "2015-12-28T15:12:22Z",
      "version": 4,
      "changeset": 36221552,
      "user": "jcr83",
      "uid": 234940,
      "tags": {
        "ele": "1527",
        "mountain_pass": "yes",
        "name": "Col de Pras",
        "natural": "saddle"
      }
    },
    {
      "type": "node",
      "id": 938403577,
      "lat": 43.9947174,
      "lon": 6.9005431,
      "timestamp": "2020-12-22T02:24:40Z",
      "version": 7,
      "changeset": 96223774,
      "user": "Hervé TUC",
      "uid": 922338,
      "tags": {
        "ele": "1283",
        "mountain_pass": "yes",
        "name": "Col du Mont",
        "natural": "saddle"
      }
    },
    {
      "type": "node",
      "id": 938413496,
      "lat": 44.0218552,
      "lon": 6.9154465,
      "timestamp": "2015-06-25T20:23:03Z",
      "version": 2,
      "changeset": 32213361,
      "user": "gscholz",
      "uid": 109705,
      "tags": {
        "ele": "1594",
        "mountain_pass": "yes",
        "name": "Collet de la Vigude",
        "natural": "saddle"
      }
    },
    {
      "type": "node",
      "id": 997415575,
      "lat": 43.9941583,
      "lon": 6.7636306,
      "timestamp": "2020-04-23T21:43:03Z",
      "version": 7,
      "changeset": 84024070,
      "user": "oc-OpenStreetMap",
      "uid": 4224320,
      "tags": {
        "addr:postcode": "04320",
        "name": "Castellet-lès-Sausses",
        "name:oc": "Castelet de Saussas",
        "place": "village",
        "source:name:oc": "ieo-bdtopoc"
      }
    },
    {
      "type": "node",
      "id": 997523500,
      "lat": 43.7698605,
      "lon": 6.9988287,
      "timestamp": "2010-11-21T09:10:44Z",
      "version": 1,
      "changeset": 6420532,
      "user": "Djam",
      "uid": 24982,
      "tags": {
        "amenity": "drinking_water"
      }
    },
    {
      "type": "node",
      "id": 998129121,
      "lat": 43.9839203,
      "lon": 6.7598459,
      "timestamp": "2013-01-31T21:54:53Z",
      "version": 2,
      "changeset": 14864852,
      "user": "tripou69",
      "uid": 1136712,
      "tags": {
        "name": "Enriez",
        "place": "hamlet"
      }
    },
    {
      "type": "node",
      "id": 1024091848,
      "lat": 43.5886708,
      "lon": 6.8384902,
      "timestamp": "2010-12-05T23:26:25Z",
      "version": 1,
      "changeset": 6558290,
      "user": "gbassiere",
      "uid": 118678,
      "tags": {
        "name": "Les Marjoris",
        "place": "hamlet"
      }
    },
    {
      "type": "node",
      "id": 1039595457,
      "lat": 43.6364106,
      "lon": 6.6445779,
      "timestamp": "2020-01-18T13:48:16Z",
      "version": 9,
      "changeset": 79731398,
      "user": "daop5510",
      "uid": 300696,
      "tags": {
        "addr:postcode": "83440",
        "name": "Seillans",
        "name:oc": "Selhan",
        "name:ru": "Сейан",
        "place": "village",
        "source:name:oc": "ieo-bdtopoc"
      }
    },
    {
      "type": "node",
      "id": 1097976101,
      "lat": 43.6492014,
      "lon": 6.8590577,
      "timestamp": "2020-04-28T15:32:04Z",
      "version": 15,
      "changeset": 84276812,
      "user": "oc-OpenStreetMap",
      "uid": 4224320,
      "tags": {
        "name": "Spéracèdes",
        "name:oc": "Las Perascedas",
        "name:ru": "Сперасед",
        "name:uk": "Сперасед",
        "place": "village",
        "postal_code": "06530",
        "ref:FR:SIREN": "210601373",
        "source:name:oc": "ieo-bdtopoc",
        "wikidata": "Q585268",
        "wikipedia": "fr:Spéracèdes"
      }
    },
    {
      "type": "node",
      "id": 1100942159,
      "lat": 43.6562749,
      "lon": 6.8755075,
      "timestamp": "2020-04-27T18:37:40Z",
      "version": 16,
      "changeset": 84215547,
      "user": "oc-OpenStreetMap",
      "uid": 4224320,
      "tags": {
        "name": "Cabris",
        "name:oc": "Cabris",
        "name:ru": "Кабри",
        "name:uk": "Кабрі",
        "place": "village",
        "postal_code": "06530",
        "ref:FR:SIREN": "210600268",
        "source:name:oc": "ieo-bdtopoc",
        "wikidata": "Q741972",
        "wikipedia": "fr:Cabris"
      }
    },
    {
      "type": "node",
      "id": 1100959697,
      "lat": 43.6399782,
      "lon": 6.8462891,
      "timestamp": "2020-04-28T11:21:53Z",
      "version": 15,
      "changeset": 84262430,
      "user": "oc-OpenStreetMap",
      "uid": 4224320,
      "tags": {
        "name": "Le Tignet",
        "name:oc": "Lo Tinhet",
        "name:ru": "Ле-Тинье",
        "name:uk": "Ле-Тіньє",
        "place": "village",
        "postal_code": "06530",
        "ref:FR:SIREN": "210601407",
        "source:name:oc": "ieo-bdtopoc",
        "wikidata": "Q868100",
        "wikipedia": "fr:Le Tignet"
      }
    },
    {
      "type": "node",
      "id": 1102349895,
      "lat": 43.6065134,
      "lon": 6.7712511,
      "timestamp": "2011-01-13T18:39:59Z",
      "version": 1,
      "changeset": 6960112,
      "user": "Heinz_V",
      "uid": 91490,
      "tags": {
        "name": "Les Chaumettes",
        "tourism": "camp_site"
      }
    },
    {
      "type": "node",
      "id": 1116355219,
      "lat": 43.7498159,
      "lon": 6.6298764,
      "timestamp": "2018-08-22T11:11:14Z",
      "version": 4,
      "changeset": 61884107,
      "user": "Mg2",
      "uid": 852996,
      "tags": {
        "ele": "1063",
        "mountain_pass": "yes",
        "name": "Col de Clavel",
        "natural": "saddle",
        "wikidata": "Q2982031"
      }
    },
    {
      "type": "node",
      "id": 1116355409,
      "lat": 43.7242677,
      "lon": 6.6291088,
      "timestamp": "2020-01-18T13:48:16Z",
      "version": 11,
      "changeset": 79731398,
      "user": "daop5510",
      "uid": 300696,
      "tags": {
        "ele": "960",
        "name": "La Roque-Esclapon",
        "name:oc": "La Ròca Esclapon",
        "place": "village",
        "source:name:oc": "ieo-bdtopoc",
        "wikidata": "Q1364492",
        "wikipedia": "fr:La Roque-Esclapon"
      }
    },
    {
      "type": "node",
      "id": 1116355625,
      "lat": 43.7342277,
      "lon": 6.6257752,
      "timestamp": "2019-11-25T17:01:48Z",
      "version": 6,
      "changeset": 77535779,
      "user": "StephaneP",
      "uid": 439947,
      "tags": {
        "addr:postcode": "83840",
        "name": "La Bastide",
        "name:oc": "La Bastida",
        "place": "village",
        "population": "205",
        "source:name:oc": "ieo-bdtopoc",
        "source:population": "INSEE 2013"
      }
    },
    {
      "type": "node",
      "id": 1116356713,
      "lat": 43.7715106,
      "lon": 6.5991132,
      "timestamp": "2021-06-14T08:27:40Z",
      "version": 9,
      "changeset": 106320152,
      "user": "OTI La Martre - Artuby",
      "uid": 13126283,
      "tags": {
        "addr:postcode": "83840",
        "name": "La Martre",
        "name:oc": "La Martra",
        "place": "village",
        "source:name:oc": "ieo-bdtopoc"
      }
    },
    {
      "type": "node",
      "id": 1116357334,
      "lat": 43.8186104,
      "lon": 6.587001,
      "timestamp": "2021-08-01T10:44:58Z",
      "version": 4,
      "changeset": 108969076,
      "user": "Patchi",
      "uid": 591881,
      "tags": {
        "ele": "1054",
        "mountain_pass": "yes",
        "name": "Col de Luens",
        "natural": "saddle"
      }
    },
    {
      "type": "node",
      "id": 1116371027,
      "lat": 43.5926878,
      "lon": 6.5386766,
      "timestamp": "2020-01-18T13:38:22Z",
      "version": 8,
      "changeset": 79731183,
      "user": "daop5510",
      "uid": 300696,
      "tags": {
        "addr:postcode": "83830",
        "name": "Callas",
        "name:oc": "Calàs",
        "place": "village",
        "source:name:oc": "ieo-bdtopoc"
      }
    },
    {
      "type": "node",
      "id": 1138694132,
      "lat": 44.0155079,
      "lon": 6.7136574,
      "timestamp": "2015-01-15T21:44:18Z",
      "version": 4,
      "changeset": 28174281,
      "user": "geow",
      "uid": 223093,
      "tags": {
        "ele": "1320",
        "mountain_pass": "yes",
        "name": "Col du Fa",
        "natural": "saddle"
      }
    },
    {
      "type": "node",
      "id": 1150604048,
      "lat": 44.0447633,
      "lon": 6.7879443,
      "timestamp": "2011-02-13T09:02:35Z",
      "version": 1,
      "changeset": 7272831,
      "user": "Djam",
      "uid": 24982,
      "tags": {
        "amenity": "drinking_water"
      }
    },
    {
      "type": "node",
      "id": 1162980382,
      "lat": 43.6725942,
      "lon": 6.9940645,
      "timestamp": "2021-08-12T12:58:05Z",
      "version": 6,
      "changeset": 109573909,
      "user": "anothercypres",
      "uid": 10619667,
      "tags": {
        "brand": "Casino",
        "brand:wikidata": "Q89029184",
        "brand:wikipedia": "fr:Enseignes du groupe Casino",
        "name": "Casino",
        "shop": "supermarket"
      }
    },
    {
      "type": "node",
      "id": 1164498634,
      "lat": 43.9276596,
      "lon": 6.9477224,
      "timestamp": "2020-04-28T11:21:54Z",
      "version": 9,
      "changeset": 84262430,
      "user": "oc-OpenStreetMap",
      "uid": 4224320,
      "tags": {
        "addr:postcode": "06260",
        "name": "La Penne",
        "name:it": "La Penna",
        "name:oc": "La Pena",
        "name:uk": "Ла-Пенн",
        "place": "village",
        "population": "313",
        "source:name:oc": "ieo-bdtopoc",
        "source:population": "INSEE 2013",
        "wikidata": "Q975778",
        "wikipedia": "fr:La Penne"
      }
    },
    {
      "type": "node",
      "id": 1193687963,
      "lat": 43.8841412,
      "lon": 6.8616048,
      "timestamp": "2020-04-28T11:21:54Z",
      "version": 10,
      "changeset": 84262430,
      "user": "oc-OpenStreetMap",
      "uid": 4224320,
      "tags": {
        "addr:postcode": "06910",
        "name": "Les Mujouls",
        "name:oc": "Lei Mújols",
        "place": "village",
        "population": "44",
        "source": "cadastre-dgi-fr source : Direction Générale des Impôts - Cadastre. Mise à jour : 2011",
        "source:name:oc": "ieo-bdtopoc",
        "source:population": "INSEE 2013",
        "wikidata": "Q728778",
        "wikipedia": "fr:Les Mujouls"
      }
    },
    {
      "type": "node",
      "id": 1194696173,
      "lat": 44.0008214,
      "lon": 6.8272829,
      "timestamp": "2020-04-28T15:32:05Z",
      "version": 13,
      "changeset": 84276812,
      "user": "oc-OpenStreetMap",
      "uid": 4224320,
      "tags": {
        "addr:postcode": "06260",
        "alt_name:it": "Saint Léger",
        "name": "Saint-Léger",
        "name:it": "San Leggero",
        "name:oc": "Sant Leugier",
        "name:ru": "Сен-Леже",
        "name:uk": "Сен-Леже",
        "place": "village",
        "population": "67",
        "source": "cadastre-dgi-fr source : Direction Générale des Impôts - Cadastre. Mise à jour : 2011",
        "source:name:oc": "ieo-bdtopoc",
        "source:population": "INSEE 2013",
        "wikidata": "Q227764",
        "wikipedia": "fr:Saint-Léger"
      }
    },
    {
      "type": "node",
      "id": 1194728380,
      "lat": 44.0241967,
      "lon": 6.8094291,
      "timestamp": "2020-04-28T11:21:55Z",
      "version": 12,
      "changeset": 84262430,
      "user": "oc-OpenStreetMap",
      "uid": 4224320,
      "tags": {
        "addr:postcode": "06470",
        "name": "Daluis",
        "name:it": "Daluis",
        "name:oc": "Daluèis",
        "name:uk": "Далюї",
        "place": "village",
        "population": "148",
        "source": "cadastre-dgi-fr source : Direction Générale des Impôts - Cadastre. Mise à jour : 2011",
        "source:name:oc": "ieo-bdtopoc",
        "source:population": "INSEE 2013",
        "wikidata": "Q595678",
        "wikipedia": "fr:Daluis"
      }
    },
    {
      "type": "node",
      "id": 1199979741,
      "lat": 43.7608509,
      "lon": 6.5591703,
      "timestamp": "2011-03-13T11:15:50Z",
      "version": 1,
      "changeset": 7542428,
      "user": "jmgilbert",
      "uid": 417731,
      "tags": {
        "name": "Le Plan d'Anelle",
        "place": "hamlet"
      }
    },
    {
      "type": "node",
      "id": 1199981669,
      "lat": 43.7665149,
      "lon": 6.5694163,
      "timestamp": "2011-03-13T11:19:43Z",
      "version": 1,
      "changeset": 7542428,
      "user": "jmgilbert",
      "uid": 417731,
      "tags": {
        "name": "Les Davids",
        "place": "hamlet"
      }
    },
    {
      "type": "node",
      "id": 1199981670,
      "lat": 43.7641905,
      "lon": 6.5672276,
      "timestamp": "2011-03-13T11:19:43Z",
      "version": 1,
      "changeset": 7542428,
      "user": "jmgilbert",
      "uid": 417731,
      "tags": {
        "name": "Les Achaps",
        "place": "hamlet"
      }
    },
    {
      "type": "node",
      "id": 1221172329,
      "lat": 43.8109958,
      "lon": 6.5528092,
      "timestamp": "2021-08-01T17:27:27Z",
      "version": 4,
      "changeset": 108982184,
      "user": "sergio7826",
      "uid": 411998,
      "tags": {
        "name": "Eoulx",
        "name:oc": "Èvol",
        "place": "hamlet",
        "source:name:oc": "ieo-bdtopoc"
      }
    },
    {
      "type": "node",
      "id": 1221172352,
      "lat": 43.7976384,
      "lon": 6.5451587,
      "timestamp": "2011-03-27T09:15:49Z",
      "version": 1,
      "changeset": 7682656,
      "user": "jmgilbert",
      "uid": 417731,
      "tags": {
        "name": "La Rivière",
        "place": "hamlet"
      }
    },
    {
      "type": "node",
      "id": 1235307186,
      "lat": 44.0780486,
      "lon": 6.4435835,
      "timestamp": "2015-01-15T21:44:04Z",
      "version": 4,
      "changeset": 28174281,
      "user": "geow",
      "uid": 223093,
      "tags": {
        "ele": "1387",
        "mountain_pass": "yes",
        "name": "Col de Séoune",
        "natural": "saddle"
      }
    },
    {
      "type": "node",
      "id": 1241302313,
      "lat": 43.6488475,
      "lon": 6.8444166,
      "timestamp": "2020-05-17T12:09:19Z",
      "version": 7,
      "changeset": 85332500,
      "user": "BTH",
      "uid": 481447,
      "tags": {
        "ele": "594",
        "name": "Col de Cabris",
        "natural": "saddle"
      }
    },
    {
      "type": "node",
      "id": 1267260123,
      "lat": 43.8052085,
      "lon": 6.3389549,
      "timestamp": "2011-04-30T14:13:14Z",
      "version": 1,
      "changeset": 8012007,
      "user": "Walter Schlögl",
      "uid": 78656,
      "tags": {
        "name": "Le Plan",
        "place": "hamlet"
      }
    },
    {
      "type": "node",
      "id": 1269309762,
      "lat": 43.9480207,
      "lon": 6.5774486,
      "timestamp": "2015-01-15T21:43:43Z",
      "version": 4,
      "changeset": 28174281,
      "user": "geow",
      "uid": 223093,
      "tags": {
        "mountain_pass": "yes",
        "name": "Baisse d'Angles",
        "natural": "saddle"
      }
    },
    {
      "type": "node",
      "id": 1269358509,
      "lat": 43.9515762,
      "lon": 6.623265,
      "timestamp": "2018-02-11T15:20:49Z",
      "version": 4,
      "changeset": 56266053,
      "user": "sergio7826",
      "uid": 411998,
      "tags": {
        "ele": "1384",
        "mountain_pass": "yes",
        "name": "Col de l'Iscle",
        "natural": "saddle"
      }
    },
    {
      "type": "node",
      "id": 1269451270,
      "lat": 44.0132911,
      "lon": 6.6752578,
      "timestamp": "2015-01-15T21:43:51Z",
      "version": 3,
      "changeset": 28174281,
      "user": "geow",
      "uid": 223093,
      "tags": {
        "ele": "1468",
        "mountain_pass": "yes",
        "name": "Col d'Argenton",
        "natural": "saddle"
      }
    },
    {
      "type": "node",
      "id": 1269968791,
      "lat": 43.9543233,
      "lon": 6.3691084,
      "timestamp": "2011-05-02T01:02:38Z",
      "version": 1,
      "changeset": 8027266,
      "user": "Djam",
      "uid": 24982,
      "tags": {
        "amenity": "drinking_water"
      }
    },
    {
      "type": "node",
      "id": 1269968886,
      "lat": 43.953809,
      "lon": 6.36864,
      "timestamp": "2011-05-02T01:02:42Z",
      "version": 1,
      "changeset": 8027266,
      "user": "Djam",
      "uid": 24982,
      "tags": {
        "amenity": "drinking_water"
      }
    },
    {
      "type": "node",
      "id": 1269969017,
      "lat": 43.9541601,
      "lon": 6.3685347,
      "timestamp": "2011-05-02T01:02:48Z",
      "version": 1,
      "changeset": 8027266,
      "user": "Djam",
      "uid": 24982,
      "tags": {
        "amenity": "drinking_water"
      }
    },
    {
      "type": "node",
      "id": 1270567568,
      "lat": 43.7178166,
      "lon": 6.5254681,
      "timestamp": "2011-05-02T20:05:53Z",
      "version": 1,
      "changeset": 8034123,
      "user": "Walter Schlögl",
      "uid": 78656,
      "tags": {
        "name": "La Souche",
        "place": "hamlet"
      }
    },
    {
      "type": "node",
      "id": 1270567840,
      "lat": 43.7253743,
      "lon": 6.5272953,
      "timestamp": "2011-06-14T12:57:36Z",
      "version": 3,
      "changeset": 8436977,
      "user": "jmgilbert",
      "uid": 417731,
      "tags": {
        "fixme": "continue",
        "name": "Endosse",
        "place": "hamlet"
      }
    },
    {
      "type": "node",
      "id": 1270740443,
      "lat": 43.9104017,
      "lon": 6.9804867,
      "timestamp": "2020-04-28T15:32:07Z",
      "version": 6,
      "changeset": 84276812,
      "user": "oc-OpenStreetMap",
      "uid": 4224320,
      "tags": {
        "addr:postcode": "06260",
        "name": "Saint-Antonin",
        "name:oc": "Sant Antonin",
        "place": "village",
        "population": "109",
        "source": "cadastre-dgi-fr source : Direction Générale des Impôts - Cadastre. Mise à jour : 2011",
        "source:name:oc": "ieo-bdtopoc",
        "source:population": "INSEE 2013"
      }
    },
    {
      "type": "node",
      "id": 1270740606,
      "lat": 43.9205749,
      "lon": 7.0146272,
      "timestamp": "2021-05-31T13:57:24Z",
      "version": 8,
      "changeset": 105628396,
      "user": "Farot",
      "uid": 10617233,
      "tags": {
        "alt_name:it": "Scroso",
        "alt_name:it:2": "Ascros",
        "name": "Ascros",
        "name:it": "Ascroso",
        "name:oc": "Als Cròcs",
        "place": "village",
        "population": "143",
        "postal_code": "06260",
        "source": "cadastre-dgi-fr source : Direction Générale des Impôts - Cadastre. Mise à jour : 2011",
        "source:name:oc": "ieo-bdtopoc",
        "source:population": "INSEE 2013"
      }
    },
    {
      "type": "node",
      "id": 1270745246,
      "lat": 43.9902096,
      "lon": 6.991363,
      "timestamp": "2021-02-20T18:46:17Z",
      "version": 9,
      "changeset": 99655981,
      "user": "Farot",
      "uid": 10617233,
      "tags": {
        "addr:postcode": "06260",
        "name": "Rigaud",
        "name:it": "Rigaudo",
        "name:oc": "Rigaud",
        "place": "village",
        "population": "219",
        "source": "cadastre-dgi-fr source : Direction Générale des Impôts - Cadastre. Mise à jour : 2011",
        "source:name:oc": "ieo.bdtopoc",
        "source:population": "INSEE 2013"
      }
    },
    {
      "type": "node",
      "id": 1270745313,
      "lat": 43.9485837,
      "lon": 7.0076174,
      "timestamp": "2020-04-28T15:32:08Z",
      "version": 8,
      "changeset": 84276812,
      "user": "oc-OpenStreetMap",
      "uid": 4224320,
      "tags": {
        "addr:postcode": "06710",
        "alt_name:it": "Toetto sul Varo",
        "name": "Touët-sur-Var",
        "name:it": "Toetto di Boglio",
        "name:oc": "Lo Toit",
        "place": "village",
        "population": "661",
        "source": "cadastre-dgi-fr source : Direction Générale des Impôts - Cadastre. Mise à jour : 2011",
        "source:name:oc": "ieo-bdtopoc",
        "source:population": "INSEE 2013"
      }
    },
    {
      "type": "node",
      "id": 1271285962,
      "lat": 43.8924838,
      "lon": 6.423139,
      "timestamp": "2011-05-03T17:30:01Z",
      "version": 1,
      "changeset": 8041663,
      "user": "Walter Schlögl",
      "uid": 78656,
      "tags": {
        "name": "La Tuilière",
        "place": "hamlet"
      }
    },
    {
      "type": "node",
      "id": 1271519737,
      "lat": 43.8240007,
      "lon": 6.3329202,
      "timestamp": "2012-04-29T10:12:44Z",
      "version": 2,
      "changeset": 11447999,
      "user": "sergio7826",
      "uid": 411998,
      "tags": {
        "name": "Les Subis",
        "place": "hamlet"
      }
    },
    {
      "type": "node",
      "id": 1271520209,
      "lat": 43.805002,
      "lon": 6.3768858,
      "timestamp": "2011-05-03T21:29:52Z",
      "version": 1,
      "changeset": 8044080,
      "user": "Walter Schlögl",
      "uid": 78656,
      "tags": {
        "name": "Lioune",
        "place": "hamlet"
      }
    },
    {
      "type": "node",
      "id": 1273566770,
      "lat": 43.9428531,
      "lon": 6.5583173,
      "timestamp": "2020-04-23T21:43:05Z",
      "version": 8,
      "changeset": 84024070,
      "user": "oc-OpenStreetMap",
      "uid": 4224320,
      "tags": {
        "addr:postcode": "04170",
        "name": "Angles",
        "name:oc": "Angles",
        "place": "village",
        "source:name:oc": "ieo-bdtopoc"
      }
    },
    {
      "type": "node",
      "id": 1274769639,
      "lat": 43.9771246,
      "lon": 6.5954566,
      "timestamp": "2020-02-08T01:12:42Z",
      "version": 8,
      "changeset": 80713158,
      "user": "vincent_95",
      "uid": 49047,
      "tags": {
        "addr:postcode": "04170",
        "name": "Allons",
        "name:oc": "Alons",
        "place": "village",
        "source:name:oc": "ieo-bdtopoc"
      }
    },
    {
      "type": "node",
      "id": 1274769655,
      "lat": 44.0112866,
      "lon": 6.5648189,
      "timestamp": "2017-07-30T21:51:34Z",
      "version": 2,
      "changeset": 50703728,
      "user": "dahu83",
      "uid": 371756,
      "tags": {
        "name": "Vauclause",
        "place": "hamlet"
      }
    },
    {
      "type": "node",
      "id": 1274799162,
      "lat": 43.9872273,
      "lon": 6.6991336,
      "timestamp": "2020-04-23T21:43:05Z",
      "version": 8,
      "changeset": 84024070,
      "user": "oc-OpenStreetMap",
      "uid": 4224320,
      "tags": {
        "addr:postcode": "04240",
        "name": "Braux",
        "name:oc": "Brau",
        "place": "village",
        "source:name:oc": "ieo-bdtopoc"
      }
    },
    {
      "type": "node",
      "id": 1274829361,
      "lat": 43.9083286,
      "lon": 6.696242,
      "timestamp": "2020-04-23T21:43:06Z",
      "version": 8,
      "changeset": 84024070,
      "user": "oc-OpenStreetMap",
      "uid": 4224320,
      "tags": {
        "addr:postcode": "04240",
        "name": "Ubraye",
        "name:oc": "Ubraia",
        "place": "village",
        "source:name:oc": "ieo-bdtopoc"
      }
    },
    {
      "type": "node",
      "id": 1274829460,
      "lat": 43.8886259,
      "lon": 6.7543616,
      "timestamp": "2014-07-05T19:40:02Z",
      "version": 3,
      "changeset": 23972100,
      "user": "tripou69",
      "uid": 1136712,
      "tags": {
        "name": "Montblanc",
        "place": "hamlet"
      }
    },
    {
      "type": "node",
      "id": 1274829484,
      "lat": 43.8968693,
      "lon": 6.722426,
      "timestamp": "2013-01-31T21:53:58Z",
      "version": 2,
      "changeset": 14864840,
      "user": "tripou69",
      "uid": 1136712,
      "tags": {
        "name": "Laval",
        "place": "hamlet"
      }
    },
    {
      "type": "node",
      "id": 1274829547,
      "lat": 43.8910081,
      "lon": 6.7303299,
      "timestamp": "2011-05-06T21:02:36Z",
      "version": 1,
      "changeset": 8068996,
      "user": "Walter Schlögl",
      "uid": 78656,
      "tags": {
        "name": "Barnaud",
        "place": "hamlet"
      }
    },
    {
      "type": "node",
      "id": 1293262950,
      "lat": 43.8373224,
      "lon": 6.4660557,
      "timestamp": "2011-08-03T15:18:56Z",
      "version": 3,
      "changeset": 8910995,
      "user": "krysst",
      "uid": 16038,
      "tags": {
        "name": "Villars Brandis",
        "place": "hamlet"
      }
    },
    {
      "type": "node",
      "id": 1293314296,
      "lat": 43.8288727,
      "lon": 6.4612799,
      "timestamp": "2020-06-24T11:20:08Z",
      "version": 2,
      "changeset": 87082770,
      "user": "sergio7826",
      "uid": 411998,
      "tags": {
        "name": "Bans",
        "place": "hamlet"
      }
    },
    {
      "type": "node",
      "id": 1297514249,
      "lat": 44.0737852,
      "lon": 6.4783353,
      "timestamp": "2013-12-14T12:04:58Z",
      "version": 3,
      "changeset": 19447315,
      "user": "RedFox",
      "uid": 10610,
      "tags": {
        "alt_name": "La Batie",
        "int_name": "La Batie",
        "name": "La Batie",
        "old_name": "La Batie",
        "place": "hamlet"
      }
    },
    {
      "type": "node",
      "id": 1313312106,
      "lat": 43.8436429,
      "lon": 6.77504,
      "timestamp": "2015-01-15T21:43:52Z",
      "version": 3,
      "changeset": 28174281,
      "user": "geow",
      "uid": 223093,
      "tags": {
        "ele": "1292",
        "mountain_pass": "yes",
        "name": "Col de Baratus",
        "natural": "saddle"
      }
    },
    {
      "type": "node",
      "id": 1318759936,
      "lat": 43.891352,
      "lon": 6.5578344,
      "timestamp": "2015-01-15T21:43:56Z",
      "version": 4,
      "changeset": 28174281,
      "user": "geow",
      "uid": 223093,
      "tags": {
        "mountain_pass": "yes",
        "name": "Col de Demandolx",
        "natural": "saddle"
      }
    },
    {
      "type": "node",
      "id": 1321032079,
      "lat": 44.0864931,
      "lon": 6.4796775,
      "timestamp": "2013-12-14T12:04:31Z",
      "version": 2,
      "changeset": 19447315,
      "user": "RedFox",
      "uid": 10610,
      "tags": {
        "name": "Château-Garnier",
        "place": "hamlet"
      }
    },
    {
      "type": "node",
      "id": 1321032087,
      "lat": 44.0724844,
      "lon": 6.3989613,
      "timestamp": "2011-09-04T15:53:58Z",
      "version": 2,
      "changeset": 9210141,
      "user": "sergio7826",
      "uid": 411998,
      "tags": {
        "name": "Le Thouron",
        "place": "hamlet"
      }
    },
    {
      "type": "node",
      "id": 1321032093,
      "lat": 44.0698862,
      "lon": 6.3875804,
      "timestamp": "2020-04-23T21:43:06Z",
      "version": 7,
      "changeset": 84024070,
      "user": "oc-OpenStreetMap",
      "uid": 4224320,
      "tags": {
        "addr:postcode": "04330",
        "name": "Tartonne",
        "name:oc": "Tartona",
        "place": "village",
        "source:name:oc": "ieo-bdtopoc"
      }
    },
    {
      "type": "node",
      "id": 1322985810,
      "lat": 43.6009304,
      "lon": 6.995467,
      "timestamp": "2011-06-12T22:41:54Z",
      "version": 1,
      "changeset": 8420762,
      "user": "cphr",
      "uid": 469552,
      "tags": {
        "amenity": "drinking_water"
      }
    },
    {
      "type": "node",
      "id": 1323813671,
      "lat": 43.786291,
      "lon": 6.4446207,
      "timestamp": "2011-06-13T14:53:31Z",
      "version": 1,
      "changeset": 8426411,
      "user": "jmgilbert",
      "uid": 417731,
      "tags": {
        "name": "Soleils",
        "place": "hamlet"
      }
    },
    {
      "type": "node",
      "id": 1323907906,
      "lat": 43.7530941,
      "lon": 6.4057372,
      "timestamp": "2012-04-21T17:56:00Z",
      "version": 3,
      "changeset": 11376291,
      "user": "sergio7826",
      "uid": 411998,
      "tags": {
        "name": "Saint-Maymes",
        "place": "hamlet"
      }
    },
    {
      "type": "node",
      "id": 1324214071,
      "lat": 43.8042173,
      "lon": 6.4818826,
      "timestamp": "2018-08-21T09:06:17Z",
      "version": 4,
      "changeset": 61848276,
      "user": "fritruc",
      "uid": 2972894,
      "tags": {
        "ele": "1150",
        "mountain_pass": "yes",
        "name": "Basse de la Doux",
        "natural": "saddle"
      }
    },
    {
      "type": "node",
      "id": 1325304491,
      "lat": 43.6410964,
      "lon": 7.0096406,
      "timestamp": "2014-02-14T14:08:31Z",
      "version": 2,
      "changeset": 20558133,
      "user": "Dr Fredieu",
      "uid": 426732,
      "tags": {
        "amenity": "drinking_water"
      }
    },
    {
      "type": "node",
      "id": 1325304499,
      "lat": 43.6546141,
      "lon": 6.9308536,
      "timestamp": "2020-03-23T03:17:43Z",
      "version": 3,
      "changeset": 82500335,
      "user": "Olyon",
      "uid": 1443767,
      "tags": {
        "brand": "Aldi",
        "brand:wikidata": "Q125054",
        "name": "Aldi",
        "operator": "Aldi",
        "shop": "supermarket"
      }
    },
    {
      "type": "node",
      "id": 1329366243,
      "lat": 43.7342427,
      "lon": 6.5895193,
      "timestamp": "2012-09-21T09:14:13Z",
      "version": 2,
      "changeset": 13193046,
      "user": "Wiizz",
      "uid": 903523,
      "tags": {
        "name": "La Graou",
        "place": "hamlet"
      }
    },
    {
      "type": "node",
      "id": 1329366467,
      "lat": 43.7317395,
      "lon": 6.5929321,
      "timestamp": "2011-06-18T08:17:48Z",
      "version": 1,
      "changeset": 8470920,
      "user": "jmgilbert",
      "uid": 417731,
      "tags": {
        "name": "Barlet",
        "place": "hamlet"
      }
    },
    {
      "type": "node",
      "id": 1331215355,
      "lat": 43.815372,
      "lon": 6.4970193,
      "timestamp": "2011-09-04T17:54:08Z",
      "version": 2,
      "changeset": 9211035,
      "user": "sergio7826",
      "uid": 411998,
      "tags": {
        "name": "Le Petit Robion",
        "place": "hamlet"
      }
    },
    {
      "type": "node",
      "id": 1334816234,
      "lat": 43.8596029,
      "lon": 6.3736077,
      "timestamp": "2011-06-22T19:50:14Z",
      "version": 1,
      "changeset": 8517554,
      "user": "Walter Schlögl",
      "uid": 78656,
      "tags": {
        "name": "Thon",
        "place": "hamlet"
      }
    },
    {
      "type": "node",
      "id": 1334816837,
      "lat": 43.9315043,
      "lon": 6.665167,
      "timestamp": "2013-12-14T12:06:14Z",
      "version": 4,
      "changeset": 19447315,
      "user": "RedFox",
      "uid": 10610,
      "tags": {
        "name": "Rouaine",
        "place": "hamlet"
      }
    },
    {
      "type": "node",
      "id": 1334816860,
      "lat": 43.9142205,
      "lon": 6.5873602,
      "timestamp": "2020-04-23T21:43:07Z",
      "version": 8,
      "changeset": 84024070,
      "user": "oc-OpenStreetMap",
      "uid": 4224320,
      "tags": {
        "addr:postcode": "04170",
        "name": "Vergons",
        "name:oc": "Vergons",
        "place": "village",
        "source:name:oc": "ieo-bdtopoc"
      }
    },
    {
      "type": "node",
      "id": 1334873296,
      "lat": 43.9549514,
      "lon": 6.8903773,
      "timestamp": "2020-03-23T03:17:43Z",
      "version": 5,
      "changeset": 82500335,
      "user": "Olyon",
      "uid": 1443767,
      "tags": {
        "brand": "Carrefour Market",
        "brand:wikidata": "Q2689639",
        "brand:wikipedia": "fr:Carrefour Market",
        "name": "Carrefour Market",
        "operator": "Carrefour",
        "shop": "supermarket"
      }
    },
    {
      "type": "node",
      "id": 1339053451,
      "lat": 44.0256098,
      "lon": 6.8651129,
      "timestamp": "2015-01-15T21:44:03Z",
      "version": 2,
      "changeset": 28174281,
      "user": "geow",
      "uid": 223093,
      "tags": {
        "ele": "1284",
        "mountain_pass": "yes",
        "name": "Col de Roua",
        "natural": "saddle"
      }
    },
    {
      "type": "node",
      "id": 1339053544,
      "lat": 44.0329921,
      "lon": 6.9044563,
      "timestamp": "2015-01-15T21:44:04Z",
      "version": 2,
      "changeset": 28174281,
      "user": "geow",
      "uid": 223093,
      "tags": {
        "ele": "1726",
        "mountain_pass": "yes",
        "name": "Col de Sui",
        "natural": "saddle"
      }
    },
    {
      "type": "node",
      "id": 1373322521,
      "lat": 43.9192558,
      "lon": 6.6136073,
      "timestamp": "2015-01-15T21:44:05Z",
      "version": 2,
      "changeset": 28174281,
      "user": "geow",
      "uid": 223093,
      "tags": {
        "ele": "1124",
        "mountain_pass": "yes",
        "name": "Col de Toutes Aures",
        "natural": "saddle"
      }
    },