{
  "osm3s": {
    "timestamp_osm_date": "2022-08-04T23:59:59Z",
    "timestamp_osm_base": "2022-08-05T06:33:21Z",
    "copyright": "The data included in this document is from www.openstreetmap.org. The data is made available under ODbL."
  },
  "elements": [
    {
      "type": "node",
      "id": 26860208,
      "lat": 42.3004244,
      "lon": 9.1477855,
      "timestamp": "2018-07-08T12:43:37Z",
      "version": 3,
      "changeset": 60508612,
      "user": "Boogier",
      "uid": 246938,
      "tags": {
        "name": "U Sognu",
        "tourism": "camp_site"
      }
    },
    {
      "type": "node",
      "id": 26863958,
      "lat": 42.3962486,
      "lon": 9.3268081,
      "timestamp": "2020-07-31T08:52:49Z",
      "version": 7,
      "changeset": 88771941,
      "user": "pingsler",
      "uid": 233180,
      "tags": {
        "ele": "1767",
        "name": "Monte San Petrone",
        "natural": "peak",
        "prominence": "1208",
        "reg_name": "Monte San Pedrone",
        "wikidata": "Q3322576"
      }
    },
    {
      "type": "node",
      "id": 51305031,
      "lat": 42.3052904,
      "lon": 9.1511935,
      "timestamp": "2022-02-01T13:28:20Z",
      "version": 21,
      "changeset": 116868957,
      "user": "A-d-r-i",
      "uid": 3524412,
      "tags": {
        "addr:postcode": "20250",
        "capital": "7",
        "name": "Corte",
        "name:co": "Corti",
        "name:oc": "Corti",
        "place": "town",
        "ref:FR:SIREN": "212000962",
        "reg_name": "Corti"
      }
    },
    {
      "type": "node",
      "id": 51336801,
      "lat": 42.4610131,
      "lon": 9.2061196,
      "timestamp": "2013-12-12T01:27:04Z",
      "version": 4,
      "changeset": 19405183,
      "user": "RedFox",
      "uid": 10610,
      "tags": {
        "name": "Ponte Leccia",
        "place": "village"
      }
    },
    {
      "type": "node",
      "id": 60465042,
      "lat": 42.1131618,
      "lon": 9.5135955,
      "timestamp": "2017-07-19T20:07:37Z",
      "version": 5,
      "changeset": 50415892,
      "user": "zerpou",
      "uid": 1238664,
      "tags": {
        "amenity": "fuel",
        "brand": "Vito",
        "fuel:diesel": "yes",
        "fuel:octane_95": "yes",
        "name": "Vito",
        "opening_hours": "24/7",
        "operator": "Vito",
        "ref:FR:prix-carburants": "20270001",
        "shop": "convenience",
        "source": "Ministère de l'Economie, de l'Industrie et du Numérique - 22/10/2016",
        "toilets": "yes"
      }
    },
    {
      "type": "node",
      "id": 60674718,
      "lat": 42.1135718,
      "lon": 9.5144732,
      "timestamp": "2022-02-01T13:28:20Z",
      "version": 14,
      "changeset": 116868957,
      "user": "A-d-r-i",
      "uid": 3524412,
      "tags": {
        "addr:postcode": "20270",
        "alt_name": "Aleria",
        "name": "Aléria",
        "name:co": "U Caterraghju",
        "place": "village"
      }
    },
    {
      "type": "node",
      "id": 60674720,
      "lat": 42.1294364,
      "lon": 9.4678207,
      "timestamp": "2021-02-14T10:36:44Z",
      "version": 3,
      "changeset": 99244148,
      "user": "PhilLL",
      "uid": 1710208,
      "tags": {
        "name": "Vaccaja",
        "name:co": "A Vaccaghja",
        "place": "hamlet"
      }
    },
    {
      "type": "node",
      "id": 60674721,
      "lat": 42.3808064,
      "lon": 9.1914074,
      "timestamp": "2013-02-19T16:21:18Z",
      "version": 3,
      "changeset": 15091755,
      "user": "windu2b",
      "uid": 11068,
      "tags": {
        "name": "Caporalino",
        "place": "hamlet",
        "reg_name": "Capuralinu"
      }
    },
    {
      "type": "node",
      "id": 60674724,
      "lat": 42.3986871,
      "lon": 9.1909072,
      "timestamp": "2012-04-09T21:41:03Z",
      "version": 4,
      "changeset": 11245829,
      "user": "prisciou",
      "uid": 628970,
      "tags": {
        "addr:postcode": "20236",
        "alt_name": "Francardo (Omessa)",
        "name": "Francardo",
        "name:co": "Francardu",
        "place": "hamlet",
        "reg_name": "Francardu"
      }
    },
    {
      "type": "node",
      "id": 82571462,
      "lat": 42.422276,
      "lon": 9.1473754,
      "timestamp": "2021-09-12T19:24:38Z",
      "version": 7,
      "changeset": 111109958,
      "user": "Kioska Journo",
      "uid": 402585,
      "tags": {
        "mountain_pass": "yes",
        "name": "Croce d'Arbitro",
        "natural": "saddle"
      }
    },
    {
      "type": "node",
      "id": 292072017,
      "lat": 42.1140781,
      "lon": 9.1573088,
      "timestamp": "2015-06-08T19:39:38Z",
      "version": 8,
      "changeset": 31827301,
      "user": "ralfhergert",
      "uid": 352976,
      "tags": {
        "ele": "1642",
        "mountain_pass": "yes",
        "name": "Bocca Palmente",
        "natural": "saddle"
      }
    },
    {
      "type": "node",
      "id": 294756651,
      "lat": 42.0342939,
      "lon": 9.2877389,
      "timestamp": "2013-12-12T01:21:42Z",
      "version": 3,
      "changeset": 19405183,
      "user": "RedFox",
      "uid": 10610,
      "tags": {
        "name": "Ajola",
        "place": "village"
      }
    },
    {
      "type": "node",
      "id": 294787962,
      "lat": 42.056578,
      "lon": 9.2968168,
      "timestamp": "2022-02-01T13:28:20Z",
      "version": 17,
      "changeset": 116868957,
      "user": "A-d-r-i",
      "uid": 3524412,
      "tags": {
        "name": "Poggio-di-Nazza",
        "place": "village",
        "wikidata": "Q1109744",
        "wikipedia": "fr:Poggio-di-Nazza"
      }
    },
    {
      "type": "node",
      "id": 294922382,
      "lat": 42.1035625,
      "lon": 9.2122752,
      "timestamp": "2022-02-01T13:28:20Z",
      "version": 11,
      "changeset": 116868957,
      "user": "A-d-r-i",
      "uid": 3524412,
      "tags": {
        "addr:postcode": "20227",
        "name": "Ghisoni",
        "place": "village",
        "wikidata": "Q1060509",
        "wikipedia": "fr:Ghisoni"
      }
    },
    {
      "type": "node",
      "id": 294926221,
      "lat": 42.1441461,
      "lon": 9.1903461,
      "timestamp": "2019-05-28T16:52:49Z",
      "version": 6,
      "changeset": 70703992,
      "user": "jabali",
      "uid": 358508,
      "tags": {
        "ele": "1311",
        "mountain_pass": "yes",
        "name": "Col de Sorba",
        "natural": "saddle"
      }
    },
    {
      "type": "node",
      "id": 295118655,
      "lat": 42.1721316,
      "lon": 9.1696353,
      "timestamp": "2022-02-01T13:28:20Z",
      "version": 7,
      "changeset": 116868957,
      "user": "A-d-r-i",
      "uid": 3524412,
      "tags": {
        "addr:postcode": "20219",
        "name": "Vivario",
        "name:co": "Vivariu",
        "place": "village"
      }
    },
    {
      "type": "node",
      "id": 295118705,
      "lat": 42.1693962,
      "lon": 9.1840119,
      "timestamp": "2013-12-12T01:26:27Z",
      "version": 6,
      "changeset": 19405183,
      "user": "RedFox",
      "uid": 10610,
      "tags": {
        "name": "Muracciole",
        "place": "village"
      }
    },
    {
      "type": "node",
      "id": 298349452,
      "lat": 42.5467846,
      "lon": 9.1854941,
      "timestamp": "2013-12-12T01:26:53Z",
      "version": 8,
      "changeset": 19405183,
      "user": "RedFox",
      "uid": 10610,
      "tags": {
        "name": "Pietralba",
        "place": "village"
      }
    },
    {
      "type": "node",
      "id": 337615363,
      "lat": 42.1585318,
      "lon": 9.3109496,
      "timestamp": "2021-11-20T23:25:19Z",
      "version": 3,
      "changeset": 114043425,
      "user": "Kioska Journo",
      "uid": 402585,
      "tags": {
        "name": "Col de Perelli",
        "natural": "saddle"
      }
    },
    {
      "type": "node",
      "id": 339647063,
      "lat": 42.4378325,
      "lon": 9.3091935,
      "timestamp": "2013-12-12T01:28:34Z",
      "version": 5,
      "changeset": 19405183,
      "user": "RedFox",
      "uid": 10610,
      "tags": {
        "name": "Stretta",
        "place": "hamlet"
      }
    },
    {
      "type": "node",
      "id": 339647068,
      "lat": 42.4354008,
      "lon": 9.3091772,
      "timestamp": "2019-02-15T18:10:13Z",
      "version": 6,
      "changeset": 67234682,
      "user": "Bathyscapher",
      "uid": 8889564,
      "tags": {
        "name": "Colle",
        "place": "hamlet"
      }
    },
    {
      "type": "node",
      "id": 339647201,
      "lat": 42.4351825,
      "lon": 9.3004157,
      "timestamp": "2013-12-12T01:26:50Z",
      "version": 5,
      "changeset": 19405183,
      "user": "RedFox",
      "uid": 10610,
      "tags": {
        "name": "Penteto",
        "place": "hamlet",
        "source": "cadastre-dgi-fr source : Direction Générale des Impôts - Cadastre. Mise à jour : 2009"
      }
    },
    {
      "type": "node",
      "id": 339647215,
      "lat": 42.434764,
      "lon": 9.2982682,
      "timestamp": "2013-12-12T01:23:08Z",
      "version": 5,
      "changeset": 19405183,
      "user": "RedFox",
      "uid": 10610,
      "tags": {
        "name": "Convento",
        "place": "hamlet",
        "source": "cadastre-dgi-fr source : Direction Générale des Impôts - Cadastre. Mise à jour : 2009"
      }
    },
    {
      "type": "node",
      "id": 340214556,
      "lat": 42.5459392,
      "lon": 9.4175597,
      "timestamp": "2013-12-12T01:25:52Z",
      "version": 6,
      "changeset": 19405183,
      "user": "RedFox",
      "uid": 10610,
      "tags": {
        "name": "Lucciana",
        "place": "village",
        "source": "cadastre-dgi-fr source : Direction Générale des Impôts - Cadastre. Mise à jour : 2009"
      }
    },
    {
      "type": "node",
      "id": 343641823,
      "lat": 42.5439401,
      "lon": 9.1776609,
      "timestamp": "2016-12-30T12:24:49Z",
      "version": 4,
      "changeset": 44783204,
      "user": "gsimon",
      "uid": 1668080,
      "tags": {
        "name": "Pedano",
        "place": "hamlet"
      }
    },
    {
      "type": "node",
      "id": 344260488,
      "lat": 42.4296946,
      "lon": 9.3021462,
      "timestamp": "2009-02-10T19:54:13Z",
      "version": 1,
      "changeset": 325262,
      "user": "aikon",
      "uid": 44329,
      "tags": {
        "name": "Tabonzoli",
        "place": "hamlet"
      }
    },
    {
      "type": "node",
      "id": 344260491,
      "lat": 42.4313522,
      "lon": 9.299597,
      "timestamp": "2009-02-10T19:54:13Z",
      "version": 1,
      "changeset": 325262,
      "user": "aikon",
      "uid": 44329,
      "tags": {
        "name": "Sevasi",
        "place": "hamlet"
      }
    },
    {
      "type": "node",
      "id": 344261330,
      "lat": 42.4364544,
      "lon": 9.3074102,
      "timestamp": "2013-12-12T01:28:40Z",
      "version": 4,
      "changeset": 19405183,
      "user": "RedFox",
      "uid": 10610,
      "tags": {
        "name": "Terchini",
        "place": "hamlet"
      }
    },
    {
      "type": "node",
      "id": 344261645,
      "lat": 42.4341143,
      "lon": 9.3004536,
      "timestamp": "2009-02-10T19:56:37Z",
      "version": 1,
      "changeset": 325262,
      "user": "aikon",
      "uid": 44329,
      "tags": {
        "name": "Fogatella",
        "place": "hamlet"
      }
    },
    {
      "type": "node",
      "id": 344261647,
      "lat": 42.4351762,
      "lon": 9.3037335,
      "timestamp": "2009-02-10T19:56:37Z",
      "version": 1,
      "changeset": 325262,
      "user": "aikon",
      "uid": 44329,
      "tags": {
        "name": "Chioso",
        "place": "hamlet"
      }
    },
    {
      "type": "node",
      "id": 344261649,
      "lat": 42.4363827,
      "lon": 9.2956529,
      "timestamp": "2009-02-10T19:56:37Z",
      "version": 1,
      "changeset": 325262,
      "user": "aikon",
      "uid": 44329,
      "tags": {
        "name": "Rocca Sottana",
        "place": "hamlet"
      }
    },
    {
      "type": "node",
      "id": 344261709,
      "lat": 42.4345001,
      "lon": 9.3079146,
      "timestamp": "2019-02-15T18:10:11Z",
      "version": 3,
      "changeset": 67234682,
      "user": "Bathyscapher",
      "uid": 8889564,
      "tags": {
        "name": "Case Romane",
        "place": "hamlet"
      }
    },
    {
      "type": "node",
      "id": 344586569,
      "lat": 42.2315175,
      "lon": 9.413538,
      "timestamp": "2013-12-12T01:28:38Z",
      "version": 5,
      "changeset": 19405183,
      "user": "RedFox",
      "uid": 10610,
      "tags": {
        "name": "Tallone",
        "place": "village"
      }
    },
    {
      "type": "node",
      "id": 344586875,
      "lat": 42.2091205,
      "lon": 9.4610277,
      "timestamp": "2009-02-12T07:54:34Z",
      "version": 1,
      "changeset": 366486,
      "user": "aikon",
      "uid": 44329,
      "tags": {
        "name": "Pianiccia",
        "place": "hamlet"
      }
    },
    {
      "type": "node",
      "id": 344594562,
      "lat": 42.2186817,
      "lon": 9.3715298,
      "timestamp": "2019-11-25T17:00:33Z",
      "version": 7,
      "changeset": 77535736,
      "user": "StephaneP",
      "uid": 439947,
      "tags": {
        "name": "Pancheraccia",
        "place": "village"
      }
    },
    {
      "type": "node",
      "id": 344667138,
      "lat": 42.0739367,
      "lon": 9.301929,
      "timestamp": "2022-02-01T13:28:20Z",
      "version": 10,
      "changeset": 116868957,
      "user": "A-d-r-i",
      "uid": 3524412,
      "tags": {
        "addr:postcode": "20240",
        "name": "Lugo-di-Nazza",
        "place": "village"
      }
    },
    {
      "type": "node",
      "id": 344785681,
      "lat": 42.1114192,
      "lon": 9.4005486,
      "timestamp": "2021-06-25T20:23:31Z",
      "version": 6,
      "changeset": 106982800,
      "user": "Futur3r",
      "uid": 12121621,
      "tags": {
        "name": "Aghione",
        "place": "village"
      }
    },
    {
      "type": "node",
      "id": 344785867,
      "lat": 42.1206301,
      "lon": 9.3668904,
      "timestamp": "2022-03-06T07:42:35Z",
      "version": 2,
      "changeset": 118148827,
      "user": "PhilLL",
      "uid": 1710208,
      "tags": {
        "name": "Chioso",
        "place": "hamlet"
      }
    },
    {
      "type": "node",
      "id": 344786999,
      "lat": 42.106054,
      "lon": 9.4162388,
      "timestamp": "2019-04-20T17:17:20Z",
      "version": 5,
      "changeset": 69407215,
      "user": "ËdzëronK",
      "uid": 211154,
      "tags": {
        "name": "Casone",
        "place": "hamlet"
      }
    },
    {
      "type": "node",
      "id": 344892894,
      "lat": 42.1667523,
      "lon": 9.347131,
      "timestamp": "2019-11-25T17:00:33Z",
      "version": 7,
      "changeset": 77535736,
      "user": "StephaneP",
      "uid": 439947,
      "tags": {
        "name": "Antisanti",
        "place": "village"
      }
    },
    {
      "type": "node",
      "id": 344893417,
      "lat": 42.1368251,
      "lon": 9.4453045,
      "timestamp": "2018-06-10T14:25:48Z",
      "version": 4,
      "changeset": 59713003,
      "user": "PhilLL",
      "uid": 1710208,
      "tags": {
        "name": "Campo Quercio",
        "place": "hamlet"
      }
    },
    {
      "type": "node",
      "id": 344899448,
      "lat": 42.1427779,
      "lon": 9.3606175,
      "timestamp": "2022-03-06T07:42:35Z",
      "version": 6,
      "changeset": 118148827,
      "user": "PhilLL",
      "uid": 1710208,
      "tags": {
        "name": "Casevecchie",
        "place": "village",
        "wikidata": "Q245725",
        "wikipedia": "fr:Casevecchie"
      }
    },
    {
      "type": "node",
      "id": 344902702,
      "lat": 42.0955422,
      "lon": 9.3671131,
      "timestamp": "2021-11-20T23:25:22Z",
      "version": 5,
      "changeset": 114043425,
      "user": "Kioska Journo",
      "uid": 402585,
      "tags": {
        "name": "Maison-Pieraggi",
        "name:co": "Casone Pieraggi",
        "place": "hamlet"
      }
    },
    {
      "type": "node",
      "id": 344912063,
      "lat": 42.1424217,
      "lon": 9.267124,
      "timestamp": "2009-02-13T15:15:06Z",
      "version": 1,
      "changeset": 394790,
      "user": "aikon",
      "uid": 44329,
      "tags": {
        "name": "Saparelle",
        "place": "hamlet"
      }
    },
    {
      "type": "node",
      "id": 344912064,
      "lat": 42.1166877,
      "lon": 9.2955591,
      "timestamp": "2009-02-13T15:15:06Z",
      "version": 1,
      "changeset": 394790,
      "user": "aikon",
      "uid": 44329,
      "tags": {
        "name": "Agheri",
        "place": "hamlet"
      }
    },
    {
      "type": "node",
      "id": 344914816,
      "lat": 42.1570909,
      "lon": 9.2707497,
      "timestamp": "2016-12-30T12:24:49Z",
      "version": 6,
      "changeset": 44783204,
      "user": "gsimon",
      "uid": 1668080,
      "tags": {
        "name": "Pietroso",
        "place": "village"
      }
    },
    {
      "type": "node",
      "id": 344915893,
      "lat": 42.1136714,
      "lon": 9.3065056,
      "timestamp": "2019-09-12T08:58:45Z",
      "version": 2,
      "changeset": 74383663,
      "user": "PhilLL",
      "uid": 1710208,
      "tags": {
        "name": "Salastraco",
        "place": "hamlet"
      }
    },
    {
      "type": "node",
      "id": 344995330,
      "lat": 42.0398381,
      "lon": 9.2888665,
      "timestamp": "2009-02-13T22:23:32Z",
      "version": 1,
      "changeset": 402545,
      "user": "aikon",
      "uid": 44329,
      "tags": {
        "name": "Larghina",
        "place": "hamlet"
      }
    },
    {
      "type": "node",
      "id": 410793691,
      "lat": 42.3265929,
      "lon": 9.2211857,
      "timestamp": "2021-09-19T16:42:44Z",
      "version": 2,
      "changeset": 111416657,
      "user": "Kioska Journo",
      "uid": 402585,
      "tags": {
        "amenity": "drinking_water",
        "name": "Funtana di a piazza",
        "start_date": "1895"
      }
    },
    {
      "type": "node",
      "id": 411259734,
      "lat": 42.3267987,
      "lon": 9.2208627,
      "timestamp": "2022-02-01T13:28:20Z",
      "version": 10,
      "changeset": 116868957,
      "user": "A-d-r-i",
      "uid": 3524412,
      "tags": {
        "addr:postcode": "20250",
        "name": "Santa-Lucia-di-Mercurio",
        "place": "village",
        "wikidata": "Q954328",
        "wikipedia": "fr:Santa-Lucia-di-Mercurio"
      }
    },
    {
      "type": "node",
      "id": 411267057,
      "lat": 42.3591742,
      "lon": 9.1645237,
      "timestamp": "2022-02-01T13:28:20Z",
      "version": 10,
      "changeset": 116868957,
      "user": "A-d-r-i",
      "uid": 3524412,
      "tags": {
        "addr:postcode": "20250",
        "name": "Soveria",
        "place": "village"
      }
    },
    {
      "type": "node",
      "id": 411267058,
      "lat": 42.3328529,
      "lon": 9.1674096,
      "timestamp": "2009-05-26T08:28:16Z",
      "version": 1,
      "changeset": 1323186,
      "user": "mote",
      "uid": 40688,
      "tags": {
        "name": "Bistuglio",
        "place": "hamlet"
      }
    },
    {
      "type": "node",
      "id": 411267059,
      "lat": 42.3475737,
      "lon": 9.174419,
      "timestamp": "2011-03-24T22:48:48Z",
      "version": 2,
      "changeset": 7660883,
      "user": "Peter Lerner",
      "uid": 46964,
      "tags": {
        "name": "Collo di San Quilico",
        "place": "hamlet"
      }
    },
    {
      "type": "node",
      "id": 497365830,
      "lat": 42.1689555,
      "lon": 9.5298705,
      "timestamp": "2009-09-15T22:05:22Z",
      "version": 1,
      "changeset": 2497238,
      "user": "Jens Wilke",
      "uid": 85443,
      "tags": {
        "tourism": "camp_site"
      }
    },
    {
      "type": "node",
      "id": 500907697,
      "lat": 42.3733641,
      "lon": 9.5302074,
      "timestamp": "2013-12-12T01:26:42Z",
      "version": 6,
      "changeset": 19405183,
      "user": "RedFox",
      "uid": 10610,
      "tags": {
        "name": "Padulella-Moriani-Plage",
        "place": "village"
      }
    },
    {
      "type": "node",
      "id": 500958829,
      "lat": 42.3322737,
      "lon": 9.49192,
      "timestamp": "2022-02-01T13:28:20Z",
      "version": 9,
      "changeset": 116868957,
      "user": "A-d-r-i",
      "uid": 3524412,
      "tags": {
        "addr:postcode": "20221",
        "name": "Cervione",
        "name:co": "Cervioni",
        "place": "village"
      }
    },
    {
      "type": "node",
      "id": 502591911,
      "lat": 42.5201784,
      "lon": 9.4403118,
      "timestamp": "2019-04-14T14:30:30Z",
      "version": 4,
      "changeset": 69204174,
      "user": "ËdzëronK",
      "uid": 211154,
      "tags": {
        "name": "Casamozza",
        "place": "village"
      }
    },
    {
      "type": "node",
      "id": 533685099,
      "lat": 42.3920042,
      "lon": 9.1748326,
      "timestamp": "2009-10-16T13:14:18Z",
      "version": 1,
      "changeset": 2864108,
      "user": "zugersee",
      "uid": 180389,
      "tags": {
        "name": "Campito",
        "tourism": "camp_site"
      }
    },
    {
      "type": "node",
      "id": 885616434,
      "lat": 42.3706486,
      "lon": 9.5000839,
      "timestamp": "2022-02-01T13:28:20Z",
      "version": 8,
      "changeset": 116868957,
      "user": "A-d-r-i",
      "uid": 3524412,
      "tags": {
        "addr:postcode": "20230",
        "name": "San-Nicolao",
        "name:co": "Santu Niculaiu di Moriani",
        "place": "village"
      }
    },
    {
      "type": "node",
      "id": 885629369,
      "lat": 42.3564157,
      "lon": 9.4512227,
      "timestamp": "2016-09-17T12:16:59Z",
      "version": 2,
      "changeset": 42225785,
      "user": "tschild",
      "uid": 282030,
      "tags": {
        "name": "Penti",
        "place": "hamlet"
      }
    },
    {
      "type": "node",
      "id": 885630554,
      "lat": 42.3674247,
      "lon": 9.4785904,
      "timestamp": "2016-09-17T12:22:01Z",
      "version": 3,
      "changeset": 42225872,
      "user": "tschild",
      "uid": 282030,
      "tags": {
        "name": "Tribbiolu",
        "place": "hamlet"
      }
    },
    {
      "type": "node",
      "id": 903581376,
      "lat": 42.3570794,
      "lon": 9.2911329,
      "timestamp": "2022-02-01T13:28:20Z",
      "version": 6,
      "changeset": 116868957,
      "user": "A-d-r-i",
      "uid": 3524412,
      "tags": {
        "addr:postcode": "20244",
        "name": "Carticasi",
        "place": "village"
      }
    },
    {
      "type": "node",
      "id": 904481769,
      "lat": 42.2869325,
      "lon": 9.2509871,
      "timestamp": "2021-09-19T16:42:44Z",
      "version": 4,
      "changeset": 111416657,
      "user": "Kioska Journo",
      "uid": 402585,
      "tags": {
        "name": "Pinello",
        "place": "hamlet"
      }
    },
    {
      "type": "node",
      "id": 906683003,
      "lat": 42.1983303,
      "lon": 9.5550068,
      "timestamp": "2021-02-22T17:28:59Z",
      "version": 4,
      "changeset": 99761225,
      "user": "wheelmap_visitor",
      "uid": 290680,
      "tags": {
        "name": "Market",
        "shop": "convenience",
        "toilets:wheelchair": "no",
        "wheelchair": "limited"
      }
    },
    {
      "type": "node",
      "id": 906796002,
      "lat": 42.3638218,
      "lon": 9.2947179,
      "timestamp": "2022-02-01T13:28:20Z",
      "version": 6,
      "changeset": 116868957,
      "user": "A-d-r-i",
      "uid": 3524412,
      "tags": {
        "addr:postcode": "20244",
        "name": "Cambia",
        "place": "village"
      }
    },
    {
      "type": "node",
      "id": 907179391,
      "lat": 42.3665928,
      "lon": 9.3247906,
      "timestamp": "2010-09-11T19:18:43Z",
      "version": 1,
      "changeset": 5752729,
      "user": "JFC",
      "uid": 41215,
      "tags": {
        "natural": "cave_entrance"
      }
    },
    {
      "type": "node",
      "id": 907179414,
      "lat": 42.3848463,
      "lon": 9.3238268,
      "timestamp": "2021-07-14T17:53:54Z",
      "version": 2,
      "changeset": 107995408,
      "user": "emba",
      "uid": 448025,
      "tags": {
        "drinking_water": "yes",
        "intermittent": "no",
        "name": "Favalta",
        "natural": "spring"
      }
    },
    {
      "type": "node",
      "id": 907179430,
      "lat": 42.3211444,
      "lon": 9.3024057,
      "timestamp": "2022-02-01T13:28:20Z",
      "version": 6,
      "changeset": 116868957,
      "user": "A-d-r-i",
      "uid": 3524412,
      "tags": {
        "addr:postcode": "20212",
        "name": "Bustanico",
        "name:co": "Bustanicu",
        "place": "village"
      }
    },
    {
      "type": "node",
      "id": 938871721,
      "lat": 42.2287711,
      "lon": 9.174647,
      "timestamp": "2011-03-14T23:35:36Z",
      "version": 2,
      "changeset": 7562328,
      "user": "Peter Lerner",
      "uid": 46964,
      "tags": {
        "amenity": "drinking_water"
      }
    },
    {
      "type": "node",
      "id": 940724293,
      "lat": 42.3463611,
      "lon": 9.3197443,
      "timestamp": "2010-10-07T19:50:51Z",
      "version": 1,
      "changeset": 5980960,
      "user": "JFC",
      "uid": 41215,
      "tags": {
        "natural": "spring"
      }
    },
    {
      "type": "node",
      "id": 958008850,
      "lat": 42.2885527,
      "lon": 9.3049474,
      "timestamp": "2010-10-20T11:10:41Z",
      "version": 1,
      "changeset": 6111496,
      "user": "debfreak",
      "uid": 140064,
      "tags": {
        "amenity": "drinking_water"
      }
    },
    {
      "type": "node",
      "id": 958067032,
      "lat": 42.2523675,
      "lon": 9.380848,
      "timestamp": "2010-10-20T12:03:52Z",
      "version": 1,
      "changeset": 6112168,
      "user": "debfreak",
      "uid": 140064,
      "tags": {
        "amenity": "drinking_water"
      }
    },
    {
      "type": "node",
      "id": 958068623,
      "lat": 42.2760019,
      "lon": 9.3458147,
      "timestamp": "2021-12-05T17:32:41Z",
      "version": 3,
      "changeset": 114589206,
      "user": "Kioska Journo",
      "uid": 402585,
      "tags": {
        "name": "Col de la Foata",
        "natural": "saddle"
      }
    },
    {
      "type": "node",
      "id": 997831950,
      "lat": 42.3568229,
      "lon": 9.2910644,
      "timestamp": "2014-08-02T09:15:32Z",
      "version": 3,
      "changeset": 24494615,
      "user": "JFC",
      "uid": 41215,
      "tags": {
        "amenity": "drinking_water"
      }
    },
    {
      "type": "node",
      "id": 997832121,
      "lat": 42.3075136,
      "lon": 9.2969739,
      "timestamp": "2020-08-09T07:32:09Z",
      "version": 2,
      "changeset": 89145872,
      "user": "PhilLL",
      "uid": 1710208,
      "tags": {
        "access": "yes",
        "amenity": "drinking_water",
        "bottle": "yes"
      }
    },
    {
      "type": "node",
      "id": 1022863230,
      "lat": 42.3578376,
      "lon": 9.366058,
      "timestamp": "2010-12-05T15:28:28Z",
      "version": 1,
      "changeset": 6551883,
      "user": "debfreak",
      "uid": 140064,
      "tags": {
        "amenity": "drinking_water"
      }
    },
    {
      "type": "node",
      "id": 1035620628,
      "lat": 42.1843093,
      "lon": 9.2268111,
      "timestamp": "2021-11-24T22:18:44Z",
      "version": 4,
      "changeset": 114199130,
      "user": "Kioska Journo",
      "uid": 402585,
      "tags": {
        "ele": "920",
        "name": "Col d'Erbajo",
        "natural": "saddle"
      }
    },
    {
      "type": "node",
      "id": 1035620646,
      "lat": 42.1817379,
      "lon": 9.2056401,
      "timestamp": "2010-12-12T13:03:43Z",
      "version": 1,
      "changeset": 6635760,
      "user": "debfreak",
      "uid": 140064,
      "tags": {
        "amenity": "drinking_water"
      }
    },
    {
      "type": "node",
      "id": 1035634992,
      "lat": 42.0862462,
      "lon": 9.1961758,
      "timestamp": "2019-02-09T20:47:04Z",
      "version": 3,
      "changeset": 67058818,
      "user": "PhilLL",
      "uid": 1710208,
      "tags": {
        "amenity": "drinking_water"
      }
    },
    {
      "type": "node",
      "id": 1035646344,
      "lat": 42.1029686,
      "lon": 9.2663232,
      "timestamp": "2010-12-20T21:01:59Z",
      "version": 2,
      "changeset": 6720082,
      "user": "debfreak",
      "uid": 140064,
      "tags": {
        "amenity": "drinking_water"
      }
    },
    {
      "type": "node",
      "id": 1035646348,
      "lat": 42.0969006,
      "lon": 9.2901995,
      "timestamp": "2021-03-06T13:28:41Z",
      "version": 2,
      "changeset": 100535865,
      "user": "PhilLL",
      "uid": 1710208,
      "tags": {
        "amenity": "drinking_water",
        "drinking_water": "yes"
      }
    },
    {
      "type": "node",
      "id": 1038589257,
      "lat": 42.2604939,
      "lon": 9.5458604,
      "timestamp": "2021-10-23T15:55:39Z",
      "version": 4,
      "changeset": 112879542,
      "user": "Kioska Journo",
      "uid": 402585,
      "tags": {
        "name": "Alistro",
        "name:co": "Alistru",
        "place": "village"
      }
    },
    {
      "type": "node",
      "id": 1039078572,
      "lat": 42.3068145,
      "lon": 9.2609748,
      "timestamp": "2019-09-17T09:18:58Z",
      "version": 3,
      "changeset": 74566864,
      "user": "PhilLL",
      "uid": 1710208,
      "tags": {
        "ele": "667",
        "name": "Col de Bozio",
        "natural": "saddle"
      }
    },
    {
      "type": "node",
      "id": 1039373962,
      "lat": 42.303714,
      "lon": 9.3794691,
      "timestamp": "2021-10-23T22:35:48Z",
      "version": 2,
      "changeset": 112889185,
      "user": "Kioska Journo",
      "uid": 402585,
      "tags": {
        "name": "Col de Muteri",
        "natural": "saddle"
      }
    },
    {
      "type": "node",
      "id": 1052532230,
      "lat": 42.0397948,
      "lon": 9.1968264,
      "timestamp": "2022-06-04T21:46:42Z",
      "version": 3,
      "changeset": 121954748,
      "user": "PhilLL",
      "uid": 1710208,
      "tags": {
        "amenity": "drinking_water",
        "drinking_water": "yes",
        "man_made": "drinking_fountain",
        "natural": "spring"
      }
    },
    {
      "type": "node",
      "id": 1064312949,
      "lat": 42.1796474,
      "lon": 9.2203115,
      "timestamp": "2010-12-25T17:03:23Z",
      "version": 1,
      "changeset": 6762330,
      "user": "debfreak",
      "uid": 140064,
      "tags": {
        "amenity": "drinking_water"
      }
    },
    {
      "type": "node",
      "id": 1117865836,
      "lat": 42.2576499,
      "lon": 9.1863476,
      "timestamp": "2021-11-27T04:22:09Z",
      "version": 5,
      "changeset": 114283682,
      "user": "Kioska Journo",
      "uid": 402585,
      "tags": {
        "name": "Poggio-di-Venaco",
        "name:co": "U Poghju di Venacu",
        "place": "village",
        "wikipedia": "en:Poggio di Venaco"
      }
    },
    {
      "type": "node",
      "id": 1202337467,
      "lat": 42.2457628,
      "lon": 9.1725822,
      "timestamp": "2016-12-30T12:50:43Z",
      "version": 2,
      "changeset": 44783673,
      "user": "gsimon",
      "uid": 1668080,
      "tags": {
        "name": "Santo-Pietro-di-Venaco",
        "place": "village"
      }
    },
    {
      "type": "node",
      "id": 1202338785,
      "lat": 42.2318667,
      "lon": 9.172566,
      "timestamp": "2020-09-07T15:27:31Z",
      "version": 9,
      "changeset": 90539060,
      "user": "Yod4z",
      "uid": 318821,
      "tags": {
        "name": "Venaco",
        "name:co": "Vènacu",
        "place": "village",
        "wikidata": "Q245705",
        "wikipedia": "fr:Venaco"
      }
    },
    {
      "type": "node",
      "id": 1202339035,
      "lat": 42.2522735,
      "lon": 9.1835672,
      "timestamp": "2021-11-27T04:22:09Z",
      "version": 4,
      "changeset": 114283682,
      "user": "Kioska Journo",
      "uid": 402585,
      "tags": {
        "name": "Riventosa",
        "place": "village",
        "website": "https://www.ariventosa.com"
      }
    },
    {
      "type": "node",
      "id": 1202339183,
      "lat": 42.2543336,
      "lon": 9.1746169,
      "timestamp": "2022-02-01T13:28:20Z",
      "version": 3,
      "changeset": 116868957,
      "user": "A-d-r-i",
      "uid": 3524412,
      "tags": {
        "name": "Casanova",
        "place": "village"
      }
    },
    {
      "type": "node",
      "id": 1215489489,
      "lat": 42.5214979,
      "lon": 9.2822521,
      "timestamp": "2022-02-01T13:28:20Z",
      "version": 7,
      "changeset": 116868957,
      "user": "A-d-r-i",
      "uid": 3524412,
      "tags": {
        "addr:postcode": "20252",
        "name": "Lento",
        "place": "village",
        "wikidata": "Q677880",
        "wikipedia": "fr:Lento"
      }
    },
    {
      "type": "node",
      "id": 1215489711,
      "lat": 42.381254,
      "lon": 9.2475372,
      "timestamp": "2021-09-22T22:50:47Z",
      "version": 2,
      "changeset": 111565067,
      "user": "Kioska Journo",
      "uid": 402585,
      "tags": {
        "name": "Lano",
        "place": "hamlet"
      }
    },
    {
      "type": "node",
      "id": 1215490720,
      "lat": 42.3618046,
      "lon": 9.2604881,
      "timestamp": "2022-02-01T13:28:20Z",
      "version": 6,
      "changeset": 116868957,
      "user": "A-d-r-i",
      "uid": 3524412,
      "tags": {
        "addr:postcode": "20244",
        "name": "Rusio",
        "place": "village"
      }
    },
    {
      "type": "node",
      "id": 1215491032,
      "lat": 42.3885331,
      "lon": 9.2883849,
      "timestamp": "2021-09-22T22:50:47Z",
      "version": 3,
      "changeset": 111565067,
      "user": "Kioska Journo",
      "uid": 402585,
      "tags": {
        "name": "L'Olivia",
        "place": "hamlet"
      }
    },
    {
      "type": "node",
      "id": 1215491493,
      "lat": 42.3724603,
      "lon": 9.2709369,
      "timestamp": "2022-02-01T13:28:20Z",
      "version": 7,
      "changeset": 116868957,
      "user": "A-d-r-i",
      "uid": 3524412,
      "tags": {
        "addr:postcode": "20244",
        "name": "Érone",
        "place": "village"
      }
    },
    {
      "type": "node",
      "id": 1216753136,
      "lat": 42.3728484,
      "lon": 9.1443514,
      "timestamp": "2022-02-01T13:28:20Z",
      "version": 5,
      "changeset": 116868957,
      "user": "A-d-r-i",
      "uid": 3524412,
      "tags": {
        "addr:postcode": "20236",
        "name": "Castirla",
        "place": "village"
      }
    },
    {
      "type": "node",
      "id": 1216753532,
      "lat": 42.370206,
      "lon": 9.1997614,
      "timestamp": "2022-02-01T13:28:20Z",
      "version": 5,
      "changeset": 116868957,
      "user": "A-d-r-i",
      "uid": 3524412,
      "tags": {
        "addr:postcode": "20236",
        "name": "Omessa",
        "place": "village"
      }
    },
    {
      "type": "node",
      "id": 1249121902,
      "lat": 42.1986254,
      "lon": 9.210457,
      "timestamp": "2022-02-01T13:28:20Z",
      "version": 7,
      "changeset": 116868957,
      "user": "A-d-r-i",
      "uid": 3524412,
      "tags": {
        "addr:postcode": "20242",
        "name": "Noceta",
        "place": "village",
        "wikidata": "Q647297",
        "wikipedia": "fr:Noceta"
      }
    },
    {
      "type": "node",
      "id": 1253176377,
      "lat": 42.3111266,
      "lon": 9.2454923,
      "timestamp": "2022-02-01T13:28:20Z",
      "version": 7,
      "changeset": 116868957,
      "user": "A-d-r-i",
      "uid": 3524412,
      "tags": {
        "addr:postcode": "20212",
        "name": "Castellare-di-Mercurio",
        "place": "village"
      }
    },
    {
      "type": "node",
      "id": 1308196130,
      "lat": 42.3063333,
      "lon": 9.2906225,
      "timestamp": "2022-02-01T13:28:20Z",
      "version": 7,
      "changeset": 116868957,
      "user": "A-d-r-i",
      "uid": 3524412,
      "tags": {
        "addr:postcode": "20212",
        "name": "Alando",
        "place": "village"
      }
    },
    {
      "type": "node",
      "id": 1337623562,
      "lat": 42.2360435,
      "lon": 9.1760269,
      "timestamp": "2011-06-24T22:11:43Z",
      "version": 1,
      "changeset": 8537769,
      "user": "Peter Lerner",
      "uid": 46964,
      "tags": {
        "name": "Lugo",
        "place": "village"
      }
    },
    {
      "type": "node",
      "id": 1337623601,
      "lat": 42.2301391,
      "lon": 9.1719976,
      "timestamp": "2019-05-19T19:51:11Z",
      "version": 2,
      "changeset": 70419312,
      "user": "jabali",
      "uid": 358508,
      "tags": {
        "amenity": "drinking_water"
      }
    },
    {
      "type": "node",
      "id": 1341759569,
      "lat": 42.4492111,
      "lon": 9.2886524,
      "timestamp": "2011-06-27T22:46:27Z",
      "version": 1,
      "changeset": 8567224,
      "user": "Peter Lerner",
      "uid": 46964,
      "tags": {
        "name": "Casa Pitti",
        "place": "hamlet"
      }
    },
    {
      "type": "node",
      "id": 1341759570,
      "lat": 42.4585295,
      "lon": 9.2947426,
      "timestamp": "2011-06-27T22:46:27Z",
      "version": 1,
      "changeset": 8567224,
      "user": "Peter Lerner",
      "uid": 46964,
      "tags": {
        "name": "Grate",
        "place": "hamlet"
      }
    },
    {
      "type": "node",
      "id": 1341759571,
      "lat": 42.3743903,
      "lon": 9.3681289,
      "timestamp": "2022-02-01T13:28:20Z",
      "version": 5,
      "changeset": 116868957,
      "user": "A-d-r-i",
      "uid": 3524412,
      "tags": {
        "addr:postcode": "20229",
        "name": "Piedicroce",
        "place": "village"
      }
    },
    {
      "type": "node",
      "id": 1341760635,
      "lat": 42.4257535,
      "lon": 9.3499207,
      "timestamp": "2022-02-01T13:28:20Z",
      "version": 6,
      "changeset": 116868957,
      "user": "A-d-r-i",
      "uid": 3524412,
      "tags": {
        "addr:postcode": "20237",
        "name": "Quercitello",
        "place": "village"
      }
    },
    {
      "type": "node",
      "id": 1341760636,
      "lat": 42.3711507,
      "lon": 9.3724225,
      "timestamp": "2019-11-25T17:01:53Z",
      "version": 6,
      "changeset": 77535779,
      "user": "StephaneP",
      "uid": 439947,
      "tags": {
        "addr:postcode": "20229",
        "name": "Stazzona",
        "place": "village"
      }
    },
    {
      "type": "node",
      "id": 1341760637,
      "lat": 42.4302637,
      "lon": 9.3413512,
      "timestamp": "2011-06-27T22:47:05Z",
      "version": 1,
      "changeset": 8567224,
      "user": "Peter Lerner",
      "uid": 46964,
      "tags": {
        "name": "Stoppia Nova",
        "place": "hamlet"
      }
    },
    {
      "type": "node",
      "id": 1341760638,
      "lat": 42.4536313,
      "lon": 9.2856013,
      "timestamp": "2011-06-27T22:47:05Z",
      "version": 1,
      "changeset": 8567224,
      "user": "Peter Lerner",
      "uid": 46964,
      "tags": {
        "name": "Terlaia",
        "place": "hamlet"
      }
    },
    {
      "type": "node",
      "id": 1341760639,
      "lat": 42.4596199,
      "lon": 9.2813779,
      "timestamp": "2022-02-01T13:28:20Z",
      "version": 7,
      "changeset": 116868957,
      "user": "A-d-r-i",
      "uid": 3524412,
      "tags": {
        "addr:postcode": "20235",
        "name": "Valle-di-Rostino",
        "place": "village",
        "wikidata": "Q670899",
        "wikipedia": "fr:Valle-di-Rostino"
      }
    },
    {
      "type": "node",
      "id": 1341760640,
      "lat": 42.4228683,
      "lon": 9.3531871,
      "timestamp": "2022-02-01T13:28:20Z",
      "version": 8,
      "changeset": 116868957,
      "user": "A-d-r-i",
      "uid": 3524412,
      "tags": {
        "addr:postcode": "20237",
        "name": "La Porta",
        "place": "village"
      }
    },
    {
      "type": "node",
      "id": 1390057634,
      "lat": 42.3985048,
      "lon": 9.2434795,
      "timestamp": "2021-09-22T22:50:47Z",
      "version": 2,
      "changeset": 111565067,
      "user": "Kioska Journo",
      "uid": 402585,
      "tags": {
        "name": "Aiti",
        "name:co": "Àiti",
        "place": "village"
      }
    },
    {
      "type": "node",
      "id": 1390057644,
      "lat": 42.423341,
      "lon": 9.2992204,
      "timestamp": "2022-02-01T13:28:20Z",
      "version": 5,
      "changeset": 116868957,
      "user": "A-d-r-i",
      "uid": 3524412,
      "tags": {
        "addr:postcode": "20218",
        "name": "Castineta",
        "place": "village"
      }
    },
    {
      "type": "node",
      "id": 1390057646,
      "lat": 42.4236167,
      "lon": 9.2943307,
      "timestamp": "2019-02-15T17:52:16Z",
      "version": 2,
      "changeset": 67234162,
      "user": "Bathyscapher",
      "uid": 8889564,
      "tags": {
        "name": "Castineta Sottana",
        "place": "hamlet"
      }
    },
    {
      "type": "node",
      "id": 1390057647,
      "lat": 42.4181074,
      "lon": 9.285831,
      "timestamp": "2019-11-25T17:01:53Z",
      "version": 5,
      "changeset": 77535779,
      "user": "StephaneP",
      "uid": 439947,
      "tags": {
        "addr:postcode": "20218",
        "name": "Gavignano",
        "place": "village"
      }
    },
    {
      "type": "node",
      "id": 1390057653,
      "lat": 42.4368399,
      "lon": 9.304545,
      "timestamp": "2022-03-21T11:06:37Z",
      "version": 2,
      "changeset": 118730554,
      "user": "PhilLL",
      "uid": 1710208,
      "tags": {
        "name": "Morosaglia",
        "name:co": "Merusaglia",
        "place": "village",
        "wikidata": "Q270675",
        "wikipedia": "fr:Morosaglia"
      }
    },
    {
      "type": "node",
      "id": 1390057656,
      "lat": 42.4151581,
      "lon": 9.2900166,
      "timestamp": "2011-08-07T19:16:55Z",
      "version": 1,
      "changeset": 8950777,
      "user": "Peter Lerner",
      "uid": 46964,
      "tags": {
        "name": "Petragrossa",
        "place": "hamlet"
      }
    },
    {
      "type": "node",
      "id": 1390057658,
      "lat": 42.41171,
      "lon": 9.2830239,
      "timestamp": "2019-02-14T23:37:54Z",
      "version": 2,
      "changeset": 67210951,
      "user": "Bathyscapher",
      "uid": 8889564,
      "tags": {
        "name": "Poggio",
        "place": "hamlet"
      }
    },
    {
      "type": "node",
      "id": 1390057659,
      "lat": 42.4219925,
      "lon": 9.1612784,
      "timestamp": "2013-03-16T19:58:13Z",
      "version": 3,
      "changeset": 15388396,
      "user": "la colle",
      "uid": 530603,
      "tags": {
        "name": "Prato Soprano",
        "place": "hamlet"
      }
    },
    {
      "type": "node",
      "id": 1390057660,
      "lat": 42.4237787,
      "lon": 9.1644687,
      "timestamp": "2022-02-01T13:28:20Z",
      "version": 5,
      "changeset": 116868957,
      "user": "A-d-r-i",
      "uid": 3524412,
      "tags": {
        "addr:postcode": "20218",
        "name": "Prato-di-Giovellina",
        "place": "village"
      }
    },
    {
      "type": "node",
      "id": 1390177120,
      "lat": 42.4628386,
      "lon": 9.3700306,
      "timestamp": "2022-02-01T13:28:20Z",
      "version": 8,
      "changeset": 116868957,
      "user": "A-d-r-i",
      "uid": 3524412,
      "tags": {
        "addr:postcode": "20290",
        "name": "Penta-Acquatella",
        "place": "village"
      }
    },
    {
      "type": "node",
      "id": 1390177122,
      "lat": 42.3885979,
      "lon": 9.3531419,
      "timestamp": "2022-02-01T13:28:20Z",
      "version": 4,
      "changeset": 116868957,
      "user": "A-d-r-i",
      "uid": 3524412,
      "tags": {
        "addr:postcode": "20229",
        "name": "Campana",
        "place": "village"
      }
    },
    {
      "type": "node",
      "id": 1390177123,
      "lat": 42.3563706,
      "lon": 9.3789396,
      "timestamp": "2022-02-01T13:28:20Z",
      "version": 6,
      "changeset": 116868957,
      "user": "A-d-r-i",
      "uid": 3524412,
      "tags": {
        "addr:postcode": "20229",
        "name": "Carpineto",
        "place": "village"
      }
    },
    {
      "type": "node",
      "id": 1390177125,
      "lat": 42.4459766,
      "lon": 9.3640918,
      "timestamp": "2022-02-01T13:28:20Z",
      "version": 5,
      "changeset": 116868957,
      "user": "A-d-r-i",
      "uid": 3524412,
      "tags": {
        "addr:postcode": "20237",
        "name": "Casabianca",
        "place": "village"
      }
    },
    {
      "type": "node",
      "id": 1390177126,
      "lat": 42.413758,
      "lon": 9.3621573,
      "timestamp": "2022-02-01T13:28:20Z",
      "version": 6,
      "changeset": 116868957,
      "user": "A-d-r-i",
      "uid": 3524412,
      "tags": {
        "addr:postcode": "20237",
        "name": "Croce",
        "place": "village"
      }
    },
    {
      "type": "node",
      "id": 1390177130,
      "lat": 42.4221114,
      "lon": 9.3671268,
      "timestamp": "2022-02-01T13:28:20Z",
      "version": 6,
      "changeset": 116868957,
      "user": "A-d-r-i",
      "uid": 3524412,
      "tags": {
        "addr:postcode": "20237",
        "name": "Ficaja",
        "place": "village"
      }
    },
    {
      "type": "node",
      "id": 1390177134,
      "lat": 42.4436514,
      "lon": 9.3496625,
      "timestamp": "2022-02-01T13:28:20Z",
      "version": 6,
      "changeset": 116868957,
      "user": "A-d-r-i",
      "uid": 3524412,
      "tags": {
        "addr:postcode": "20237",
        "name": "Giocatojo",
        "name:co": "Ghjucatoghju",
        "place": "village"
      }
    },
    {
      "type": "node",
      "id": 1390177137,
      "lat": 42.4367291,
      "lon": 9.3422267,
      "timestamp": "2011-08-07T20:54:45Z",
      "version": 1,
      "changeset": 8951853,
      "user": "Peter Lerner",
      "uid": 46964,
      "tags": {
        "name": "Lutina",
        "place": "village"
      }
    },
    {
      "type": "node",
      "id": 1390177141,
      "lat": 42.3984164,
      "lon": 9.3504456,
      "timestamp": "2022-02-01T13:28:20Z",
      "version": 7,
      "changeset": 116868957,
      "user": "A-d-r-i",
      "uid": 3524412,
      "tags": {
        "addr:postcode": "20229",
        "name": "Nocario",
        "name:co": "Nucariu",
        "place": "village"
      }
    },
    {
      "type": "node",
      "id": 1390177144,
      "lat": 42.4356079,
      "lon": 9.3541797,
      "timestamp": "2022-02-01T13:28:20Z",
      "version": 6,
      "changeset": 116868957,
      "user": "A-d-r-i",
      "uid": 3524412,
      "tags": {
        "addr:postcode": "20237",
        "name": "Poggio-Marinaccio",
        "place": "village"
      }
    },
    {
      "type": "node",
      "id": 1390177145,
      "lat": 42.4008093,
      "lon": 9.3646801,
      "timestamp": "2022-02-01T13:28:20Z",
      "version": 5,
      "changeset": 116868957,
      "user": "A-d-r-i",
      "uid": 3524412,
      "tags": {
        "addr:postcode": "20229",
        "name": "Polveroso",
        "place": "village"
      }
    },
    {
      "type": "node",
      "id": 1390180195,
      "lat": 42.3763212,
      "lon": 9.3773966,
      "timestamp": "2011-08-07T20:56:12Z",
      "version": 1,
      "changeset": 8951853,
      "user": "Peter Lerner",
      "uid": 46964,
      "tags": {
        "name": "Source de Orezza",
        "name:de": "Quelle von Orezza",
        "natural": "spring"
      }
    },
    {
      "type": "node",
      "id": 1390180196,
      "lat": 42.4416532,
      "lon": 9.3648549,
      "timestamp": "2011-08-07T20:56:12Z",
      "version": 1,
      "changeset": 8951853,
      "user": "Peter Lerner",
      "uid": 46964,
      "tags": {
        "name": "Quercetto",
        "place": "hamlet"
      }
    },
    {
      "type": "node",
      "id": 1390180206,
      "lat": 42.3933938,
      "lon": 9.364312,
      "timestamp": "2019-11-25T17:01:53Z",
      "version": 7,
      "changeset": 77535779,
      "user": "StephaneP",
      "uid": 439947,
      "tags": {
        "name": "Verdèse",
        "place": "village"
      }
    },
    {
      "type": "node",
      "id": 1390820196,
      "lat": 42.374253,
      "lon": 9.2843101,
      "timestamp": "2021-09-22T22:50:47Z",
      "version": 3,
      "changeset": 111565067,
      "user": "Kioska Journo",
      "uid": 402585,
      "tags": {
        "name": "Corsoli",
        "place": "hamlet"
      }
    },
    {
      "type": "node",
      "id": 1390820197,
      "lat": 42.369007,
      "lon": 9.2988836,
      "timestamp": "2020-10-31T21:07:40Z",
      "version": 2,
      "changeset": 93352342,
      "user": "JFK73",
      "uid": 662440,
      "tags": {
        "name": "Loriani",
        "place": "hamlet"
      }
    },
    {
      "type": "node",
      "id": 1390820199,
      "lat": 42.3785548,
      "lon": 9.2944598,
      "timestamp": "2011-08-09T07:32:56Z",
      "version": 2,
      "changeset": 8964201,
      "user": "JFC",
      "uid": 41215,
      "tags": {
        "name": "San Quilicu",
        "place": "hamlet"
      }
    },
    {
      "type": "node",
      "id": 1390820230,
      "lat": 42.3635284,
      "lon": 9.2948572,
      "timestamp": "2011-08-08T13:44:57Z",
      "version": 1,
      "changeset": 8957382,
      "user": "JFC",
      "uid": 41215,
      "tags": {
        "amenity": "drinking_water"
      }
    },
    {
      "type": "node",
      "id": 1390820361,
      "lat": 42.3785457,
      "lon": 9.294382,
      "timestamp": "2011-08-08T13:45:03Z",
      "version": 1,
      "changeset": 8957382,
      "user": "JFC",
      "uid": 41215,
      "tags": {
        "amenity": "drinking_water"
      }
    },
    {
      "type": "node",
      "id": 1390840650,
      "lat": 42.3601677,
      "lon": 9.3330461,
      "timestamp": "2019-05-22T14:27:28Z",
      "version": 2,
      "changeset": 70517661,
      "user": "jabali",
      "uid": 358508,
      "tags": {
        "amenity": "shelter",
        "name": "Calleruccio",
        "shelter_type": "basic_hut"
      }
    },
    {
      "type": "node",
      "id": 1390840654,
      "lat": 42.3839661,
      "lon": 9.3230378,
      "timestamp": "2019-05-22T14:27:28Z",
      "version": 2,
      "changeset": 70517661,
      "user": "jabali",
      "uid": 358508,
      "tags": {
        "amenity": "shelter",
        "name": "Favalta",
        "shelter_type": "basic_hut"
      }
    },
    {
      "type": "node",
      "id": 1390840688,
      "lat": 42.3663287,
      "lon": 9.3298481,
      "timestamp": "2019-05-22T14:27:28Z",
      "version": 3,
      "changeset": 70517661,
      "user": "jabali",
      "uid": 358508,
      "tags": {
        "amenity": "shelter",
        "name": "Prato",
        "shelter_type": "basic_hut"
      }
    },
    {
      "type": "node",
      "id": 1390840692,
      "lat": 42.3632965,
      "lon": 9.3317081,
      "timestamp": "2019-05-22T14:27:28Z",
      "version": 2,
      "changeset": 70517661,
      "user": "jabali",
      "uid": 358508,
      "tags": {
        "natural": "spring"
      }
    },
    {
      "type": "node",
      "id": 1402286169,
      "lat": 42.2022836,
      "lon": 9.554953,
      "timestamp": "2021-02-22T17:30:00Z",
      "version": 3,
      "changeset": 99761225,
      "user": "wheelmap_visitor",
      "uid": 290680,
      "tags": {
        "name": "Camping Au Bord de Mer",
        "toilets:wheelchair": "no",
        "tourism": "camp_site",
        "wheelchair": "yes"
      }
    },
    {
      "type": "node",
      "id": 1434272406,
      "lat": 42.1726348,
      "lon": 9.1697743,
      "timestamp": "2019-06-02T17:26:06Z",
      "version": 4,
      "changeset": 70861133,
      "user": "Klodd",
      "uid": 1941381,
      "tags": {
        "name": "L'Affacata",
        "shop": "convenience"
      }
    },
    {
      "type": "node",
      "id": 1434272409,
      "lat": 42.1725349,
      "lon": 9.1692938,
      "timestamp": "2018-06-22T13:18:51Z",
      "version": 5,
      "changeset": 60076114,
      "user": "roptat",
      "uid": 2805126,
      "tags": {
        "name": "chez caline",
        "operator": "JB Menozzi",
        "phone": "+33 4 95 47 22 25",
        "shop": "convenience"
      }
    },
    {
      "type": "node",
      "id": 1438752035,
      "lat": 42.439847,
      "lon": 9.5224555,
      "timestamp": "2011-09-20T20:50:06Z",
      "version": 1,
      "changeset": 9353788,
      "user": "eumiro",
      "uid": 29717,
      "tags": {
        "name": "U Ficajole",
        "tourism": "camp_site"
      }
    },
    {
      "type": "node",
      "id": 1449915717,
      "lat": 42.1143659,
      "lon": 9.1546076,
      "timestamp": "2019-08-05T09:24:34Z",
      "version": 5,
      "changeset": 73012853,
      "user": "PhilLL",
      "uid": 1710208,
      "tags": {
        "drinking_water": "yes",
        "name": "Ochju Piattu",
        "natural": "spring"
      }
    },
    {
      "type": "node",
      "id": 1559280818,
      "lat": 42.3461105,
      "lon": 9.4971696,
      "timestamp": "2022-02-01T13:28:20Z",
      "version": 6,
      "changeset": 116868957,
      "user": "A-d-r-i",
      "uid": 3524412,
      "tags": {
        "addr:postcode": "20221",
        "name": "Santa-Maria-Poggio",
        "place": "village"
      }
    },
    {
      "type": "node",
      "id": 1588882522,
      "lat": 42.5282525,
      "lon": 9.3630668,
      "timestamp": "2012-09-05T05:09:03Z",
      "version": 4,
      "changeset": 12990559,
      "user": "la colle",
      "uid": 530603,
      "tags": {
        "name": "Erbaggio",
        "place": "hamlet"
      }
    },
    {
      "type": "node",
      "id": 1588882553,
      "lat": 42.5306282,
      "lon": 9.3617608,
      "timestamp": "2022-02-01T13:28:20Z",
      "version": 10,
      "changeset": 116868957,
      "user": "A-d-r-i",
      "uid": 3524412,
      "tags": {
        "addr:postcode": "20290",
        "name": "Scolca",
        "place": "village",
        "wikidata": "Q634070",
        "wikipedia": "fr:Scolca"
      }
    },
    {
      "type": "node",
      "id": 1589725530,
      "lat": 42.5377641,
      "lon": 9.381635,
      "timestamp": "2022-02-01T13:28:20Z",
      "version": 7,
      "changeset": 116868957,
      "user": "A-d-r-i",
      "uid": 3524412,
      "tags": {
        "addr:postcode": "20290",
        "name": "Vignale",
        "place": "village",
        "wikidata": "Q753094",
        "wikipedia": "fr:Vignale (Haute-Corse)"
      }
    },
    {
      "type": "node",
      "id": 1652702113,
      "lat": 42.486517,
      "lon": 9.3494108,
      "timestamp": "2015-08-01T13:50:16Z",
      "version": 3,
      "changeset": 33026422,
      "user": "wheelmap_visitor",
      "uid": 290680,
      "tags": {
        "amenity": "drinking_water",
        "wheelchair": "no"
      }
    },
    {
      "type": "node",
      "id": 1671955679,
      "lat": 42.4936573,
      "lon": 9.4387142,
      "timestamp": "2022-02-01T13:28:20Z",
      "version": 4,
      "changeset": 116868957,
      "user": "A-d-r-i",
      "uid": 3524412,
      "tags": {
        "name": "Vescovato",
        "place": "village"
      }
    },
    {
      "type": "node",
      "id": 1672001155,
      "lat": 42.3034605,
      "lon": 9.3018489,
      "timestamp": "2022-02-01T13:28:20Z",
      "version": 7,
      "changeset": 116868957,
      "user": "A-d-r-i",
      "uid": 3524412,
      "tags": {
        "addr:postcode": "20212",
        "name": "Alzi",
        "place": "village",
        "wikidata": "Q245007",
        "wikipedia": "fr:Alzi"
      }
    },
    {
      "type": "node",
      "id": 1700106063,
      "lat": 42.330341,
      "lon": 9.346863,
      "timestamp": "2021-10-21T08:39:39Z",
      "version": 3,
      "changeset": 112779872,
      "user": "Binnette",
      "uid": 918586,
      "tags": {
        "amenity": "drinking_water",
        "ele": "1731",
        "name": "Caldane",
        "natural": "peak",
        "place": "locality",
        "wikidata": "Q22248767"
      }
    },
    {
      "type": "node",
      "id": 1700110147,
      "lat": 42.3308136,
      "lon": 9.488242,
      "timestamp": "2021-10-10T19:37:38Z",
      "version": 5,
      "changeset": 112346704,
      "user": "Kioska Journo",
      "uid": 402585,
      "tags": {
        "amenity": "drinking_water",
        "name": "Fontaine de Piuvannaccia",
        "name:co": "A Funtana di Piuvannaccia",
        "ref:mhs": "IA2B000086",
        "start_date": "1875"
      }
    },
    {
      "type": "node",
      "id": 1700111782,
      "lat": 42.33643,
      "lon": 9.39549,
      "timestamp": "2019-05-21T09:15:15Z",
      "version": 2,
      "changeset": 70470221,
      "user": "jabali",
      "uid": 358508,
      "tags": {
        "amenity": "drinking_water",
        "description:en": "Ferreous and carbonated",
        "description:fr": "Source ferrugineuse"
      }
    },
    {
      "type": "node",
      "id": 1700111974,
      "lat": 42.3325283,
      "lon": 9.4143292,
      "timestamp": "2019-05-20T13:14:19Z",
      "version": 4,
      "changeset": 70440508,
      "user": "jabali",
      "uid": 358508,
      "tags": {
        "amenity": "drinking_water"
      }
    },
    {
      "type": "node",
      "id": 1700112696,
      "lat": 42.333309,
      "lon": 9.458276,
      "timestamp": "2012-03-31T20:07:17Z",
      "version": 1,
      "changeset": 11170678,
      "user": "neufelder",
      "uid": 251598,
      "tags": {
        "amenity": "drinking_water"
      }
    },
    {
      "type": "node",
      "id": 1700119004,
      "lat": 42.351074,
      "lon": 9.336375,
      "timestamp": "2012-03-31T20:09:04Z",
      "version": 1,
      "changeset": 11170678,
      "user": "neufelder",
      "uid": 251598,
      "tags": {
        "amenity": "shelter"
      }
    },
    {
      "type": "node",
      "id": 1700125491,
      "lat": 42.44503,
      "lon": 9.325114,
      "timestamp": "2012-03-31T20:11:24Z",
      "version": 1,
      "changeset": 11170678,
      "user": "neufelder",
      "uid": 251598,
      "tags": {
        "amenity": "drinking_water"
      }
    },
    {
      "type": "node",
      "id": 1700125616,
      "lat": 42.448158,
      "lon": 9.324056,
      "timestamp": "2021-03-05T06:23:36Z",
      "version": 2,
      "changeset": 100465171,
      "user": "Hervé TUC",
      "uid": 922338,
      "tags": {
        "natural": "spring"
      }
    },
    {
      "type": "node",
      "id": 1708081409,
      "lat": 42.23681,
      "lon": 9.29045,
      "timestamp": "2022-02-01T13:28:20Z",
      "version": 5,
      "changeset": 116868957,
      "user": "A-d-r-i",
      "uid": 3524412,
      "tags": {
        "name": "Altiani",
        "place": "village"
      }
    },
    {
      "type": "node",
      "id": 1708081412,
      "lat": 42.5278668,
      "lon": 9.3018618,
      "timestamp": "2022-02-01T13:28:20Z",
      "version": 6,
      "changeset": 116868957,
      "user": "A-d-r-i",
      "uid": 3524412,
      "tags": {
        "name": "Bigorno",
        "place": "village"
      }
    },
    {
      "type": "node",
      "id": 1708081413,
      "lat": 42.4782071,
      "lon": 9.3231679,
      "timestamp": "2019-11-25T17:02:18Z",
      "version": 4,
      "changeset": 77535779,
      "user": "StephaneP",
      "uid": 439947,
      "tags": {
        "addr:postcode": "20235",
        "name": "Bisinchi",
        "place": "village"
      }
    },
    {
      "type": "node",
      "id": 1708081414,
      "lat": 42.27125,
      "lon": 9.42283,
      "timestamp": "2022-02-01T13:28:20Z",
      "version": 6,
      "changeset": 116868957,
      "user": "A-d-r-i",
      "uid": 3524412,
      "tags": {
        "addr:postcode": "20270",
        "name": "Campi",
        "place": "village"
      }
    },
    {
      "type": "node",
      "id": 1708081415,
      "lat": 42.4923861,
      "lon": 9.3536862,
      "timestamp": "2022-02-01T13:28:20Z",
      "version": 8,
      "changeset": 116868957,
      "user": "A-d-r-i",
      "uid": 3524412,
      "tags": {
        "addr:postcode": "20290",
        "name": "Campile",
        "place": "village",
        "wikidata": "Q686017",
        "wikipedia": "fr:Campile"
      }
    },
    {
      "type": "node",
      "id": 1708081416,
      "lat": 42.5278923,
      "lon": 9.3163314,
      "timestamp": "2022-02-01T13:28:20Z",
      "version": 8,
      "changeset": 116868957,
      "user": "A-d-r-i",
      "uid": 3524412,
      "tags": {
        "addr:postcode": "20252",
        "name": "Campitello",
        "place": "village",
        "wikidata": "Q271086",
        "wikipedia": "fr:Campitello"
      }
    },
    {
      "type": "node",
      "id": 1708081418,
      "lat": 42.27414,
      "lon": 9.479,
      "timestamp": "2022-02-01T13:28:20Z",
      "version": 4,
      "changeset": 116868957,
      "user": "A-d-r-i",
      "uid": 3524412,
      "tags": {
        "name": "Canale-di-Verde",
        "place": "village"
      }
    },
    {
      "type": "node",
      "id": 1708081425,
      "lat": 42.5035786,
      "lon": 9.2626552,
      "timestamp": "2022-02-01T13:28:20Z",
      "version": 6,
      "changeset": 116868957,
      "user": "A-d-r-i",
      "uid": 3524412,
      "tags": {
        "addr:postcode": "20235",
        "name": "Canavaggia",
        "place": "village",
        "wikidata": "Q1087689",
        "wikipedia": "fr:Canavaggia (Haute-Corse)"
      }
    },
    {
      "type": "node",
      "id": 1708081426,
      "lat": 42.3649,
      "lon": 9.36503,
      "timestamp": "2022-02-01T13:28:20Z",
      "version": 5,
      "changeset": 116868957,
      "user": "A-d-r-i",
      "uid": 3524412,
      "tags": {
        "name": "Carcheto-Brustico",
        "place": "village"
      }
    },
    {
      "type": "node",
      "id": 1708081427,
      "lat": 42.44163,
      "lon": 9.40871,
      "timestamp": "2022-02-01T13:28:20Z",
      "version": 5,
      "changeset": 116868957,
      "user": "A-d-r-i",
      "uid": 3524412,
      "tags": {
        "name": "Casalta",
        "place": "village"
      }
    },
    {
      "type": "node",
      "id": 1708081428,
      "lat": 42.4675548,
      "lon": 9.473228,
      "timestamp": "2019-11-25T17:02:18Z",
      "version": 5,
      "changeset": 77535779,
      "user": "StephaneP",
      "uid": 439947,
      "tags": {
        "name": "Castellare-di-Casinca",
        "place": "village"
      }
    },
    {
      "type": "node",
      "id": 1708081429,
      "lat": 42.46348,
      "lon": 9.31489,
      "timestamp": "2022-02-01T13:28:20Z",
      "version": 4,
      "changeset": 116868957,
      "user": "A-d-r-i",
      "uid": 3524412,
      "tags": {
        "name": "Castello-di-Rostino",
        "place": "village"
      }
    },
    {
      "type": "node",
      "id": 1708081448,
      "lat": 42.2913586,
      "lon": 9.475159,
      "timestamp": "2022-02-01T13:28:20Z",
      "version": 5,
      "changeset": 116868957,
      "user": "A-d-r-i",
      "uid": 3524412,
      "tags": {
        "addr:postcode": "20230",
        "name": "Chiatra",
        "place": "village"
      }
    },
    {
      "type": "node",
      "id": 1708081454,
      "lat": 42.46829,
      "lon": 9.3521411,
      "timestamp": "2022-02-01T13:28:20Z",
      "version": 4,
      "changeset": 116868957,
      "user": "A-d-r-i",
      "uid": 3524412,
      "tags": {
        "name": "Crocicchia",
        "place": "village"
      }
    },
    {
      "type": "node",
      "id": 1708081462,
      "lat": 42.2639526,
      "lon": 9.2830242,
      "timestamp": "2022-02-01T13:28:20Z",
      "version": 6,
      "changeset": 116868957,
      "user": "A-d-r-i",
      "uid": 3524412,
      "tags": {
        "name": "Erbajolo",
        "name:co": "Erbaghjolu",
        "place": "village"
      }
    },
    {
      "type": "node",
      "id": 1708081475,
      "lat": 42.3499886,
      "lon": 9.4173512,
      "timestamp": "2022-02-01T13:28:20Z",
      "version": 5,
      "changeset": 116868957,
      "user": "A-d-r-i",
      "uid": 3524412,
      "tags": {
        "addr:postcode": "20234",
        "name": "Felce",
        "place": "village"
      }
    },
    {
      "type": "node",
      "id": 1708081476,
      "lat": 42.2502788,
      "lon": 9.2951006,
      "timestamp": "2022-02-01T13:28:20Z",
      "version": 6,
      "changeset": 116868957,
      "user": "A-d-r-i",
      "uid": 3524412,
      "tags": {
        "name": "Focicchia",
        "place": "village"
      }
    },
    {
      "type": "node",
      "id": 1708081477,
      "lat": 42.21658,
      "lon": 9.3670552,
      "timestamp": "2022-02-01T13:28:20Z",
      "version": 4,
      "changeset": 116868957,
      "user": "A-d-r-i",
      "uid": 3524412,
      "tags": {
        "name": "Giuncaggio",
        "place": "village"
      }
    },
    {
      "type": "node",
      "id": 1708081487,
      "lat": 42.26369,
      "lon": 9.47299,
      "timestamp": "2022-02-01T13:28:20Z",
      "version": 4,
      "changeset": 116868957,
      "user": "A-d-r-i",
      "uid": 3524412,
      "tags": {
        "name": "Linguizzetta",
        "place": "village"
      }
    },
    {
      "type": "node",
      "id": 1708081498,
      "lat": 42.47645,
      "lon": 9.42959,
      "timestamp": "2022-02-01T13:28:20Z",
      "version": 5,
      "changeset": 116868957,
      "user": "A-d-r-i",
      "uid": 3524412,
      "tags": {
        "name": "Loreto-di-Casinca",
        "name:co": "L'Oretu-di-Casinca",
        "place": "village"
      }
    },
    {
      "type": "node",
      "id": 1708081502,
      "lat": 42.3019863,
      "lon": 9.3091592,
      "timestamp": "2022-02-01T13:28:20Z",
      "version": 8,
      "changeset": 116868957,
      "user": "A-d-r-i",
      "uid": 3524412,
      "tags": {
        "addr:postcode": "20212",
        "name": "Mazzola",
        "place": "village"
      }
    },
    {
      "type": "node",
      "id": 1708081504,
      "lat": 42.3819,
      "lon": 9.39729,
      "timestamp": "2022-02-01T13:28:20Z",
      "version": 5,
      "changeset": 116868957,
      "user": "A-d-r-i",
      "uid": 3524412,
      "tags": {
        "name": "Monacia-d'Orezza",
        "place": "village"
      }
    },
    {
      "type": "node",
      "id": 1708081505,
      "lat": 42.4687171,
      "lon": 9.3916453,
      "timestamp": "2022-02-01T13:28:20Z",
      "version": 6,
      "changeset": 116868957,
      "user": "A-d-r-i",
      "uid": 3524412,
      "tags": {
        "addr:postcode": "20290",
        "name": "Monte",
        "place": "village",
        "wikidata": "Q677898",
        "wikipedia": "fr:Monte (Haute-Corse)"
      }
    },
    {
      "type": "node",
      "id": 1708081506,
      "lat": 42.3096,
      "lon": 9.41489,
      "timestamp": "2022-02-01T13:28:20Z",
      "version": 5,
      "changeset": 116868957,
      "user": "A-d-r-i",
      "uid": 3524412,
      "tags": {
        "name": "Novale",
        "place": "village"
      }
    },
    {
      "type": "node",
      "id": 1708081520,
      "lat": 42.4956586,
      "lon": 9.4071438,
      "timestamp": "2022-02-01T13:28:20Z",
      "version": 6,
      "changeset": 116868957,
      "user": "A-d-r-i",
      "uid": 3524412,
      "tags": {
        "addr:postcode": "20290",
        "name": "Olmo",
        "place": "village",
        "wikidata": "Q782611",
        "wikipedia": "fr:Olmo"
      }
    },
    {
      "type": "node",
      "id": 1708081535,
      "lat": 42.3166718,
      "lon": 9.4228224,
      "timestamp": "2022-02-01T13:28:20Z",
      "version": 6,
      "changeset": 116868957,
      "user": "A-d-r-i",
      "uid": 3524412,
      "tags": {
        "name": "Ortale",
        "place": "village"
      }
    },
    {
      "type": "node",
      "id": 1708081538,
      "lat": 42.4566579,
      "lon": 9.3431587,
      "timestamp": "2022-02-01T13:28:20Z",
      "version": 6,
      "changeset": 116868957,
      "user": "A-d-r-i",
      "uid": 3524412,
      "tags": {
        "addr:postcode": "20290",
        "name": "Ortiporio",
        "place": "village",
        "wikidata": "Q1109570",
        "wikipedia": "fr:Ortiporio"
      }
    },
    {
      "type": "node",
      "id": 1708081539,
      "lat": 42.3701443,
      "lon": 9.4091248,
      "timestamp": "2019-11-25T17:02:18Z",
      "version": 4,
      "changeset": 77535779,
      "user": "StephaneP",
      "uid": 439947,
      "tags": {
        "name": "Parata",
        "place": "village"
      }
    },
    {
      "type": "node",
      "id": 1708081555,
      "lat": 42.3235577,
      "lon": 9.3935275,
      "timestamp": "2022-02-01T13:28:20Z",
      "version": 7,
      "changeset": 116868957,
      "user": "A-d-r-i",
      "uid": 3524412,
      "tags": {
        "addr:postcode": "20234",
        "name": "Perelli",
        "place": "village",
        "wikidata": "Q1109529",
        "wikipedia": "fr:Perelli"
      }
    },
    {
      "type": "node",
      "id": 1708081563,
      "lat": 42.4145029,
      "lon": 9.4659192,
      "timestamp": "2022-02-01T13:28:20Z",
      "version": 3,
      "changeset": 116868957,
      "user": "A-d-r-i",
      "uid": 3524412,
      "tags": {
        "name": "Pero-Casevecchie",
        "place": "village"
      }
    },
    {
      "type": "node",
      "id": 1708081569,
      "lat": 42.4471267,
      "lon": 9.4029414,
      "timestamp": "2022-02-01T13:28:20Z",
      "version": 7,
      "changeset": 116868957,
      "user": "A-d-r-i",
      "uid": 3524412,
      "tags": {
        "addr:postcode": "20215",
        "name": "Piano",
        "place": "village",
        "wikidata": "Q271510",
        "wikipedia": "fr:Piano (Haute-Corse)"
      }
    },
    {
      "type": "node",
      "id": 1708081572,
      "lat": 42.3191271,
      "lon": 9.4067504,
      "timestamp": "2022-02-01T13:28:20Z",
      "version": 5,
      "changeset": 116868957,
      "user": "A-d-r-i",
      "uid": 3524412,
      "tags": {
        "name": "Piazzali",
        "place": "village"
      }
    },
    {
      "type": "node",
      "id": 1708081577,
      "lat": 42.3934,
      "lon": 9.40098,
      "timestamp": "2022-02-01T13:28:20Z",
      "version": 4,
      "changeset": 116868957,
      "user": "A-d-r-i",
      "uid": 3524412,
      "tags": {
        "name": "Piazzole",
        "place": "village"
      }
    },
    {
      "type": "node",
      "id": 1708081583,
      "lat": 42.37182,
      "lon": 9.35484,
      "timestamp": "2022-02-01T13:28:20Z",
      "version": 5,
      "changeset": 116868957,
      "user": "A-d-r-i",
      "uid": 3524412,
      "tags": {
        "name": "Pie-d'Orezza",
        "place": "village"
      }
    },
    {
      "type": "node",
      "id": 1708081589,
      "lat": 42.23548,
      "lon": 9.32791,
      "timestamp": "2022-02-01T13:28:20Z",
      "version": 6,
      "changeset": 116868957,
      "user": "A-d-r-i",
      "uid": 3524412,
      "tags": {
        "name": "Piedicorte-di-Gaggio",
        "place": "village"
      }
    },
    {
      "type": "node",
      "id": 1708081590,
      "lat": 42.4478129,
      "lon": 9.1725187,
      "timestamp": "2022-02-01T13:28:20Z",
      "version": 4,
      "changeset": 116868957,
      "user": "A-d-r-i",
      "uid": 3524412,
      "tags": {
        "name": "Piedigriggio",
        "place": "village",
        "wikidata": "Q245689",
        "wikipedia": "fr:Piedigriggio"
      }
    },
    {
      "type": "node",
      "id": 1708081591,
      "lat": 42.36802,
      "lon": 9.35808,
      "timestamp": "2019-11-25T17:02:18Z",
      "version": 5,
      "changeset": 77535779,
      "user": "StephaneP",
      "uid": 439947,
      "tags": {
        "name": "Piedipartino",
        "place": "village"
      }
    },
    {
      "type": "node",
      "id": 1708081592,
      "lat": 42.2987071,
      "lon": 9.4508212,
      "timestamp": "2022-03-10T10:45:25Z",
      "version": 5,
      "changeset": 118317908,
      "user": "PhilLL",
      "uid": 1710208,
      "tags": {
        "name": "Pietra-di-Verde",
        "place": "village",
        "population": "100",
        "website": "https://www.mairiepietradiverde.fr/",
        "wikidata": "Q246250",
        "wikipedia": "fr:Pietra-di-Verde"
      }
    },
    {
      "type": "node",
      "id": 1708081593,
      "lat": 42.2366842,
      "lon": 9.3449444,
      "timestamp": "2022-02-01T13:28:20Z",
      "version": 5,
      "changeset": 116868957,
      "user": "A-d-r-i",
      "uid": 3524412,
      "tags": {
        "name": "Pietraserena",
        "place": "village"
      }
    },
    {
      "type": "node",
      "id": 1708081594,
      "lat": 42.3350651,
      "lon": 9.388986,
      "timestamp": "2022-02-01T13:28:20Z",
      "version": 6,
      "changeset": 116868957,
      "user": "A-d-r-i",
      "uid": 3524412,
      "tags": {
        "name": "Pietricaggio",
        "place": "village"
      }
    },
    {
      "type": "node",
      "id": 1708081596,
      "lat": 42.344948,
      "lon": 9.3833807,
      "timestamp": "2022-02-01T13:28:20Z",
      "version": 7,
      "changeset": 116868957,
      "user": "A-d-r-i",
      "uid": 3524412,
      "tags": {
        "name": "Piobetta",
        "place": "village"
      }
    },
    {
      "type": "node",
      "id": 1708081597,
      "lat": 42.39768,
      "lon": 9.49393,
      "timestamp": "2022-02-01T13:28:20Z",
      "version": 5,
      "changeset": 116868957,
      "user": "A-d-r-i",
      "uid": 3524412,
      "tags": {
        "name": "Poggio-Mezzana",
        "name:co": "Poghju-Mezzana",
        "place": "village"
      }
    },
    {
      "type": "node",
      "id": 1708081600,
      "lat": 42.4526772,
      "lon": 9.4333785,
      "timestamp": "2022-02-01T13:28:20Z",
      "version": 5,
      "changeset": 116868957,
      "user": "A-d-r-i",
      "uid": 3524412,
      "tags": {
        "name": "Porri",
        "place": "village"
      }
    },
    {
      "type": "node",
      "id": 1708081601,
      "lat": 42.50343,
      "lon": 9.40088,
      "timestamp": "2022-02-01T13:28:20Z",
      "version": 6,
      "changeset": 116868957,
      "user": "A-d-r-i",
      "uid": 3524412,
      "tags": {
        "addr:postcode": "20290",
        "ele": "250",
        "name": "Prunelli-di-Casacconi",
        "place": "village",
        "wikidata": "Q607101",
        "wikipedia": "fr:Prunelli-di-Casacconi"
      }
    },
    {
      "type": "node",
      "id": 1708081621,
      "lat": 42.4163215,
      "lon": 9.4405239,
      "timestamp": "2022-02-01T13:28:20Z",
      "version": 8,
      "changeset": 116868957,
      "user": "A-d-r-i",
      "uid": 3524412,
      "tags": {
        "addr:postcode": "20213",
        "name": "Pruno",
        "place": "village",
        "wikidata": "Q265137",
        "wikipedia": "fr:Pruno"
      }
    },
    {
      "type": "node",
      "id": 1708081632,
      "lat": 42.372832,
      "lon": 9.3896896,
      "timestamp": "2022-02-01T13:28:20Z",
      "version": 7,
      "changeset": 116868957,
      "user": "A-d-r-i",
      "uid": 3524412,
      "tags": {
        "name": "Rapaggio",
        "name:co": "Rapaghju",
        "place": "village"
      }
    },
    {
      "type": "node",
      "id": 1708081645,
      "lat": 42.3995029,
      "lon": 9.2953131,
      "timestamp": "2022-02-01T13:28:20Z",
      "version": 5,
      "changeset": 116868957,
      "user": "A-d-r-i",
      "uid": 3524412,
      "tags": {
        "name": "Saliceto",
        "place": "village"
      }
    },
    {
      "type": "node",
      "id": 1708081646,
      "lat": 42.4111096,
      "lon": 9.4074154,
      "timestamp": "2022-02-01T13:28:20Z",
      "version": 6,
      "changeset": 116868957,
      "user": "A-d-r-i",
      "uid": 3524412,
      "tags": {
        "name": "San-Damiano",
        "place": "village"
      }
    },
    {
      "type": "node",
      "id": 1708081647,
      "lat": 42.4123206,
      "lon": 9.4237025,
      "timestamp": "2022-02-01T13:28:20Z",
      "version": 6,
      "changeset": 116868957,
      "user": "A-d-r-i",
      "uid": 3524412,
      "tags": {
        "name": "San-Gavino-d'Ampugnani",
        "place": "village"
      }
    },
    {
      "type": "node",
      "id": 1708081649,
      "lat": 42.2966208,
      "lon": 9.3047651,
      "timestamp": "2022-02-01T13:28:20Z",
      "version": 6,
      "changeset": 116868957,
      "user": "A-d-r-i",
      "uid": 3524412,
      "tags": {
        "name": "Sant'Andréa-di-Bozio",
        "place": "village"
      }
    },
    {
      "type": "node",
      "id": 1708081650,
      "lat": 42.3132786,
      "lon": 9.4798889,
      "timestamp": "2022-02-01T13:28:20Z",
      "version": 7,
      "changeset": 116868957,
      "user": "A-d-r-i",
      "uid": 3524412,
      "tags": {
        "name": "Sant'Andréa-di-Cotone",
        "name:co": "Sant'Andria di u Cutone",
        "place": "village"
      }
    },
    {
      "type": "node",
      "id": 1708081651,
      "lat": 42.4167543,
      "lon": 9.4024713,
      "timestamp": "2022-02-01T13:28:20Z",
      "version": 5,
      "changeset": 116868957,
      "user": "A-d-r-i",
      "uid": 3524412,
      "tags": {
        "name": "Scata",
        "place": "village"
      }
    },
    {
      "type": "node",
      "id": 1708081652,
      "lat": 42.31392,
      "lon": 9.26716,
      "timestamp": "2022-02-01T13:28:20Z",
      "version": 7,
      "changeset": 116868957,
      "user": "A-d-r-i",
      "uid": 3524412,
      "tags": {
        "addr:postcode": "20212",
        "name": "Sermano",
        "name:co": "Sermanu",
        "place": "village"
      }
    },
    {
      "type": "node",
      "id": 1708081653,
      "lat": 42.4498843,
      "lon": 9.4093,
      "timestamp": "2022-02-01T13:28:20Z",
      "version": 3,
      "changeset": 116868957,
      "user": "A-d-r-i",
      "uid": 3524412,
      "tags": {
        "name": "Silvareccio",
        "place": "village"
      }
    },
    {
      "type": "node",
      "id": 1708081654,
      "lat": 42.4758686,
      "lon": 9.4572465,
      "timestamp": "2022-02-01T13:28:20Z",
      "version": 3,
      "changeset": 116868957,
      "user": "A-d-r-i",
      "uid": 3524412,
      "tags": {
        "name": "Sorbo-Ocagnano",
        "place": "village"
      }
    },
    {
      "type": "node",
      "id": 1708081655,
      "lat": 42.434778,
      "lon": 9.4693977,
      "timestamp": "2022-02-01T13:28:20Z",
      "version": 7,
      "changeset": 116868957,
      "user": "A-d-r-i",
      "uid": 3524412,
      "tags": {
        "addr:postcode": "20230",
        "name": "Taglio-Isolaccio",
        "place": "village",
        "wikidata": "Q732069",
        "wikipedia": "fr:Taglio-Isolaccio"
      }
    },
    {
      "type": "node",
      "id": 1708081656,
      "lat": 42.4082429,
      "lon": 9.4799646,
      "timestamp": "2022-02-01T13:28:20Z",
      "version": 6,
      "changeset": 116868957,
      "user": "A-d-r-i",
      "uid": 3524412,
      "tags": {
        "addr:postcode": "20230",
        "name": "Talasani",
        "place": "village",
        "wikidata": "Q1240341",
        "wikipedia": "fr:Talasani"
      }
    },
    {
      "type": "node",
      "id": 1708081657,
      "lat": 42.3493372,
      "lon": 9.4021213,
      "timestamp": "2019-11-25T17:02:18Z",
      "version": 4,
      "changeset": 77535779,
      "user": "StephaneP",
      "uid": 439947,
      "tags": {
        "name": "Ortia",
        "place": "hamlet",
        "population": "14"
      }
    },
    {
      "type": "node",
      "id": 1708081659,
      "lat": 42.2512729,
      "lon": 9.4302487,
      "timestamp": "2022-02-01T13:28:20Z",
      "version": 5,
      "changeset": 116868957,
      "user": "A-d-r-i",
      "uid": 3524412,
      "tags": {
        "name": "Tox",
        "place": "village",
        "wikidata": "Q753070",
        "wikipedia": "fr:Tox"
      }
    },
    {
      "type": "node",
      "id": 1708081660,
      "lat": 42.326945,
      "lon": 9.4164631,
      "timestamp": "2022-02-01T13:28:20Z",
      "version": 9,
      "changeset": 116868957,
      "user": "A-d-r-i",
      "uid": 3524412,
      "tags": {
        "addr:postcode": "20234",
        "name": "Valle-d'Alesani",
        "place": "village",
        "wikidata": "Q1240654",
        "wikipedia": "fr:Valle-d'Alesani"
      }
    },
    {
      "type": "node",
      "id": 1708081661,
      "lat": 42.36749,
      "lon": 9.39693,
      "timestamp": "2022-02-01T13:28:20Z",
      "version": 5,
      "changeset": 116868957,
      "user": "A-d-r-i",
      "uid": 3524412,
      "tags": {
        "name": "Valle-d'Orezza",
        "place": "village"
      }
    },
    {
      "type": "node",
      "id": 1708081663,
      "lat": 42.4008628,
      "lon": 9.4712197,
      "timestamp": "2022-02-01T13:28:20Z",
      "version": 6,
      "changeset": 116868957,
      "user": "A-d-r-i",
      "uid": 3524412,
      "tags": {
        "name": "Velone-Orneto",
        "place": "village"
      }
    },
    {
      "type": "node",
      "id": 1708081664,
      "lat": 42.17362,
      "lon": 9.2461,
      "timestamp": "2022-02-01T13:28:20Z",
      "version": 4,
      "changeset": 116868957,
      "user": "A-d-r-i",
      "uid": 3524412,
      "tags": {
        "name": "Vezzani",
        "place": "village"
      }
    },
    {
      "type": "node",
      "id": 1708081665,
      "lat": 42.52612,
      "lon": 9.35338,
      "timestamp": "2022-02-01T13:28:20Z",
      "version": 9,
      "changeset": 116868957,
      "user": "A-d-r-i",
      "uid": 3524412,
      "tags": {
        "addr:postcode": "20290",
        "name": "Volpajola",
        "name:uk": "Вольпайола",
        "place": "village",
        "wikidata": "Q753065",
        "wikipedia": "fr:Volpajola"
      }
    },
    {
      "type": "node",
      "id": 1708081666,
      "lat": 42.2604476,
      "lon": 9.3729635,
      "timestamp": "2022-02-01T13:28:20Z",
      "version": 6,
      "changeset": 116868957,
      "user": "A-d-r-i",
      "uid": 3524412,
      "tags": {
        "ele": "500",
        "name": "Zalana",
        "note": "La population indiquée est la population totale de la commune",
        "place": "village"
      }
    },
    {
      "type": "node",
      "id": 1708347098,
      "lat": 42.2543,
      "lon": 9.357369,
      "timestamp": "2022-02-01T13:28:20Z",
      "version": 5,
      "changeset": 116868957,
      "user": "A-d-r-i",
      "uid": 3524412,
      "tags": {
        "name": "Ampriani",
        "place": "village"
      }
    },
    {
      "type": "node",
      "id": 1708347100,
      "lat": 42.2801871,
      "lon": 9.3904888,
      "timestamp": "2022-02-01T13:28:20Z",
      "version": 4,
      "changeset": 116868957,
      "user": "A-d-r-i",
      "uid": 3524412,
      "tags": {
        "name": "Matra",
        "place": "village"
      }
    },
    {
      "type": "node",
      "id": 1708347101,
      "lat": 42.2788557,
      "lon": 9.4126986,
      "timestamp": "2022-02-01T13:28:20Z",
      "version": 5,
      "changeset": 116868957,
      "user": "A-d-r-i",
      "uid": 3524412,
      "tags": {
        "name": "Moïta",
        "place": "village"
      }
    },
    {
      "type": "node",
      "id": 1708347105,
      "lat": 42.2903485,
      "lon": 9.3598147,
      "timestamp": "2022-02-01T13:28:20Z",
      "version": 6,
      "changeset": 116868957,
      "user": "A-d-r-i",
      "uid": 3524412,
      "tags": {
        "name": "Pianello",
        "place": "village"
      }
    },
    {
      "type": "node",
      "id": 1708347106,
      "lat": 42.1904198,
      "lon": 9.2299352,
      "timestamp": "2022-02-01T13:28:20Z",
      "version": 6,
      "changeset": 116868957,
      "user": "A-d-r-i",
      "uid": 3524412,
      "tags": {
        "name": "Rospigliani",
        "place": "village"
      }
    },
    {
      "type": "node",
      "id": 1708347116,
      "lat": 42.3842071,
      "lon": 9.5299084,
      "timestamp": "2022-02-01T13:28:20Z",
      "version": 4,
      "changeset": 116868957,
      "user": "A-d-r-i",
      "uid": 3524412,
      "tags": {
        "name": "Santa-Lucia-di-Moriani",
        "place": "village"
      }
    },
    {
      "type": "node",
      "id": 1708347306,
      "lat": 42.3353329,
      "lon": 9.4939812,
      "timestamp": "2022-02-01T13:28:20Z",
      "version": 6,
      "changeset": 116868957,
      "user": "A-d-r-i",
      "uid": 3524412,
      "tags": {
        "addr:postcode": "20221",
        "name": "Valle-di-Campoloro",
        "place": "village"
      }
    },
    {
      "type": "node",
      "id": 1708347351,
      "lat": 42.4838522,
      "lon": 9.4559812,
      "timestamp": "2022-02-01T13:28:20Z",
      "version": 5,
      "changeset": 116868957,
      "user": "A-d-r-i",
      "uid": 3524412,
      "tags": {
        "name": "Venzolasca",
        "place": "village"
      }
    },
    {
      "type": "node",
      "id": 1708347554,
      "lat": 42.27045,
      "lon": 9.34626,
      "timestamp": "2022-02-01T13:28:20Z",
      "version": 5,
      "changeset": 116868957,
      "user": "A-d-r-i",
      "uid": 3524412,
      "tags": {
        "name": "Zuani",
        "place": "village"
      }
    },
    {
      "type": "node",
      "id": 1711976787,
      "lat": 42.2950086,
      "lon": 9.2721217,
      "timestamp": "2022-02-01T13:28:20Z",
      "version": 6,
      "changeset": 116868957,
      "user": "A-d-r-i",
      "uid": 3524412,
      "tags": {
        "addr:postcode": "20212",
        "name": "Favalello",
        "place": "village"
      }
    },
    {
      "type": "node",
      "id": 1733777392,
      "lat": 42.0406875,
      "lon": 9.1522572,
      "timestamp": "2019-05-25T11:44:24Z",
      "version": 3,
      "changeset": 70609493,
      "user": "jabali",
      "uid": 358508,
      "tags": {
        "ele": "1972",
        "mountain_pass": "yes",
        "name": "Col de Pruno",
        "natural": "saddle"
      }
    },
    {
      "type": "node",
      "id": 1737565021,
      "lat": 42.3430486,
      "lon": 9.2083847,
      "timestamp": "2022-02-01T13:28:20Z",
      "version": 6,
      "changeset": 116868957,
      "user": "A-d-r-i",
      "uid": 3524412,
      "tags": {
        "addr:postcode": "20250",
        "name": "Tralonca",
        "place": "village"
      }
    },
    {
      "type": "node",
      "id": 1742427431,
      "lat": 42.3832108,
      "lon": 9.287966,
      "timestamp": "2022-02-01T13:28:20Z",
      "version": 4,
      "changeset": 116868957,
      "user": "A-d-r-i",
      "uid": 3524412,
      "tags": {
        "addr:postcode": "20244",
        "name": "San-Lorenzo",
        "place": "village"
      }
    },
    {
      "type": "node",
      "id": 1792466479,
      "lat": 42.3566434,
      "lon": 9.4603301,
      "timestamp": "2022-02-01T13:28:20Z",
      "version": 9,
      "changeset": 116868957,
      "user": "A-d-r-i",
      "uid": 3524412,
      "tags": {
        "addr:postcode": "20230",
        "name": "Santa-Reparata-di-Moriani",
        "place": "village"
      }
    },
    {
      "type": "node",
      "id": 1824501205,
      "lat": 42.5263116,
      "lon": 9.3529371,
      "timestamp": "2012-07-13T16:47:11Z",
      "version": 1,
      "changeset": 12208720,
      "user": "balistis",
      "uid": 715345,
      "tags": {
        "name": "Costa Sorbo",
        "place": "hamlet"
      }
    },
    {
      "type": "node",
      "id": 1825330560,
      "lat": 42.4104516,
      "lon": 9.5334707,
      "timestamp": "2012-07-14T13:32:28Z",
      "version": 1,
      "changeset": 12217455,
      "user": "whiskey546",
      "uid": 716710,
      "tags": {
        "name": "Miami Plage",
        "tourism": "camp_site"
      }
    },
    {
      "type": "node",
      "id": 1828440565,
      "lat": 42.52637,
      "lon": 9.3516951,
      "timestamp": "2012-07-17T11:14:03Z",
      "version": 1,
      "changeset": 12263890,
      "user": "balistis",
      "uid": 715345,
      "tags": {
        "name": "A Mendula",
        "natural": "spring"
      }
    },
    {
      "type": "node",
      "id": 1829794351,
      "lat": 42.2850271,
      "lon": 9.2386002,
      "timestamp": "2012-10-13T15:45:09Z",
      "version": 2,
      "changeset": 13480553,
      "user": "MarcoR",
      "uid": 175882,
      "tags": {
        "name": "Feo",
        "place": "hamlet"
      }
    },
    {
      "type": "node",
      "id": 1877127481,
      "lat": 42.3770212,
      "lon": 9.4768621,
      "timestamp": "2022-02-01T13:28:20Z",
      "version": 6,
      "changeset": 116868957,
      "user": "A-d-r-i",
      "uid": 3524412,
      "tags": {
        "addr:postcode": "20230",
        "name": "San-Giovanni-di-Moriani",
        "place": "village"
      }
    },
    {
      "type": "node",
      "id": 1877138773,
      "lat": 42.3148695,
      "lon": 9.4932028,
      "timestamp": "2022-02-01T13:28:20Z",
      "version": 6,
      "changeset": 116868957,
      "user": "A-d-r-i",
      "uid": 3524412,
      "tags": {
        "addr:postcode": "20230",
        "name": "San-Giuliano",
        "name:co": "San Giulianu",
        "place": "village"
      }
    },
    {
      "type": "node",
      "id": 1950399857,
      "lat": 42.4842027,
      "lon": 9.480856,
      "timestamp": "2015-03-16T13:19:06Z",
      "version": 2,
      "changeset": 29517267,
      "user": "MarcoR",
      "uid": 175882,
      "tags": {
        "name": "Querciolo",
        "place": "village"
      }
    },
    {
      "type": "node",
      "id": 1954956340,
      "lat": 42.3312843,
      "lon": 9.4862729,
      "timestamp": "2012-11-20T00:11:07Z",
      "version": 2,
      "changeset": 13939649,
      "user": "MarcoR",
      "uid": 175882,
      "tags": {
        "amenity": "drinking_water"
      }
    },
    {
      "type": "node",
      "id": 1954956382,
      "lat": 42.3318112,
      "lon": 9.4909343,
      "timestamp": "2012-10-09T14:12:19Z",
      "version": 1,
      "changeset": 13427681,
      "user": "MarcoR",
      "uid": 175882,
      "tags": {
        "amenity": "drinking_water"
      }
    },
    {
      "type": "node",
      "id": 1965456454,
      "lat": 42.2140496,
      "lon": 9.3725476,
      "timestamp": "2012-10-14T19:48:58Z",
      "version": 1,
      "changeset": 13497663,
      "user": "MarcoR",
      "uid": 175882,
      "tags": {
        "amenity": "drinking_water"
      }
    },
    {
      "type": "node",
      "id": 1965456511,
      "lat": 42.2178378,
      "lon": 9.371705,
      "timestamp": "2021-12-04T22:30:12Z",
      "version": 2,
      "changeset": 114567791,
      "user": "Kioska Journo",
      "uid": 402585,
      "tags": {
        "amenity": "drinking_water"
      }
    },
    {
      "type": "node",
      "id": 2022351830,
      "lat": 42.3310481,
      "lon": 9.4909217,
      "timestamp": "2020-10-30T18:13:13Z",
      "version": 6,
      "changeset": 93304546,
      "user": "Kioska Journo",
      "uid": 402585,
      "tags": {
        "brand": "Spar",
        "brand:wikidata": "Q610492",
        "name": "Spar",
        "opening_hours": "Mo-Sa 08:30-12:00,15:30-19:00; Su 08:30-12:00",
        "operator": "Spar",
        "phone": "+33495 48 60 57",
        "shop": "convenience"
      }
    },
    {
      "type": "node",
      "id": 2022351959,
      "lat": 42.3321334,
      "lon": 9.4901244,
      "timestamp": "2021-08-10T16:08:11Z",
      "version": 2,
      "changeset": 109473606,
      "user": "Nicola De Innocentis",
      "uid": 11291099,
      "tags": {
        "amenity": "drinking_water"
      }
    },
    {
      "type": "node",
      "id": 2022352059,
      "lat": 42.3358066,
      "lon": 9.4973921,
      "timestamp": "2020-02-21T19:56:13Z",
      "version": 3,
      "changeset": 81331259,
      "user": "migar",
      "uid": 1855790,
      "tags": {
        "name": "Fontaine",
        "natural": "spring"
      }
    },
    {
      "type": "node",
      "id": 2217305656,
      "lat": 42.4812021,
      "lon": 9.3122381,
      "timestamp": "2013-03-23T21:04:29Z",
      "version": 1,
      "changeset": 15471430,
      "user": "windu2b",
      "uid": 11068,
      "tags": {
        "name": "Fornu",
        "name:co": "U Fornu",
        "place": "hamlet"
      }
    },
    {
      "type": "node",
      "id": 2349948225,
      "lat": 42.4857393,
      "lon": 9.2808091,
      "timestamp": "2013-06-17T20:58:41Z",
      "version": 1,
      "changeset": 16596053,
      "user": "windu2b",
      "uid": 11068,
      "tags": {
        "name": "Ponte-Novo",
        "name:co": "Ponte-Novu",
        "place": "village"
      }
    },
    {
      "type": "node",
      "id": 2355913032,
      "lat": 42.3742472,
      "lon": 9.4718702,
      "timestamp": "2018-03-26T20:16:17Z",
      "version": 2,
      "changeset": 57545940,
      "user": "windu2b",
      "uid": 11068,
      "tags": {
        "name": "Cioti",
        "place": "hamlet"
      }
    },
    {
      "type": "node",
      "id": 2358305101,
      "lat": 42.4225869,
      "lon": 9.467397,
      "timestamp": "2013-06-24T08:41:40Z",
      "version": 1,
      "changeset": 16680679,
      "user": "Geofreund1",
      "uid": 179581,
      "tags": {
        "name": "Casevecchie",
        "place": "hamlet"
      }
    },
    {
      "type": "node",
      "id": 2358305109,
      "lat": 42.3736199,
      "lon": 9.5292352,
      "timestamp": "2022-05-27T08:13:38Z",
      "version": 6,
      "changeset": 121561278,
      "user": "MarcoR",
      "uid": 175882,
      "tags": {
        "contact:phone": "+33 4 95 38 41 49",
        "name": "Casino",
        "opening_hours": "Mo-Sa 08:00-19:30; Su 08:00-12:30",
        "operator": "Casino",
        "shop": "supermarket"
      }
    },
    {
      "type": "node",
      "id": 2358305219,
      "lat": 42.3672458,
      "lon": 9.495779,
      "timestamp": "2020-11-13T22:13:07Z",
      "version": 3,
      "changeset": 94088264,
      "user": "Kioska Journo",
      "uid": 402585,
      "tags": {
        "amenity": "drinking_water",
        "name": "Funtana di Ghjuvani",
        "natural": "spring"
      }
    },
    {
      "type": "node",
      "id": 2358305710,
      "lat": 42.3309942,
      "lon": 9.4911087,
      "timestamp": "2013-06-24T08:42:01Z",
      "version": 1,
      "changeset": 16680679,
      "user": "Geofreund1",
      "uid": 179581,
      "tags": {
        "amenity": "drinking_water"
      }
    },
    {
      "type": "node",
      "id": 2358305992,
      "lat": 42.345545,
      "lon": 9.4966878,
      "timestamp": "2013-06-24T08:42:12Z",
      "version": 1,
      "changeset": 16680679,
      "user": "Geofreund1",
      "uid": 179581,
      "tags": {
        "amenity": "drinking_water"
      }
    },
    {
      "type": "node",
      "id": 2358306018,
      "lat": 42.3478214,
      "lon": 9.4944904,
      "timestamp": "2021-10-09T22:36:29Z",
      "version": 2,
      "changeset": 112316828,
      "user": "Kioska Journo",
      "uid": 402585,
      "tags": {
        "amenity": "drinking_water",
        "name": "Funtana Serpentina",
        "natural": "spring",
        "ref:mhs": "IA2B000476"
      }
    },
    {
      "type": "node",
      "id": 2358307519,
      "lat": 42.3800237,
      "lon": 9.4925225,
      "timestamp": "2013-06-24T08:43:32Z",
      "version": 1,
      "changeset": 16680679,
      "user": "Geofreund1",
      "uid": 179581,
      "tags": {
        "amenity": "drinking_water"
      }
    },
    {
      "type": "node",
      "id": 2358308053,
      "lat": 42.4073066,
      "lon": 9.4774131,
      "timestamp": "2013-06-24T08:44:05Z",
      "version": 1,
      "changeset": 16680679,
      "user": "Geofreund1",
      "uid": 179581,
      "tags": {
        "amenity": "drinking_water"
      }
    },
    {
      "type": "node",
      "id": 2358308490,
      "lat": 42.4226591,
      "lon": 9.4676862,
      "timestamp": "2013-06-24T08:44:39Z",
      "version": 1,
      "changeset": 16680679,
      "user": "Geofreund1",
      "uid": 179581,
      "tags": {
        "amenity": "drinking_water"
      }
    },
    {
      "type": "node",
      "id": 2358308599,
      "lat": 42.434728,
      "lon": 9.4699083,
      "timestamp": "2013-06-24T08:44:52Z",
      "version": 1,
      "changeset": 16680679,
      "user": "Geofreund1",
      "uid": 179581,
      "tags": {
        "amenity": "drinking_water"
      }
    },
    {
      "type": "node",
      "id": 2358308693,
      "lat": 42.2773384,
      "lon": 9.5495867,
      "timestamp": "2013-06-24T08:45:02Z",
      "version": 1,
      "changeset": 16680679,
      "user": "Geofreund1",
      "uid": 179581,
      "tags": {
        "name": "Superette Florentine",
        "shop": "supermarket"
      }
    },
    {
      "type": "node",
      "id": 2358308695,
      "lat": 42.3549191,
      "lon": 9.4591812,
      "timestamp": "2013-06-24T08:45:02Z",
      "version": 1,
      "changeset": 16680679,
      "user": "Geofreund1",
      "uid": 179581,
      "tags": {
        "name": "Surgente d'acqua acitosa",
        "natural": "spring"
      }
    },
    {
      "type": "node",
      "id": 2360804855,
      "lat": 42.3761386,
      "lon": 9.3473442,
      "timestamp": "2021-10-17T20:37:50Z",
      "version": 6,
      "changeset": 112626786,
      "user": "Kioska Journo",
      "uid": 402585,
      "tags": {
        "name": "Campo d'Onico",
        "place": "hamlet"
      }
    },
    {
      "type": "node",
      "id": 2385392464,
      "lat": 42.275593,
      "lon": 9.4753389,
      "timestamp": "2013-07-15T13:54:46Z",
      "version": 1,
      "changeset": 16962690,
      "user": "brust59",
      "uid": 994422,
      "tags": {
        "natural": "spring"
      }
    },
    {
      "type": "node",
      "id": 2399778168,
      "lat": 42.2645625,
      "lon": 9.4721706,
      "timestamp": "2021-10-27T22:09:36Z",
      "version": 2,
      "changeset": 113057544,
      "user": "Kioska Journo",
      "uid": 402585,
      "tags": {
        "amenity": "drinking_water"
      }
    },
    {
      "type": "node",
      "id": 2399778169,
      "lat": 42.2674336,
      "lon": 9.4742335,
      "timestamp": "2014-01-11T19:32:47Z",
      "version": 2,
      "changeset": 19941034,
      "user": "brust59",
      "uid": 994422,
      "tags": {
        "amenity": "drinking_water"
      }
    },
    {
      "type": "node",
      "id": 2469276266,
      "lat": 42.2647511,
      "lon": 9.555174,
      "timestamp": "2019-04-19T12:38:58Z",
      "version": 3,
      "changeset": 69375219,
      "user": "ËdzëronK",
      "uid": 211154,
      "tags": {
        "name": "Amurucciu",
        "tourism": "camp_site"
      }
    },
    {
      "type": "node",
      "id": 2471535337,
      "lat": 42.4671285,
      "lon": 9.4595153,
      "timestamp": "2022-02-17T07:33:54Z",
      "version": 5,
      "changeset": 117506088,
      "user": "PhilLL",
      "uid": 1710208,
      "tags": {
        "name": "Penta-di-Casinca",
        "place": "village",
        "wikidata": "Q265287",
        "wikipedia": "fr:Penta-di-Casinca"
      }
    },
    {
      "type": "node",
      "id": 2483371345,
      "lat": 42.1369234,
      "lon": 9.2797239,
      "timestamp": "2013-10-05T10:08:55Z",
      "version": 1,
      "changeset": 18192469,
      "user": "Thomas Rast",
      "uid": 989564,
      "tags": {
        "amenity": "drinking_water"
      }
    },
    {
      "type": "node",
      "id": 2483371360,
      "lat": 42.1577489,
      "lon": 9.2690706,
      "timestamp": "2013-10-05T10:08:55Z",
      "version": 1,
      "changeset": 18192469,
      "user": "Thomas Rast",
      "uid": 989564,
      "tags": {
        "amenity": "drinking_water"
      }
    },
    {
      "type": "node",
      "id": 2483371393,
      "lat": 42.3151023,
      "lon": 9.2666117,
      "timestamp": "2013-10-05T10:08:57Z",
      "version": 1,
      "changeset": 18192469,
      "user": "Thomas Rast",
      "uid": 989564,
      "tags": {
        "amenity": "drinking_water"
      }
    },