{
  "osm3s": {
    "timestamp_osm_date": "2022-07-13T23:59:59Z",
    "timestamp_osm_base": "2022-07-14T04:20:59Z",
    "copyright": "The data included in this document is from www.openstreetmap.org. The data is made available under ODbL."
  },
  "elements": [
    {
      "type": "node",
      "id": 49560247,
      "lat": 33.146575,
      "lon": -116.3523372,
      "timestamp": "2019-02-11T08:05:33Z",
      "version": 3,
      "changeset": 67091553,
      "user": "Adam Schneider",
      "uid": 5403394,
      "tags": {
        "name": "Yaqui Pass",
        "natural": "saddle"
      }
    },
    {
      "type": "node",
      "id": 54699834,
      "lat": 33.537052,
      "lon": -116.444695,
      "timestamp": "2022-04-08T21:43:29Z",
      "version": 6,
      "changeset": 119486215,
      "user": "Kai Johnson",
      "uid": 1906004,
      "tags": {
        "name": "Santa Rosa Yellow Post 16",
        "operator": "USFS",
        "tourism": "camp_site"
      }
    },
    {
      "type": "node",
      "id": 150933943,
      "lat": 33.4044911,
      "lon": -116.0400869,
      "timestamp": "2013-02-20T19:13:25Z",
      "version": 3,
      "changeset": 15103792,
      "user": "bpierreb",
      "uid": 566023,
      "tags": {
        "ele": "-58",
        "gnis:Class": "Populated Place",
        "gnis:County": "Imperial",
        "gnis:County_num": "025",
        "gnis:ST_alpha": "CA",
        "gnis:ST_num": "06",
        "gnis:id": "1693254",
        "import_uuid": "bb7269ee-502a-5391-8056-e3ce0e66489c",
        "is_in": "Imperial,California,Calif.,CA,USA",
        "name": "Desert Shores",
        "place": "hamlet"
      }
    },
    {
      "type": "node",
      "id": 150935036,
      "lat": 33.5628041,
      "lon": -116.1530603,
      "timestamp": "2008-12-06T13:34:34Z",
      "version": 2,
      "changeset": 145015,
      "user": "davidearl",
      "uid": 3582,
      "tags": {
        "ele": "-39",
        "gnis:Class": "Populated Place",
        "gnis:County": "Riverside",
        "gnis:County_num": "065",
        "gnis:ST_alpha": "CA",
        "gnis:ST_num": "06",
        "gnis:id": "1660996",
        "import_uuid": "bb7269ee-502a-5391-8056-e3ce0e66489c",
        "is_in": "Riverside,California,Calif.,CA,USA",
        "name": "Martinez",
        "place": "hamlet"
      }
    },
    {
      "type": "node",
      "id": 150935048,
      "lat": 33.5689152,
      "lon": -116.1802834,
      "timestamp": "2017-09-24T14:08:58Z",
      "version": 3,
      "changeset": 52329474,
      "user": "Edward",
      "uid": 364,
      "tags": {
        "ele": "-25",
        "gnis:Class": "Populated Place",
        "gnis:County": "Riverside",
        "gnis:County_num": "065",
        "gnis:ST_alpha": "CA",
        "gnis:ST_num": "06",
        "gnis:id": "1661609",
        "import_uuid": "bb7269ee-502a-5391-8056-e3ce0e66489c",
        "is_in": "Riverside,California,Calif.,CA,USA",
        "name": "Valerie",
        "place": "hamlet",
        "wikidata": "Q14684233"
      }
    },
    {
      "type": "node",
      "id": 150938618,
      "lat": 33.5559483,
      "lon": -116.6745701,
      "timestamp": "2017-09-24T14:07:54Z",
      "version": 7,
      "changeset": 52329474,
      "user": "Edward",
      "uid": 364,
      "tags": {
        "ele": "1195",
        "gnis:Class": "Populated Place",
        "gnis:County": "Riverside",
        "gnis:County_num": "065",
        "gnis:ST_alpha": "CA",
        "gnis:ST_num": "06",
        "gnis:id": "269555",
        "import_uuid": "bb7269ee-502a-5391-8056-e3ce0e66489c",
        "is_in": "Riverside,California,Calif.,CA,USA",
        "name": "Anza",
        "place": "village",
        "wikidata": "Q3458204"
      }
    },
    {
      "type": "node",
      "id": 150940380,
      "lat": 33.5703055,
      "lon": -116.498904,
      "timestamp": "2020-09-03T23:19:19Z",
      "version": 3,
      "changeset": 90383403,
      "user": "bjlmt",
      "uid": 3132250,
      "tags": {
        "coverage:mobile_phone:att": "no",
        "ele": "1340",
        "gnis:Class": "Populated Place",
        "gnis:County": "Riverside",
        "gnis:County_num": "065",
        "gnis:ST_alpha": "CA",
        "gnis:ST_num": "06",
        "gnis:id": "1661307",
        "import_uuid": "bb7269ee-502a-5391-8056-e3ce0e66489c",
        "is_in": "Riverside,California,Calif.,CA,USA",
        "name": "Ribbonwood",
        "place": "hamlet"
      }
    },
    {
      "type": "node",
      "id": 150942178,
      "lat": 33.6086373,
      "lon": -116.4372357,
      "timestamp": "2008-12-06T13:36:02Z",
      "version": 2,
      "changeset": 145015,
      "user": "davidearl",
      "uid": 3582,
      "tags": {
        "ele": "1243",
        "gnis:Class": "Populated Place",
        "gnis:County": "Riverside",
        "gnis:County_num": "065",
        "gnis:ST_alpha": "CA",
        "gnis:ST_num": "06",
        "gnis:id": "1661233",
        "import_uuid": "bb7269ee-502a-5391-8056-e3ce0e66489c",
        "is_in": "Riverside,California,Calif.,CA,USA",
        "name": "Pinyon Crest",
        "place": "hamlet"
      }
    },
    {
      "type": "node",
      "id": 150942993,
      "lat": 33.5700371,
      "lon": -116.0744098,
      "timestamp": "2021-06-25T06:45:14Z",
      "version": 10,
      "changeset": 106939883,
      "user": "MrDrPrPatrick",
      "uid": 11458812,
      "tags": {
        "gnis:id": "1652751",
        "name": "Mecca",
        "place": "hamlet",
        "population": "8577",
        "wikidata": "Q2097028"
      }
    },
    {
      "type": "node",
      "id": 150947034,
      "lat": 33.465863,
      "lon": -116.0988922,
      "timestamp": "2019-05-25T19:42:56Z",
      "version": 3,
      "changeset": 70618090,
      "user": "Edward",
      "uid": 364,
      "tags": {
        "ele": "-42",
        "gnis:Class": "Populated Place",
        "gnis:County": "Riverside",
        "gnis:County_num": "065",
        "gnis:ST_alpha": "CA",
        "gnis:ST_num": "06",
        "gnis:id": "246776",
        "import_uuid": "bb7269ee-502a-5391-8056-e3ce0e66489c",
        "is_in": "Riverside,California,Calif.,CA,USA",
        "name": "Oasis",
        "place": "hamlet",
        "wikidata": "Q7074391"
      }
    },
    {
      "type": "node",
      "id": 150947179,
      "lat": 33.5845828,
      "lon": -116.4519189,
      "timestamp": "2017-09-24T14:08:38Z",
      "version": 5,
      "changeset": 52329474,
      "user": "Edward",
      "uid": 364,
      "tags": {
        "ele": "1243",
        "gnis:Class": "Populated Place",
        "gnis:County": "Riverside",
        "gnis:County_num": "065",
        "gnis:ST_alpha": "CA",
        "gnis:ST_num": "06",
        "gnis:id": "1661107",
        "import_uuid": "bb7269ee-502a-5391-8056-e3ce0e66489c",
        "is_in": "Riverside,California,Calif.,CA,USA",
        "name": "Pinyon Pines",
        "place": "hamlet",
        "wikidata": "Q7196586",
        "wikipedia": "en:Pinyon Pines, California"
      }
    },
    {
      "type": "node",
      "id": 150947807,
      "lat": 33.1441418,
      "lon": -116.1332011,
      "timestamp": "2020-06-10T21:37:01Z",
      "version": 6,
      "changeset": 86484732,
      "user": "n76",
      "uid": 318696,
      "tags": {
        "ele": "49",
        "gnis:County": "San Diego",
        "gnis:County_num": "073",
        "gnis:ST_alpha": "CA",
        "gnis:ST_num": "06",
        "gnis:id": "255675",
        "import_uuid": "bb7269ee-502a-5391-8056-e3ce0e66489c",
        "name": "Ocotillo Wells",
        "place": "hamlet",
        "wikidata": "Q3475156"
      }
    },
    {
      "type": "node",
      "id": 150948833,
      "lat": 33.1992068,
      "lon": -116.5986298,
      "timestamp": "2020-06-12T23:30:04Z",
      "version": 3,
      "changeset": 86587373,
      "user": "n76",
      "uid": 318696,
      "tags": {
        "ele": "1071",
        "gnis:County": "San Diego",
        "gnis:County_num": "073",
        "gnis:ST_alpha": "CA",
        "gnis:ST_num": "06",
        "gnis:id": "252976",
        "import_uuid": "bb7269ee-502a-5391-8056-e3ce0e66489c",
        "name": "San Felipe",
        "place": "hamlet"
      }
    },
    {
      "type": "node",
      "id": 150949919,
      "lat": 33.2100397,
      "lon": -116.5166835,
      "timestamp": "2020-06-12T23:30:04Z",
      "version": 4,
      "changeset": 86587373,
      "user": "n76",
      "uid": 318696,
      "tags": {
        "ele": "1239",
        "gnis:County": "San Diego",
        "gnis:County_num": "073",
        "gnis:ST_alpha": "CA",
        "gnis:ST_num": "06",
        "gnis:id": "247950",
        "import_uuid": "bb7269ee-502a-5391-8056-e3ce0e66489c",
        "name": "Ranchita",
        "place": "hamlet",
        "wikidata": "Q7290809"
      }
    },
    {
      "type": "node",
      "id": 150953404,
      "lat": 33.2822596,
      "lon": -116.6336303,
      "timestamp": "2021-03-18T02:57:45Z",
      "version": 5,
      "changeset": 101220909,
      "user": "Palolo",
      "uid": 385046,
      "tags": {
        "ele": "954",
        "gnis:County": "San Diego",
        "gnis:County_num": "073",
        "gnis:ST_alpha": "CA",
        "gnis:ST_num": "06",
        "gnis:id": "251194",
        "import_uuid": "bb7269ee-502a-5391-8056-e3ce0e66489c",
        "name": "Warner Springs",
        "place": "village",
        "wikidata": "Q3416266"
      }
    },
    {
      "type": "node",
      "id": 150959080,
      "lat": 33.6403013,
      "lon": -116.1394485,
      "timestamp": "2017-09-24T14:07:48Z",
      "version": 3,
      "changeset": 52329474,
      "user": "Edward",
      "uid": 364,
      "tags": {
        "ele": "-35",
        "gnis:Class": "Populated Place",
        "gnis:County": "Riverside",
        "gnis:County_num": "065",
        "gnis:ST_alpha": "CA",
        "gnis:ST_num": "06",
        "gnis:id": "250426",
        "import_uuid": "bb7269ee-502a-5391-8056-e3ce0e66489c",
        "is_in": "Riverside,California,Calif.,CA,USA",
        "name": "Thermal",
        "place": "hamlet",
        "wikidata": "Q133921"
      }
    },
    {
      "type": "node",
      "id": 150959383,
      "lat": 33.2566792,
      "lon": -116.3782682,
      "timestamp": "2020-06-12T23:19:20Z",
      "version": 4,
      "changeset": 86587224,
      "user": "n76",
      "uid": 318696,
      "tags": {
        "ele": "182",
        "gnis:County": "San Diego",
        "gnis:County_num": "073",
        "gnis:ST_alpha": "CA",
        "gnis:ST_num": "06",
        "gnis:id": "1652675",
        "import_uuid": "bb7269ee-502a-5391-8056-e3ce0e66489c",
        "name": "Borrego Springs",
        "place": "village"
      }
    },
    {
      "type": "node",
      "id": 150960210,
      "lat": 33.2880928,
      "lon": -116.5941849,
      "timestamp": "2020-05-29T23:41:15Z",
      "version": 3,
      "changeset": 85969382,
      "user": "n76",
      "uid": 318696,
      "tags": {
        "ele": "1377",
        "gnis:County": "San Diego",
        "gnis:County_num": "073",
        "gnis:ST_alpha": "CA",
        "gnis:ST_num": "06",
        "gnis:id": "1660578",
        "import_uuid": "bb7269ee-502a-5391-8056-e3ce0e66489c",
        "name": "Eagles Nest",
        "place": "hamlet"
      }
    },
    {
      "type": "node",
      "id": 150963873,
      "lat": 33.642246,
      "lon": -116.1811166,
      "timestamp": "2008-12-06T13:39:50Z",
      "version": 2,
      "changeset": 145015,
      "user": "davidearl",
      "uid": 3582,
      "tags": {
        "ele": "-29",
        "gnis:Class": "Populated Place",
        "gnis:County": "Riverside",
        "gnis:County_num": "065",
        "gnis:ST_alpha": "CA",
        "gnis:ST_num": "06",
        "gnis:id": "249016",
        "import_uuid": "bb7269ee-502a-5391-8056-e3ce0e66489c",
        "is_in": "Riverside,California,Calif.,CA,USA",
        "name": "Sandy Korner",
        "place": "hamlet"
      }
    },
    {
      "type": "node",
      "id": 150966451,
      "lat": 33.2833707,
      "lon": -116.62113,
      "timestamp": "2020-05-29T23:41:15Z",
      "version": 3,
      "changeset": 85969382,
      "user": "n76",
      "uid": 318696,
      "tags": {
        "ele": "1021",
        "gnis:County": "San Diego",
        "gnis:County_num": "073",
        "gnis:ST_alpha": "CA",
        "gnis:ST_num": "06",
        "gnis:id": "1660953",
        "import_uuid": "bb7269ee-502a-5391-8056-e3ce0e66489c",
        "name": "Los Tules",
        "place": "hamlet"
      }
    },
    {
      "type": "node",
      "id": 150966864,
      "lat": 33.6886346,
      "lon": -116.4164015,
      "timestamp": "2017-09-24T14:08:05Z",
      "version": 3,
      "changeset": 52329474,
      "user": "Edward",
      "uid": 364,
      "tags": {
        "ele": "284",
        "gnis:Class": "Populated Place",
        "gnis:County": "Riverside",
        "gnis:County_num": "065",
        "gnis:ST_alpha": "CA",
        "gnis:ST_num": "06",
        "gnis:id": "1660406",
        "import_uuid": "bb7269ee-502a-5391-8056-e3ce0e66489c",
        "is_in": "Riverside,California,Calif.,CA,USA",
        "name": "Cahuilla Hills",
        "place": "hamlet",
        "wikidata": "Q5017468"
      }
    },
    {
      "type": "node",
      "id": 150967793,
      "lat": 33.3942001,
      "lon": -116.0502798,
      "timestamp": "2018-03-30T06:25:49Z",
      "version": 3,
      "changeset": 57652543,
      "user": "Edward",
      "uid": 364,
      "tags": {
        "ele": "-53",
        "gnis:Class": "Populated Place",
        "gnis:County": "Imperial",
        "gnis:County_num": "025",
        "gnis:ST_alpha": "CA",
        "gnis:ST_num": "06",
        "gnis:id": "1660508",
        "import_uuid": "bb7269ee-502a-5391-8056-e3ce0e66489c",
        "is_in": "Imperial,California,Calif.,CA,USA",
        "name": "Coolidge Springs",
        "place": "hamlet",
        "wikidata": "Q5167473"
      }
    },
    {
      "type": "node",
      "id": 150968512,
      "lat": 33.5618761,
      "lon": -116.1727511,
      "timestamp": "2012-08-31T02:01:37Z",
      "version": 3,
      "changeset": 12925400,
      "user": "Chris Bell in California",
      "uid": 194231,
      "tags": {
        "ele": "-20",
        "gnis:Class": "Populated Place",
        "gnis:County": "Riverside",
        "gnis:County_num": "065",
        "gnis:ST_alpha": "CA",
        "gnis:ST_num": "06",
        "gnis:id": "1661147",
        "import_uuid": "bb7269ee-502a-5391-8056-e3ce0e66489c",
        "is_in": "Riverside,California,Calif.,CA,USA",
        "name": "One Hundred Palms",
        "place": "hamlet"
      }
    },
    {
      "type": "node",
      "id": 150969409,
      "lat": 33.2105958,
      "lon": -116.3272329,
      "timestamp": "2020-06-14T18:04:27Z",
      "version": 3,
      "changeset": 86631555,
      "user": "n76",
      "uid": 318696,
      "tags": {
        "ele": "162",
        "gnis:County": "San Diego",
        "gnis:County_num": "073",
        "gnis:ST_alpha": "CA",
        "gnis:ST_num": "06",
        "gnis:id": "1660544",
        "import_uuid": "bb7269ee-502a-5391-8056-e3ce0e66489c",
        "name": "Desert Lodge",
        "place": "hamlet"
      }
    },
    {
      "type": "node",
      "id": 150971654,
      "lat": 33.6278025,
      "lon": -116.2180623,
      "timestamp": "2017-09-24T14:08:19Z",
      "version": 3,
      "changeset": 52329474,
      "user": "Edward",
      "uid": 364,
      "tags": {
        "ele": "-20",
        "gnis:Class": "Populated Place",
        "gnis:County": "Riverside",
        "gnis:County_num": "065",
        "gnis:ST_alpha": "CA",
        "gnis:ST_num": "06",
        "gnis:id": "2025249",
        "import_uuid": "bb7269ee-502a-5391-8056-e3ce0e66489c",
        "is_in": "Riverside,California,Calif.,CA,USA",
        "name": "Vista Santa Rosa",
        "place": "hamlet",
        "wikidata": "Q6163983"
      }
    },
    {
      "type": "node",
      "id": 150972035,
      "lat": 33.2000402,
      "lon": -116.7111323,
      "timestamp": "2020-06-12T23:37:23Z",
      "version": 3,
      "changeset": 86587455,
      "user": "n76",
      "uid": 318696,
      "tags": {
        "ele": "847",
        "gnis:County": "San Diego",
        "gnis:County_num": "073",
        "gnis:ST_alpha": "CA",
        "gnis:ST_num": "06",
        "gnis:id": "1661060",
        "import_uuid": "bb7269ee-502a-5391-8056-e3ce0e66489c",
        "name": "Morettis Junction",
        "place": "hamlet"
      }
    },
    {
      "type": "node",
      "id": 150972760,
      "lat": 33.6061375,
      "lon": -116.4697366,
      "timestamp": "2017-09-24T14:09:06Z",
      "version": 3,
      "changeset": 52329474,
      "user": "Edward",
      "uid": 364,
      "tags": {
        "ele": "1229",
        "gnis:Class": "Populated Place",
        "gnis:County": "Riverside",
        "gnis:County_num": "065",
        "gnis:ST_alpha": "CA",
        "gnis:ST_num": "06",
        "gnis:id": "1667712",
        "import_uuid": "bb7269ee-502a-5391-8056-e3ce0e66489c",
        "is_in": "Riverside,California,Calif.,CA,USA",
        "name": "Alpine Village",
        "place": "hamlet",
        "wikidata": "Q17144144"
      }
    },
    {
      "type": "node",
      "id": 150977345,
      "lat": 33.612526,
      "lon": -116.6269621,
      "timestamp": "2008-12-06T13:42:06Z",
      "version": 2,
      "changeset": 145015,
      "user": "davidearl",
      "uid": 3582,
      "tags": {
        "ele": "1389",
        "gnis:Class": "Populated Place",
        "gnis:County": "Riverside",
        "gnis:County_num": "065",
        "gnis:ST_alpha": "CA",
        "gnis:ST_num": "06",
        "gnis:id": "1661564",
        "import_uuid": "bb7269ee-502a-5391-8056-e3ce0e66489c",
        "is_in": "Riverside,California,Calif.,CA,USA",
        "name": "Thomas Mountain",
        "place": "hamlet"
      }
    },
    {
      "type": "node",
      "id": 150978724,
      "lat": 33.7192808,
      "lon": -116.2188054,
      "timestamp": "2021-11-08T00:33:09Z",
      "version": 14,
      "changeset": 113500241,
      "user": "kas__",
      "uid": 13648514,
      "tags": {
        "name": "Indio",
        "name:en": "Indio",
        "note": "Indio Civic Center centerpoint.",
        "place": "city",
        "population": "76036",
        "wikidata": "Q838789",
        "wikipedia": "en:Indio, California"
      }
    },
    {
      "type": "node",
      "id": 150980014,
      "lat": 33.5983598,
      "lon": -116.4183462,
      "timestamp": "2008-12-06T13:42:26Z",
      "version": 2,
      "changeset": 145015,
      "user": "davidearl",
      "uid": 3582,
      "tags": {
        "ele": "1093",
        "gnis:Class": "Populated Place",
        "gnis:County": "Riverside",
        "gnis:County_num": "065",
        "gnis:ST_alpha": "CA",
        "gnis:ST_num": "06",
        "gnis:id": "252995",
        "import_uuid": "bb7269ee-502a-5391-8056-e3ce0e66489c",
        "is_in": "Riverside,California,Calif.,CA,USA",
        "name": "Taylor",
        "place": "hamlet"
      }
    },
    {
      "type": "node",
      "id": 358780185,
      "lat": 33.6747463,
      "lon": -116.5433491,
      "timestamp": "2017-09-24T14:09:14Z",
      "version": 2,
      "changeset": 52329474,
      "user": "Edward",
      "uid": 364,
      "tags": {
        "ele": "1344",
        "gnis:county_id": "065",
        "gnis:created": "01/19/1981",
        "gnis:feature_id": "238921",
        "gnis:state_id": "06",
        "name": "Bald Mountain",
        "natural": "peak",
        "wikidata": "Q35725302"
      }
    },
    {
      "type": "node",
      "id": 358782404,
      "lat": 33.3944501,
      "lon": -116.6057749,
      "timestamp": "2017-09-23T08:14:50Z",
      "version": 3,
      "changeset": 52297218,
      "user": "Edward",
      "uid": 364,
      "tags": {
        "ele": "1878",
        "gnis:county_id": "073",
        "gnis:created": "01/19/1981",
        "gnis:feature_id": "240829",
        "gnis:state_id": "06",
        "name": "Combs Peak",
        "natural": "peak",
        "wikidata": "Q35735601"
      }
    },
    {
      "type": "node",
      "id": 358793535,
      "lat": 33.5233623,
      "lon": -116.4255689,
      "timestamp": "2017-09-24T14:08:52Z",
      "version": 2,
      "changeset": 52329474,
      "user": "Edward",
      "uid": 364,
      "tags": {
        "ele": "2650",
        "gnis:county_id": "065",
        "gnis:created": "01/19/1981",
        "gnis:feature_id": "250548",
        "gnis:state_id": "06",
        "name": "Toro Peak",
        "natural": "peak",
        "wikidata": "Q7826170"
      }
    },
    {
      "type": "node",
      "id": 358800785,
      "lat": 33.7186333,
      "lon": -116.6266837,
      "timestamp": "2017-09-24T14:09:13Z",
      "version": 2,
      "changeset": 52329474,
      "user": "Edward",
      "uid": 364,
      "tags": {
        "ele": "2302",
        "gnis:county_id": "065",
        "gnis:created": "01/19/1981",
        "gnis:feature_id": "269559",
        "gnis:state_id": "06",
        "name": "Apache Peak",
        "natural": "peak",
        "wikidata": "Q35724349"
      }
    },
    {
      "type": "node",
      "id": 358800811,
      "lat": 33.6275257,
      "lon": -116.4586251,
      "timestamp": "2017-09-24T14:09:13Z",
      "version": 2,
      "changeset": 52329474,
      "user": "Edward",
      "uid": 364,
      "tags": {
        "ele": "1585",
        "gnis:county_id": "065",
        "gnis:created": "01/19/1981",
        "gnis:feature_id": "269597",
        "gnis:state_id": "06",
        "name": "Asbestos Mountain",
        "natural": "peak",
        "wikidata": "Q35724498"
      }
    },
    {
      "type": "node",
      "id": 358800915,
      "lat": 33.62697,
      "lon": -116.4116792,
      "timestamp": "2017-09-24T14:09:18Z",
      "version": 2,
      "changeset": 52329474,
      "user": "Edward",
      "uid": 364,
      "tags": {
        "ele": "1107",
        "gnis:county_id": "065",
        "gnis:created": "01/19/1981",
        "gnis:feature_id": "269884",
        "gnis:state_id": "06",
        "name": "Black Hill",
        "natural": "peak",
        "wikidata": "Q35727588"
      }
    },
    {
      "type": "node",
      "id": 358800989,
      "lat": 33.6225258,
      "lon": -116.5827945,
      "timestamp": "2017-09-24T14:09:21Z",
      "version": 2,
      "changeset": 52329474,
      "user": "Edward",
      "uid": 364,
      "tags": {
        "ele": "1895",
        "gnis:county_id": "065",
        "gnis:created": "01/19/1981",
        "gnis:feature_id": "270115",
        "gnis:state_id": "06",
        "name": "Butterfly Peak",
        "natural": "peak",
        "wikidata": "Q35730938"
      }
    },
    {
      "type": "node",
      "id": 358801631,
      "lat": 33.5532906,
      "lon": -116.5741542,
      "timestamp": "2021-02-26T05:42:22Z",
      "version": 3,
      "changeset": 100020592,
      "user": "bjlmt",
      "uid": 3132250,
      "tags": {
        "ele": "1700",
        "gnis:county_id": "065",
        "gnis:created": "01/19/1981",
        "gnis:feature_id": "272204",
        "gnis:state_id": "06",
        "name": "Lookout Mountain",
        "natural": "peak",
        "wikidata": "Q30607637"
      }
    },
    {
      "type": "node",
      "id": 358807796,
      "lat": 33.6858563,
      "lon": -116.7158522,
      "timestamp": "2017-09-24T14:09:15Z",
      "version": 2,
      "changeset": 52329474,
      "user": "Edward",
      "uid": 364,
      "tags": {
        "ele": "1697",
        "gnis:county_id": "065",
        "gnis:created": "01/19/1981",
        "gnis:feature_id": "1660299",
        "gnis:state_id": "06",
        "name": "Baldy Mountain",
        "natural": "peak",
        "wikidata": "Q35725665"
      }
    },
    {
      "type": "node",
      "id": 358807844,
      "lat": 33.1913393,
      "lon": -116.2040534,
      "timestamp": "2019-01-24T05:38:31Z",
      "version": 3,
      "changeset": 66590273,
      "user": "Adam Schneider",
      "uid": 5403394,
      "tags": {
        "ele": "367.9",
        "gnis:county_id": "073",
        "gnis:created": "01/19/1981",
        "gnis:feature_id": "1660361",
        "gnis:state_id": "06",
        "name": "West Butte Borrego Mountain",
        "natural": "peak",
        "wikidata": "Q35728786"
      }
    },
    {
      "type": "node",
      "id": 358807866,
      "lat": 33.389756,
      "lon": -116.6050182,
      "timestamp": "2017-09-23T08:14:47Z",
      "version": 2,
      "changeset": 52297218,
      "user": "Edward",
      "uid": 364,
      "tags": {
        "ele": "1823",
        "gnis:county_id": "073",
        "gnis:created": "01/19/1981",
        "gnis:feature_id": "1660389",
        "gnis:state_id": "06",
        "name": "Bucksnort Mountain",
        "natural": "peak",
        "wikidata": "Q35730109"
      }
    },
    {
      "type": "node",
      "id": 358807879,
      "lat": 33.2014288,
      "lon": -116.5044611,
      "timestamp": "2017-09-23T08:14:47Z",
      "version": 2,
      "changeset": 52297218,
      "user": "Edward",
      "uid": 364,
      "tags": {
        "ele": "1293",
        "gnis:county_id": "073",
        "gnis:created": "01/19/1981",
        "gnis:feature_id": "1660421",
        "gnis:state_id": "06",
        "name": "Camel Rock",
        "natural": "peak",
        "wikidata": "Q35732566"
      }
    },
    {
      "type": "node",
      "id": 358807898,
      "lat": 33.5580917,
      "lon": -116.7024681,
      "timestamp": "2017-09-24T14:09:23Z",
      "version": 3,
      "changeset": 52329474,
      "user": "Edward",
      "uid": 364,
      "tags": {
        "ele": "1236",
        "gnis:county_id": "065",
        "gnis:created": "01/19/1981",
        "gnis:feature_id": "1660449",
        "gnis:state_id": "06",
        "name": "Cave Rocks",
        "natural": "peak",
        "wikidata": "Q35733322"
      }
    },
    {
      "type": "node",
      "id": 358807949,
      "lat": 33.6669686,
      "lon": -116.598628,
      "timestamp": "2017-09-24T14:09:24Z",
      "version": 2,
      "changeset": 52329474,
      "user": "Edward",
      "uid": 364,
      "tags": {
        "ele": "2077",
        "gnis:county_id": "065",
        "gnis:created": "01/19/1981",
        "gnis:feature_id": "1660505",
        "gnis:state_id": "06",
        "name": "Cone Peak",
        "natural": "peak",
        "wikidata": "Q35735654"
      }
    },
    {
      "type": "node",
      "id": 358844573,
      "lat": 33.3434448,
      "lon": -116.3288002,
      "timestamp": "2019-01-22T08:41:10Z",
      "version": 3,
      "changeset": 66529937,
      "user": "Adam Schneider",
      "uid": 5403394,
      "tags": {
        "ele": "973",
        "gnis:county_id": "073",
        "gnis:created": "06/13/2000",
        "gnis:feature_id": "1868461",
        "gnis:state_id": "06",
        "name": "Coyote Mountain",
        "natural": "peak",
        "wikidata": "Q35736269"
      }
    },
    {
      "type": "node",
      "id": 593165876,
      "lat": 33.7149928,
      "lon": -116.4005523,
      "timestamp": "2009-12-16T22:17:03Z",
      "version": 2,
      "changeset": 3390212,
      "user": "MichaelCollinson",
      "uid": 308,
      "tags": {
        "amenity": "drinking_water",
        "source": "survey"
      }
    },
    {
      "type": "node",
      "id": 880054175,
      "lat": 33.7196963,
      "lon": -116.6204877,
      "timestamp": "2010-08-26T04:13:30Z",
      "version": 1,
      "changeset": 5595607,
      "user": "USWilderness",
      "uid": 323496,
      "tags": {
        "name": "Apache Spring",
        "natural": "spring",
        "source": "USGS Topo"
      }
    },
    {
      "type": "node",
      "id": 955814787,
      "lat": 33.6901007,
      "lon": -116.6095483,
      "timestamp": "2020-05-06T06:36:36Z",
      "version": 4,
      "changeset": 84736818,
      "user": "Adam Schneider",
      "uid": 5403394,
      "tags": {
        "name": "Fobes Saddle",
        "natural": "saddle"
      }
    },
    {
      "type": "node",
      "id": 1055901681,
      "lat": 33.1508348,
      "lon": -116.1110795,
      "timestamp": "2019-02-28T07:55:35Z",
      "version": 3,
      "changeset": 67642096,
      "user": "Adam Schneider",
      "uid": 5403394,
      "tags": {
        "name": "Holmes Camp",
        "tourism": "camp_site"
      }
    },
    {
      "type": "node",
      "id": 1055930734,
      "lat": 33.1597838,
      "lon": -116.1511307,
      "timestamp": "2010-12-22T04:19:46Z",
      "version": 1,
      "changeset": 6732168,
      "user": "bobdreadknot",
      "uid": 386578,
      "tags": {
        "tourism": "camp_site"
      }
    },
    {
      "type": "node",
      "id": 1221410261,
      "lat": 33.5308991,
      "lon": -116.3363468,
      "timestamp": "2015-03-16T23:01:11Z",
      "version": 2,
      "changeset": 29529702,
      "user": "Ole",
      "uid": 3052,
      "tags": {
        "name": "Agua Alta Spring",
        "natural": "spring",
        "note": "location needs validation, water is not running year round"
      }
    },
    {
      "type": "node",
      "id": 1455156391,
      "lat": 33.7155469,
      "lon": -116.293035,
      "timestamp": "2021-04-24T19:50:24Z",
      "version": 2,
      "changeset": 103550937,
      "user": "Timothy Smith",
      "uid": 115918,
      "tags": {
        "brand": "Stater Bros.",
        "brand:wikidata": "Q7604016",
        "brand:wikipedia": "en:Stater Bros.",
        "name": "Stater Bros.",
        "shop": "supermarket"
      }
    },
    {
      "type": "node",
      "id": 1618242985,
      "lat": 33.6757233,
      "lon": -116.1812265,
      "timestamp": "2019-09-12T22:57:22Z",
      "version": 3,
      "changeset": 74411483,
      "user": "Rps333",
      "uid": 596047,
      "tags": {
        "brand": "7-Eleven",
        "brand:wikidata": "Q259340",
        "brand:wikipedia": "en:7-Eleven",
        "name": "7-Eleven",
        "shop": "convenience",
        "wheelchair": "yes"
      }
    },
    {
      "type": "node",
      "id": 1618253806,
      "lat": 33.6866778,
      "lon": -116.1829995,
      "timestamp": "2019-11-01T20:42:06Z",
      "version": 4,
      "changeset": 76513637,
      "user": "Timothy Smith",
      "uid": 115918,
      "tags": {
        "brand": "Save-A-Lot",
        "brand:wikidata": "Q7427972",
        "brand:wikipedia": "en:Save-A-Lot",
        "construction": "yes",
        "name": "Save-A-Lot",
        "shop": "supermarket",
        "wheelchair": "yes"
      }
    },
    {
      "type": "node",
      "id": 1620345458,
      "lat": 33.703645,
      "lon": -116.281073,
      "timestamp": "2021-10-17T14:13:03Z",
      "version": 5,
      "changeset": 112613816,
      "user": "maxerickson",
      "uid": 360392,
      "tags": {
        "addr:city": "La Quinta",
        "addr:country": "US",
        "addr:housenumber": "79295",
        "addr:postcode": "92253",
        "addr:state": "CA",
        "addr:street": "US Highway 111",
        "brand": "Walmart",
        "brand:wikidata": "Q483551",
        "brand:wikipedia": "en:Walmart",
        "name": "Walmart Supercenter",
        "opening_hours": "Mo-Su 06:00-24:00",
        "operator": "Walmart",
        "phone": "+1-760-564-3313",
        "ref:walmart": "1805",
        "shop": "supermarket",
        "website": "https://www.walmart.com/store/1805/la-quinta-ca/whats-new"
      }
    },
    {
      "type": "node",
      "id": 1636171763,
      "lat": 33.7165006,
      "lon": -116.294204,
      "timestamp": "2021-04-24T19:50:24Z",
      "version": 3,
      "changeset": 103550937,
      "user": "Timothy Smith",
      "uid": 115918,
      "tags": {
        "brand": "ampm",
        "brand:wikidata": "Q306960",
        "brand:wikipedia": "en:Ampm",
        "name": "ampm",
        "shop": "convenience"
      }
    },
    {
      "type": "node",
      "id": 1636176350,
      "lat": 33.7119893,
      "lon": -116.294253,
      "timestamp": "2021-04-24T19:50:24Z",
      "version": 3,
      "changeset": 103550937,
      "user": "Timothy Smith",
      "uid": 115918,
      "tags": {
        "addr:housenumber": "46-400",
        "addr:postcode": "92253",
        "addr:street": "Washington St.",
        "brand": "Trader Joe's",
        "brand:wikidata": "Q688825",
        "brand:wikipedia": "en:Trader Joe's",
        "name": "Trader Joe's",
        "shop": "supermarket"
      }
    },
    {
      "type": "node",
      "id": 1737304000,
      "lat": 33.6794956,
      "lon": -116.17628,
      "timestamp": "2021-03-27T11:27:00Z",
      "version": 6,
      "changeset": 101833634,
      "user": "MrDrPrPatrick",
      "uid": 11458812,
      "tags": {
        "name": "Coachella",
        "place": "town",
        "population": "40704",
        "wikidata": "Q948219",
        "wikipedia": "en:Coachella, California"
      }
    },
    {
      "type": "node",
      "id": 1750227776,
      "lat": 33.716727,
      "lon": -116.297099,
      "timestamp": "2021-04-24T19:50:24Z",
      "version": 2,
      "changeset": 103550937,
      "user": "Timothy Smith",
      "uid": 115918,
      "tags": {
        "brand": "Circle K",
        "brand:wikidata": "Q3268010",
        "brand:wikipedia": "en:Circle K",
        "name": "Circle K",
        "shop": "convenience"
      }
    },
    {
      "type": "node",
      "id": 1829326108,
      "lat": 33.2575622,
      "lon": -116.3800057,
      "timestamp": "2019-03-28T20:53:13Z",
      "version": 3,
      "changeset": 68643442,
      "user": "jmapb",
      "uid": 4400159,
      "tags": {
        "name": "Center Market",
        "phone": "+1-760-767-3311",
        "shop": "supermarket"
      }
    },
    {
      "type": "node",
      "id": 1948326686,
      "lat": 33.7192488,
      "lon": -116.1862922,
      "timestamp": "2012-10-06T01:11:35Z",
      "version": 1,
      "changeset": 13379472,
      "user": "JaggedMind",
      "uid": 587790,
      "tags": {
        "amenity": "shelter"
      }
    },
    {
      "type": "node",
      "id": 2064175067,
      "lat": 33.6820486,
      "lon": -116.1937472,
      "timestamp": "2013-03-03T16:21:20Z",
      "version": 2,
      "changeset": 15235629,
      "user": "oldtopos",
      "uid": 169004,
      "tags": {
        "amenity": "shelter",
        "noexit": "yes"
      }
    },
    {
      "type": "node",
      "id": 2255647984,
      "lat": 33.7217965,
      "lon": -116.338303,
      "timestamp": "2021-03-27T11:27:00Z",
      "version": 6,
      "changeset": 101833634,
      "user": "MrDrPrPatrick",
      "uid": 11458812,
      "tags": {
        "name": "Indian Wells",
        "place": "town",
        "population": "4958",
        "wikidata": "Q490714",
        "wikipedia": "en:Indian Wells, California"
      }
    },
    {
      "type": "node",
      "id": 2283455008,
      "lat": 33.5692273,
      "lon": -116.0742587,
      "timestamp": "2013-04-27T19:47:57Z",
      "version": 1,
      "changeset": 15887903,
      "user": "JaggedMind",
      "uid": 587790,
      "tags": {
        "amenity": "shelter",
        "shelter_type": "public_transport"
      }
    },
    {
      "type": "node",
      "id": 2283455025,
      "lat": 33.5694128,
      "lon": -116.074128,
      "timestamp": "2021-11-21T01:15:23Z",
      "version": 2,
      "changeset": 114044703,
      "user": "telcodude",
      "uid": 11609320,
      "tags": {
        "amenity": "shelter",
        "name": "66th @ mecca health clinic",
        "operator": "Sunline transit agency",
        "shelter_type": "public_transport"
      }
    },
    {
      "type": "node",
      "id": 2283822083,
      "lat": 33.6865505,
      "lon": -116.1863333,
      "timestamp": "2013-05-02T15:53:15Z",
      "version": 2,
      "changeset": 15941608,
      "user": "wheelmap_visitor",
      "uid": 290680,
      "tags": {
        "amenity": "drinking_water",
        "wheelchair": "yes"
      }
    },
    {
      "type": "node",
      "id": 2381866511,
      "lat": 33.3487947,
      "lon": -116.6596796,
      "timestamp": "2014-08-14T23:14:26Z",
      "version": 2,
      "changeset": 24756697,
      "user": "flockfinder",
      "uid": 1616228,
      "tags": {
        "name": "Indian Flats Campground",
        "operator": "USFS",
        "tourism": "camp_site"
      }
    },
    {
      "type": "node",
      "id": 2381904552,
      "lat": 33.5401539,
      "lon": -116.467211,
      "timestamp": "2022-04-08T21:15:44Z",
      "version": 5,
      "changeset": 119485643,
      "user": "Kai Johnson",
      "uid": 1906004,
      "tags": {
        "name": "Santa Rosa Spring Yellow Post 4",
        "operator": "USFS",
        "tourism": "camp_site"
      }
    },
    {
      "type": "node",
      "id": 2381905742,
      "lat": 33.612187,
      "lon": -116.6610346,
      "timestamp": "2019-02-17T17:16:06Z",
      "version": 5,
      "changeset": 67286149,
      "user": "b-jazz-bot",
      "uid": 9451067,
      "tags": {
        "drinking_water": "no",
        "fee": "no",
        "name": "Tool Box Springs Campground",
        "operator": "USFS",
        "tourism": "camp_site",
        "website": "https://www.fs.usda.gov/recarea/sbnf/recarea/?recid=26461"
      }
    },
    {
      "type": "node",
      "id": 2421345554,
      "lat": 33.5375601,
      "lon": -116.444786,
      "timestamp": "2022-04-08T21:43:29Z",
      "version": 3,
      "changeset": 119486215,
      "user": "Kai Johnson",
      "uid": 1906004,
      "tags": {
        "name": "Santa Rosa Yellow Post 12",
        "operator": "USFS",
        "tourism": "camp_site"
      }
    },
    {
      "type": "node",
      "id": 2421345555,
      "lat": 33.537426,
      "lon": -116.444947,
      "timestamp": "2022-04-08T21:43:29Z",
      "version": 3,
      "changeset": 119486215,
      "user": "Kai Johnson",
      "uid": 1906004,
      "tags": {
        "name": "Santa Rosa Yellow Post 15",
        "operator": "USFS",
        "tourism": "camp_site"
      }
    },
    {
      "type": "node",
      "id": 2421345556,
      "lat": 33.5377211,
      "lon": -116.445086,
      "timestamp": "2022-04-08T21:43:29Z",
      "version": 3,
      "changeset": 119486215,
      "user": "Kai Johnson",
      "uid": 1906004,
      "tags": {
        "name": "Santa Rosa Yellow Post 13",
        "operator": "USFS",
        "tourism": "camp_site"
      }
    },
    {
      "type": "node",
      "id": 2421345558,
      "lat": 33.5376943,
      "lon": -116.445247,
      "timestamp": "2022-04-08T21:43:29Z",
      "version": 3,
      "changeset": 119486215,
      "user": "Kai Johnson",
      "uid": 1906004,
      "tags": {
        "name": "Santa Rosa Yellow Post 14",
        "operator": "USFS",
        "tourism": "camp_site"
      }
    },
    {
      "type": "node",
      "id": 2421346654,
      "lat": 33.5401592,
      "lon": -116.447121,
      "timestamp": "2022-04-08T21:43:29Z",
      "version": 3,
      "changeset": 119486215,
      "user": "Kai Johnson",
      "uid": 1906004,
      "tags": {
        "name": "Santa Rosa Yellow Post 11",
        "operator": "USFS",
        "tourism": "camp_site"
      }
    },
    {
      "type": "node",
      "id": 2421355587,
      "lat": 33.5410415,
      "lon": -116.461708,
      "timestamp": "2022-04-08T21:15:44Z",
      "version": 3,
      "changeset": 119485643,
      "user": "Kai Johnson",
      "uid": 1906004,
      "tags": {
        "name": "Santa Rosa Yellow Post 9",
        "operator": "USFS",
        "tourism": "camp_site"
      }
    },
    {
      "type": "node",
      "id": 2421355605,
      "lat": 33.5381906,
      "lon": -116.461474,
      "timestamp": "2022-04-08T21:15:44Z",
      "version": 3,
      "changeset": 119485643,
      "user": "Kai Johnson",
      "uid": 1906004,
      "tags": {
        "name": "Santa Rosa Yellow Post 7",
        "operator": "USFS",
        "tourism": "camp_site"
      }
    },
    {
      "type": "node",
      "id": 2421359432,
      "lat": 33.538441,
      "lon": -116.461281,
      "timestamp": "2022-04-08T21:15:44Z",
      "version": 3,
      "changeset": 119485643,
      "user": "Kai Johnson",
      "uid": 1906004,
      "tags": {
        "name": "Santa Rosa Yellow Post 8",
        "operator": "USFS",
        "tourism": "camp_site"
      }
    },
    {
      "type": "node",
      "id": 2421359824,
      "lat": 33.5363119,
      "lon": -116.4620619,
      "timestamp": "2022-04-08T21:15:44Z",
      "version": 3,
      "changeset": 119485643,
      "user": "Kai Johnson",
      "uid": 1906004,
      "tags": {
        "name": "Santa Rosa Yellow Post 5",
        "operator": "USFS",
        "tourism": "camp_site"
      }
    },
    {
      "type": "node",
      "id": 2421363367,
      "lat": 33.5382934,
      "lon": -116.471222,
      "timestamp": "2022-04-08T21:15:44Z",
      "version": 3,
      "changeset": 119485643,
      "user": "Kai Johnson",
      "uid": 1906004,
      "tags": {
        "name": "Santa Rosa Yellow Post 2",
        "tourism": "camp_site"
      }
    },
    {
      "type": "node",
      "id": 2421363372,
      "lat": 33.5401257,
      "lon": -116.4674589,
      "timestamp": "2022-04-08T21:15:44Z",
      "version": 4,
      "changeset": 119485643,
      "user": "Kai Johnson",
      "uid": 1906004,
      "tags": {
        "amenity": "drinking_water",
        "name": "Santa Rosa Spring",
        "natural": "spring"
      }
    },
    {
      "type": "node",
      "id": 2421375324,
      "lat": 33.5363198,
      "lon": -116.4743337,
      "timestamp": "2013-08-16T23:57:19Z",
      "version": 1,
      "changeset": 17378515,
      "user": "flockfinder",
      "uid": 1616228,
      "tags": {
        "name": "Santa Rosa Yellow Stake 01",
        "tourism": "camp_site"
      }
    },
    {
      "type": "node",
      "id": 2421379760,
      "lat": 33.5389194,
      "lon": -116.446062,
      "timestamp": "2022-04-08T21:43:29Z",
      "version": 2,
      "changeset": 119486215,
      "user": "Kai Johnson",
      "uid": 1906004,
      "tags": {
        "name": "Santa Rosa Yellow Post 10",
        "operator": "USFS",
        "tourism": "camp_site"
      }
    },
    {
      "type": "node",
      "id": 2512257137,
      "lat": 33.2269978,
      "lon": -116.4630217,
      "timestamp": "2019-01-22T21:52:15Z",
      "version": 2,
      "changeset": 66552202,
      "user": "Adam Schneider",
      "uid": 5403394,
      "tags": {
        "name": "Pe√±a Spring",
        "natural": "spring"
      }
    },
    {
      "type": "node",
      "id": 2730197320,
      "lat": 33.4606419,
      "lon": -116.3786015,
      "timestamp": "2014-03-20T23:14:09Z",
      "version": 1,
      "changeset": 21219614,
      "user": "flockfinder",
      "uid": 1616228,
      "tags": {
        "name": "Cottonwood Spring",
        "natural": "spring"
      }
    },
    {
      "type": "node",
      "id": 2730197321,
      "lat": 33.4228761,
      "lon": -116.3877706,
      "timestamp": "2014-03-20T23:14:09Z",
      "version": 1,
      "changeset": 21219614,
      "user": "flockfinder",
      "uid": 1616228,
      "tags": {
        "name": "Hidden Spring",
        "natural": "spring"
      }
    },
    {
      "type": "node",
      "id": 2730488448,
      "lat": 33.3602587,
      "lon": -116.375425,
      "timestamp": "2019-01-22T08:41:18Z",
      "version": 2,
      "changeset": 66529937,
      "user": "Adam Schneider",
      "uid": 5403394,
      "tags": {
        "ele": "479",
        "name": "Alcoholic Pass",
        "natural": "saddle"
      }
    },
    {
      "type": "node",
      "id": 3064164464,
      "lat": 33.6567904,
      "lon": -116.1751973,
      "timestamp": "2014-09-06T23:57:25Z",
      "version": 1,
      "changeset": 25277677,
      "user": "JaggedMind",
      "uid": 587790,
      "tags": {
        "amenity": "shelter",
        "shelter_type": "public_transport"
      }
    },
    {
      "type": "node",
      "id": 3796328881,
      "lat": 33.6690805,
      "lon": -116.6759239,
      "timestamp": "2015-10-21T02:02:20Z",
      "version": 1,
      "changeset": 34768298,
      "user": "bjlmt",
      "uid": 3132250,
      "tags": {
        "fee": "yes",
        "name": "Lake Hemet",
        "tourism": "camp_site"
      }
    },
    {
      "type": "node",
      "id": 3823967157,
      "lat": 33.677474,
      "lon": -116.2958789,
      "timestamp": "2019-05-15T12:35:17Z",
      "version": 4,
      "changeset": 70273732,
      "user": "Joseph E",
      "uid": 539772,
      "tags": {
        "name": "La Quinta",
        "place": "town",
        "population": "37467",
        "source": "Wikipedia",
        "website": "http://www.la-quinta.org",
        "wikidata": "Q983614",
        "wikipedia": "en:La Quinta, California"
      }
    },
    {
      "type": "node",
      "id": 4042830815,
      "lat": 33.5702524,
      "lon": -116.090274,
      "timestamp": "2016-03-06T01:08:32Z",
      "version": 1,
      "changeset": 37637697,
      "user": "fossosm",
      "uid": 3686832,
      "tags": {
        "addr:city": "Mecca",
        "addr:housenumber": "90480",
        "addr:postcode": "92254",
        "addr:state": "CA",
        "addr:street": "66th Avenue",
        "name": "AMPM",
        "shop": "convenience"
      }
    },
    {
      "type": "node",
      "id": 4119722989,
      "lat": 33.6074027,
      "lon": -116.5987669,
      "timestamp": "2016-04-13T21:50:41Z",
      "version": 1,
      "changeset": 38540036,
      "user": "bjlmt",
      "uid": 3132250,
      "tags": {
        "name": "Watering Trough Spring",
        "natural": "spring",
        "source": "USGS Topo"
      }
    },
    {
      "type": "node",
      "id": 4124259992,
      "lat": 33.6870362,
      "lon": -116.7123516,
      "timestamp": "2016-04-15T18:02:47Z",
      "version": 1,
      "changeset": 38597396,
      "user": "bjlmt",
      "uid": 3132250,
      "tags": {
        "name": "Nettle Spring",
        "natural": "spring",
        "source": "USGS Topo"
      }
    },
    {
      "type": "node",
      "id": 4124269444,
      "lat": 33.667017,
      "lon": -116.5928016,
      "timestamp": "2016-04-15T18:17:40Z",
      "version": 1,
      "changeset": 38597882,
      "user": "bjlmt",
      "uid": 3132250,
      "tags": {
        "name": "Hop Patch Spring",
        "natural": "spring",
        "source": "USGS Topo"
      }
    },
    {
      "type": "node",
      "id": 4152640463,
      "lat": 33.7191059,
      "lon": -116.669466,
      "timestamp": "2016-04-28T05:58:59Z",
      "version": 1,
      "changeset": 38942128,
      "user": "bjlmt",
      "uid": 3132250,
      "tags": {
        "natural": "spring",
        "source": "USGS Topo"
      }
    },
    {
      "type": "node",
      "id": 4152640464,
      "lat": 33.7188695,
      "lon": -116.669407,
      "timestamp": "2016-04-28T05:58:59Z",
      "version": 1,
      "changeset": 38942128,
      "user": "bjlmt",
      "uid": 3132250,
      "tags": {
        "natural": "spring",
        "source": "USGS Topo"
      }
    },
    {
      "type": "node",
      "id": 4152640465,
      "lat": 33.7187088,
      "lon": -116.6692192,
      "timestamp": "2016-04-28T05:58:59Z",
      "version": 1,
      "changeset": 38942128,
      "user": "bjlmt",
      "uid": 3132250,
      "tags": {
        "natural": "spring",
        "source": "USGS Topo"
      }
    },
    {
      "type": "node",
      "id": 4152640466,
      "lat": 33.7185527,
      "lon": -116.6690798,
      "timestamp": "2016-04-28T05:58:59Z",
      "version": 1,
      "changeset": 38942128,
      "user": "bjlmt",
      "uid": 3132250,
      "tags": {
        "natural": "spring",
        "source": "USGS Topo"
      }
    },
    {
      "type": "node",
      "id": 4152651617,
      "lat": 33.6963893,
      "lon": -116.664241,
      "timestamp": "2016-04-28T06:02:22Z",
      "version": 1,
      "changeset": 38942230,
      "user": "bjlmt",
      "uid": 3132250,
      "tags": {
        "natural": "spring",
        "source": "USGS Topo"
      }
    },
    {
      "type": "node",
      "id": 4152664494,
      "lat": 33.7055728,
      "lon": -116.6386466,
      "timestamp": "2016-04-28T06:18:48Z",
      "version": 1,
      "changeset": 38942608,
      "user": "bjlmt",
      "uid": 3132250,
      "tags": {
        "name": "Cartridge Spring",
        "natural": "spring",
        "source": "USGS Topo"
      }
    },
    {
      "type": "node",
      "id": 4154047256,
      "lat": 33.6160178,
      "lon": -116.661154,
      "timestamp": "2022-04-08T00:40:31Z",
      "version": 4,
      "changeset": 119447675,
      "user": "Kai Johnson",
      "uid": 1906004,
      "tags": {
        "fee": "no",
        "name": "Ramona Campground",
        "operator": "USFS",
        "tourism": "camp_site"
      }
    },
    {
      "type": "node",
      "id": 4154050032,
      "lat": 33.613061,
      "lon": -116.6599036,
      "timestamp": "2016-04-28T18:34:27Z",
      "version": 1,
      "changeset": 38961369,
      "user": "bjlmt",
      "uid": 3132250,
      "tags": {
        "name": "Tool Box Spring",
        "natural": "spring",
        "source": "USGS Topo"
      }
    },
    {
      "type": "node",
      "id": 4333474934,
      "lat": 33.1504859,
      "lon": -116.1512764,
      "timestamp": "2016-08-03T07:12:58Z",
      "version": 1,
      "changeset": 41208253,
      "user": "PavolG",
      "uid": 428967,
      "tags": {
        "amenity": "shelter",
        "shelter_type": "picnic_shelter"
      }
    },
    {
      "type": "node",
      "id": 4369943125,
      "lat": 33.3152685,
      "lon": -116.579754,
      "timestamp": "2021-11-17T23:58:38Z",
      "version": 2,
      "changeset": 113921529,
      "user": "Michael Sallwasser",
      "uid": 13961736,
      "tags": {
        "ele": "1989",
        "gnis:county_id": "073",
        "gnis:created": "01/19/1981",
        "gnis:feature_id": "271673",
        "gnis:state_id": "06",
        "name": "Hot Springs Mountain",
        "natural": "peak",
        "wikidata": "Q5910462"
      }
    },
    {
      "type": "node",
      "id": 4382825344,
      "lat": 33.3486349,
      "lon": -116.5685114,
      "timestamp": "2016-09-04T04:05:30Z",
      "version": 2,
      "changeset": 41900084,
      "user": "bye12",
      "uid": 3773619,
      "tags": {
        "name": "Irvine Cabins",
        "tourism": "camp_site"
      }
    },
    {
      "type": "node",
      "id": 4382850851,
      "lat": 33.3584735,
      "lon": -116.5664282,
      "timestamp": "2016-09-04T04:15:31Z",
      "version": 3,
      "changeset": 41900133,
      "user": "bye12",
      "uid": 3773619,
      "tags": {
        "name": "Grace Cabins",
        "scout": "yes",
        "tourism": "camp_site"
      }
    },
    {
      "type": "node",
      "id": 4382850852,
      "lat": 33.3582465,
      "lon": -116.5669506,
      "timestamp": "2016-09-04T04:15:31Z",
      "version": 2,
      "changeset": 41900133,
      "user": "bye12",
      "uid": 3773619,
      "tags": {
        "name": "Anza",
        "scout": "yes",
        "tourism": "camp_site"
      }
    },
    {
      "type": "node",
      "id": 4382850853,
      "lat": 33.3594099,
      "lon": -116.5653683,
      "timestamp": "2016-09-04T05:36:16Z",
      "version": 4,
      "changeset": 41900575,
      "user": "bye12",
      "uid": 3773619,
      "tags": {
        "name": "Coulter Flat",
        "scout": "yes",
        "tourism": "camp_site"
      }
    },
    {
      "type": "node",
      "id": 4382850856,
      "lat": 33.3602847,
      "lon": -116.5646412,
      "timestamp": "2016-09-04T05:33:20Z",
      "version": 4,
      "changeset": 41900554,
      "user": "bye12",
      "uid": 3773619,
      "tags": {
        "name": "Valley's End",
        "scout": "yes",
        "tourism": "camp_site"
      }
    },
    {
      "type": "node",
      "id": 4382850857,
      "lat": 33.3594975,
      "lon": -116.566905,
      "timestamp": "2018-02-18T06:20:45Z",
      "version": 3,
      "changeset": 56455236,
      "user": "bye12",
      "uid": 3773619,
      "tags": {
        "name": "Split Pine",
        "scout": "yes",
        "tourism": "camp_site"
      }
    },
    {
      "type": "node",
      "id": 4382850858,
      "lat": 33.3607935,
      "lon": -116.566535,
      "timestamp": "2016-09-04T05:30:24Z",
      "version": 3,
      "changeset": 41900534,
      "user": "bye12",
      "uid": 3773619,
      "tags": {
        "name": "Oak Glen",
        "scout": "yes",
        "tourism": "camp_site"
      }
    },
    {
      "type": "node",
      "id": 4382850859,
      "lat": 33.3606278,
      "lon": -116.567376,
      "timestamp": "2016-09-04T05:36:16Z",
      "version": 4,
      "changeset": 41900575,
      "user": "bye12",
      "uid": 3773619,
      "tags": {
        "name": "Green Bar",
        "scout": "yes",
        "tourism": "camp_site"
      }
    },
    {
      "type": "node",
      "id": 4382850860,
      "lat": 33.35693,
      "lon": -116.5666291,
      "timestamp": "2016-09-04T04:15:31Z",
      "version": 2,
      "changeset": 41900133,
      "user": "bye12",
      "uid": 3773619,
      "tags": {
        "name": "Manzanita Flat",
        "scout": "yes",
        "tourism": "camp_site"
      }
    },
    {
      "type": "node",
      "id": 4382850861,
      "lat": 33.3562249,
      "lon": -116.5667728,
      "timestamp": "2016-09-04T04:15:31Z",
      "version": 2,
      "changeset": 41900133,
      "user": "bye12",
      "uid": 3773619,
      "tags": {
        "name": "Hidden Creek",
        "scout": "yes",
        "tourism": "camp_site"
      }
    },
    {
      "type": "node",
      "id": 4382850862,
      "lat": 33.3552356,
      "lon": -116.5664744,
      "timestamp": "2016-09-04T04:15:31Z",
      "version": 2,
      "changeset": 41900133,
      "user": "bye12",
      "uid": 3773619,
      "tags": {
        "name": "Big Pine",
        "scout": "yes",
        "tourism": "camp_site"
      }
    },
    {
      "type": "node",
      "id": 4382850863,
      "lat": 33.355655,
      "lon": -116.5674932,
      "timestamp": "2016-09-04T04:15:31Z",
      "version": 2,
      "changeset": 41900133,
      "user": "bye12",
      "uid": 3773619,
      "tags": {
        "name": "Leaning Pine",
        "scout": "yes",
        "tourism": "camp_site"
      }
    },
    {
      "type": "node",
      "id": 4382850864,
      "lat": 33.3555297,
      "lon": -116.5680687,
      "timestamp": "2016-09-04T05:33:20Z",
      "version": 3,
      "changeset": 41900554,
      "user": "bye12",
      "uid": 3773619,
      "tags": {
        "name": "Meadow View",
        "scout": "yes",
        "tourism": "camp_site"
      }
    },
    {
      "type": "node",
      "id": 4382850865,
      "lat": 33.3549909,
      "lon": -116.5683684,
      "timestamp": "2016-09-04T04:15:31Z",
      "version": 2,
      "changeset": 41900133,
      "user": "bye12",
      "uid": 3773619,
      "tags": {
        "name": "Trembly Oaks",
        "scout": "yes",
        "tourism": "camp_site"
      }
    },
    {
      "type": "node",
      "id": 4382850867,
      "lat": 33.3574299,
      "lon": -116.5644906,
      "timestamp": "2016-09-04T04:15:31Z",
      "version": 2,
      "changeset": 41900133,
      "user": "bye12",
      "uid": 3773619,
      "tags": {
        "name": "Bear Hollow",
        "scout": "yes",
        "tourism": "camp_site"
      }
    },
    {
      "type": "node",
      "id": 4382850868,
      "lat": 33.3581942,
      "lon": -116.5647956,
      "timestamp": "2016-09-04T04:15:31Z",
      "version": 2,
      "changeset": 41900133,
      "user": "bye12",
      "uid": 3773619,
      "tags": {
        "name": "Ceder Glen",
        "scout": "yes",
        "tourism": "camp_site"
      }
    },
    {
      "type": "node",
      "id": 4382850869,
      "lat": 33.3519079,
      "lon": -116.5686344,
      "timestamp": "2016-09-04T04:15:31Z",
      "version": 2,
      "changeset": 41900133,
      "user": "bye12",
      "uid": 3773619,
      "tags": {
        "name": "Rough Rider",
        "scout": "yes",
        "tourism": "camp_site"
      }
    },
    {
      "type": "node",
      "id": 4382850870,
      "lat": 33.3515249,
      "lon": -116.5689073,
      "timestamp": "2017-06-22T00:30:54Z",
      "version": 3,
      "changeset": 49733140,
      "user": "bye12",
      "uid": 3773619,
      "tags": {
        "name": "Westmeyer Woods",
        "scout": "yes",
        "tourism": "camp_site"
      }
    },
    {
      "type": "node",
      "id": 4382850871,
      "lat": 33.3513988,
      "lon": -116.570643,
      "timestamp": "2016-09-04T04:15:31Z",
      "version": 2,
      "changeset": 41900133,
      "user": "bye12",
      "uid": 3773619,
      "tags": {
        "name": "Esperanza",
        "scout": "yes",
        "tourism": "camp_site"
      }
    },
    {
      "type": "node",
      "id": 4382850872,
      "lat": 33.3507802,
      "lon": -116.570723,
      "timestamp": "2016-09-04T04:15:31Z",
      "version": 2,
      "changeset": 41900133,
      "user": "bye12",
      "uid": 3773619,
      "tags": {
        "name": "Frontier",
        "scout": "yes",
        "tourism": "camp_site"
      }
    },
    {
      "type": "node",
      "id": 4382850873,
      "lat": 33.3500325,
      "lon": -116.5710269,
      "timestamp": "2016-09-04T04:15:31Z",
      "version": 2,
      "changeset": 41900133,
      "user": "bye12",
      "uid": 3773619,
      "tags": {
        "name": "Grizzly Flat",
        "scout": "yes",
        "tourism": "camp_site"
      }
    },
    {
      "type": "node",
      "id": 4382850874,
      "lat": 33.3514388,
      "lon": -116.5717837,
      "timestamp": "2016-09-04T04:15:32Z",
      "version": 2,
      "changeset": 41900133,
      "user": "bye12",
      "uid": 3773619,
      "tags": {
        "name": "Indian Wells",
        "scout": "yes",
        "tourism": "camp_site"
      }
    },
    {
      "type": "node",
      "id": 4382850875,
      "lat": 33.3519443,
      "lon": -116.5717964,
      "timestamp": "2016-09-04T04:15:32Z",
      "version": 2,
      "changeset": 41900133,
      "user": "bye12",
      "uid": 3773619,
      "tags": {
        "name": "Abilene",
        "scout": "yes",
        "tourism": "camp_site"
      }
    },
    {
      "type": "node",
      "id": 4382850876,
      "lat": 33.3516981,
      "lon": -116.5732392,
      "timestamp": "2016-09-04T04:15:32Z",
      "version": 2,
      "changeset": 41900133,
      "user": "bye12",
      "uid": 3773619,
      "tags": {
        "name": "Hangtown Flats",
        "scout": "yes",
        "tourism": "camp_site"
      }
    },
    {
      "type": "node",
      "id": 4382850881,
      "lat": 33.3502681,
      "lon": -116.5751381,
      "timestamp": "2016-09-04T04:15:32Z",
      "version": 2,
      "changeset": 41900133,
      "user": "bye12",
      "uid": 3773619,
      "tags": {
        "name": "Maverick",
        "scout": "yes",
        "tourism": "camp_site"
      }
    },
    {
      "type": "node",
      "id": 4382850882,
      "lat": 33.3505182,
      "lon": -116.5741806,
      "timestamp": "2016-09-04T05:30:24Z",
      "version": 3,
      "changeset": 41900534,
      "user": "bye12",
      "uid": 3773619,
      "tags": {
        "name": "Jackrabbit Hill",
        "scout": "yes",
        "tourism": "camp_site"
      }
    },
    {
      "type": "node",
      "id": 4382850883,
      "lat": 33.3507573,
      "lon": -116.5756784,
      "timestamp": "2016-09-04T04:15:32Z",
      "version": 2,
      "changeset": 41900133,
      "user": "bye12",
      "uid": 3773619,
      "tags": {
        "name": "Lakeview",
        "scout": "yes",
        "tourism": "camp_site"
      }
    },
    {
      "type": "node",
      "id": 4382850884,
      "lat": 33.3508348,
      "lon": -116.5745267,
      "timestamp": "2016-09-04T04:15:32Z",
      "version": 2,
      "changeset": 41900133,
      "user": "bye12",
      "uid": 3773619,
      "tags": {
        "name": "Kingman",
        "scout": "yes",
        "tourism": "camp_site"
      }
    },
    {
      "type": "node",
      "id": 4382850889,
      "lat": 33.352121,
      "lon": -116.5771799,
      "timestamp": "2016-09-04T04:15:32Z",
      "version": 2,
      "changeset": 41900133,
      "user": "bye12",
      "uid": 3773619,
      "tags": {
        "name": "North Bluff",
        "scout": "yes",
        "tourism": "camp_site"
      }
    },
    {
      "type": "node",
      "id": 4382850890,
      "lat": 33.3528737,
      "lon": -116.5766789,
      "timestamp": "2017-06-22T00:33:13Z",
      "version": 6,
      "changeset": 49733149,
      "user": "bye12",
      "uid": 3773619,
      "tags": {
        "name": "Borrego Verde",
        "scout": "yes",
        "tourism": "camp_site"
      }
    },
    {
      "type": "node",
      "id": 4382850891,
      "lat": 33.3529775,
      "lon": -116.5760482,
      "timestamp": "2017-06-22T00:33:13Z",
      "version": 3,
      "changeset": 49733149,
      "user": "bye12",
      "uid": 3773619,
      "tags": {
        "name": "Borrego Mesa",
        "scout": "yes",
        "tourism": "camp_site"
      }
    },
    {
      "type": "node",
      "id": 4382850892,
      "lat": 33.3522525,
      "lon": -116.5754797,
      "timestamp": "2016-09-04T04:15:32Z",
      "version": 2,
      "changeset": 41900133,
      "user": "bye12",
      "uid": 3773619,
      "tags": {
        "name": "Dodge",
        "scout": "yes",
        "tourism": "camp_site"
      }
    },
    {
      "type": "node",
      "id": 4382850893,
      "lat": 33.3526973,
      "lon": -116.5754799,
      "timestamp": "2016-09-04T04:15:32Z",
      "version": 2,
      "changeset": 41900133,
      "user": "bye12",
      "uid": 3773619,
      "tags": {
        "name": "Calico",
        "scout": "yes",
        "tourism": "camp_site"
      }
    },
    {
      "type": "node",
      "id": 4430211090,
      "lat": 33.6454318,
      "lon": -116.3165239,
      "timestamp": "2016-10-04T04:47:34Z",
      "version": 1,
      "changeset": 42619697,
      "user": "JaR0000",
      "uid": 16790,
      "tags": {
        "amenity": "drinking_water"
      }
    },
    {
      "type": "node",
      "id": 4431988057,
      "lat": 33.7104532,
      "lon": -116.4007231,
      "timestamp": "2016-10-05T03:13:52Z",
      "version": 1,
      "changeset": 42646818,
      "user": "JaR0000",
      "uid": 16790,
      "tags": {
        "amenity": "drinking_water"
      }
    },
    {
      "type": "node",
      "id": 4456652271,
      "lat": 33.2567493,
      "lon": -116.3750324,
      "timestamp": "2016-10-20T16:07:24Z",
      "version": 1,
      "changeset": 43036523,
      "user": "Tom_B_SanDiego",
      "uid": 4754538,
      "tags": {
        "amenity": "drinking_water",
        "name": "Drinking fountain"
      }
    },
    {
      "type": "node",
      "id": 4456652272,
      "lat": 33.2577121,
      "lon": -116.4057365,
      "timestamp": "2016-10-20T16:07:24Z",
      "version": 1,
      "changeset": 43036523,
      "user": "Tom_B_SanDiego",
      "uid": 4754538,
      "tags": {
        "amenity": "drinking_water",
        "name": "Drinking fountain"
      }
    },
    {
      "type": "node",
      "id": 4502906489,
      "lat": 33.2957111,
      "lon": -116.2967155,
      "timestamp": "2016-11-15T19:28:02Z",
      "version": 1,
      "changeset": 43679149,
      "user": "sylviaundpaul",
      "uid": 4434168,
      "tags": {
        "tourism": "camp_site"
      }
    },
    {
      "type": "node",
      "id": 4527593343,
      "lat": 33.1391668,
      "lon": -116.3876922,
      "timestamp": "2019-01-25T06:23:01Z",
      "version": 2,
      "changeset": 66622102,
      "user": "Adam Schneider",
      "uid": 5403394,
      "tags": {
        "name": "Yaqui Well",
        "natural": "spring"
      }
    },
    {
      "type": "node",
      "id": 4592091357,
      "lat": 33.6170445,
      "lon": -116.5713819,
      "timestamp": "2017-01-06T06:43:16Z",
      "version": 1,
      "changeset": 44945153,
      "user": "bjlmt",
      "uid": 3132250,
      "tags": {
        "natural": "spring",
        "source": "USGS Topo"
      }
    },
    {
      "type": "node",
      "id": 4592091358,
      "lat": 33.6223157,
      "lon": -116.5671869,
      "timestamp": "2017-01-06T06:43:16Z",
      "version": 1,
      "changeset": 44945153,
      "user": "bjlmt",
      "uid": 3132250,
      "tags": {
        "name": "Tunnel Spring",
        "natural": "spring",
        "source": "USGS Topo"
      }
    },
    {
      "type": "node",
      "id": 4592091359,
      "lat": 33.6355146,
      "lon": -116.5593924,
      "timestamp": "2017-01-06T06:43:16Z",
      "version": 1,
      "changeset": 44945153,
      "user": "bjlmt",
      "uid": 3132250,
      "tags": {
        "name": "Oak Canyon Spring",
        "natural": "spring",
        "source": "USGS Topo"
      }
    },
    {
      "type": "node",
      "id": 4592091360,
      "lat": 33.6151861,
      "lon": -116.5950175,
      "timestamp": "2017-01-06T06:43:16Z",
      "version": 1,
      "changeset": 44945153,
      "user": "bjlmt",
      "uid": 3132250,
      "tags": {
        "natural": "spring",
        "source": "USGS Topo"
      }
    },
    {
      "type": "node",
      "id": 4592098253,
      "lat": 33.6344455,
      "lon": -116.5925039,
      "timestamp": "2017-01-06T06:52:48Z",
      "version": 1,
      "changeset": 44945294,
      "user": "bjlmt",
      "uid": 3132250,
      "tags": {
        "natural": "spring",
        "source": "USGS Topo"
      }
    },
    {
      "type": "node",
      "id": 4592098461,
      "lat": 33.634709,
      "lon": -116.5962537,
      "timestamp": "2017-01-06T06:54:38Z",
      "version": 1,
      "changeset": 44945316,
      "user": "bjlmt",
      "uid": 3132250,
      "tags": {
        "natural": "spring",
        "source": "USGS Topo"
      }
    },
    {
      "type": "node",
      "id": 4592102215,
      "lat": 33.6854643,
      "lon": -116.580796,
      "timestamp": "2017-01-06T06:59:11Z",
      "version": 1,
      "changeset": 44945373,
      "user": "bjlmt",
      "uid": 3132250,
      "tags": {
        "name": "Little Camp Spring",
        "natural": "spring",
        "source": "USGS Topo"
      }
    },
    {
      "type": "node",
      "id": 4633783389,
      "lat": 33.7148614,
      "lon": -116.285767,
      "timestamp": "2021-07-02T02:35:51Z",
      "version": 2,
      "changeset": 107284816,
      "user": "MrDrPrPatrick",
      "uid": 11458812,
      "tags": {
        "amenity": "shelter"
      }
    },
    {
      "type": "node",
      "id": 4636102759,
      "lat": 33.7153725,
      "lon": -116.2281792,
      "timestamp": "2021-03-10T15:25:11Z",
      "version": 2,
      "changeset": 100787744,
      "user": "MrDrPrPatrick",
      "uid": 11458812,
      "tags": {
        "brand": "ampm",
        "brand:wikidata": "Q306960",
        "brand:wikipedia": "en:Ampm",
        "name": "ampm",
        "shop": "convenience"
      }
    },
    {
      "type": "node",
      "id": 4666211868,
      "lat": 33.1377397,
      "lon": -116.3762711,
      "timestamp": "2017-02-05T21:26:36Z",
      "version": 1,
      "changeset": 45840433,
      "user": "Alan Bragg",
      "uid": 443130,
      "tags": {
        "amenity": "drinking_water",
        "name": "non-potable"
      }
    },
    {
      "type": "node",
      "id": 4666211870,
      "lat": 33.1379255,
      "lon": -116.3743716,
      "timestamp": "2017-02-06T17:02:26Z",
      "version": 2,
      "changeset": 45861012,
      "user": "Alan Bragg",
      "uid": 443130,
      "tags": {
        "amenity": "drinking_water",
        "name": "non-potable"
      }
    },
    {
      "type": "node",
      "id": 4666227193,
      "lat": 33.1381281,
      "lon": -116.3752831,
      "timestamp": "2017-02-05T21:26:37Z",
      "version": 1,
      "changeset": 45840433,
      "user": "Alan Bragg",
      "uid": 443130,
      "tags": {
        "amenity": "drinking_water",
        "indoor": "no",
        "name": "non-potable"
      }
    },
    {
      "type": "node",
      "id": 4666227199,
      "lat": 33.1378319,
      "lon": -116.3763943,
      "timestamp": "2017-02-05T21:26:37Z",
      "version": 1,
      "changeset": 45840433,
      "user": "Alan Bragg",
      "uid": 443130,
      "tags": {
        "amenity": "drinking_water",
        "name": "non-potable"
      }
    },
    {
      "type": "node",
      "id": 4666227210,
      "lat": 33.1382212,
      "lon": -116.3750516,
      "timestamp": "2017-02-05T21:26:37Z",
      "version": 1,
      "changeset": 45840433,
      "user": "Alan Bragg",
      "uid": 443130,
      "tags": {
        "amenity": "drinking_water",
        "name": "non-potable"
      }
    },
    {
      "type": "node",
      "id": 4666227213,
      "lat": 33.1379414,
      "lon": -116.376589,
      "timestamp": "2017-02-05T21:26:37Z",
      "version": 1,
      "changeset": 45840433,
      "user": "Alan Bragg",
      "uid": 443130,
      "tags": {
        "amenity": "drinking_water",
        "name": "non-potable"
      }
    },
    {
      "type": "node",
      "id": 4666227217,
      "lat": 33.1377888,
      "lon": -116.375817,
      "timestamp": "2019-02-11T08:05:42Z",
      "version": 2,
      "changeset": 67091553,
      "user": "Adam Schneider",
      "uid": 5403394,
      "tags": {
        "amenity": "drinking_water",
        "name": "non-potable"
      }
    },
    {
      "type": "node",
      "id": 4668875548,
      "lat": 33.2560612,
      "lon": -116.3798317,
      "timestamp": "2017-02-06T18:32:40Z",
      "version": 1,
      "changeset": 45863013,
      "user": "Alan Bragg",
      "uid": 443130,
      "tags": {
        "level": "0",
        "name": "Desert Pantry Grocers",
        "shop": "convenience"
      }
    },
    {
      "type": "node",
      "id": 4844994681,
      "lat": 33.7059922,
      "lon": -116.6508528,
      "timestamp": "2017-05-10T04:48:27Z",
      "version": 1,
      "changeset": 48550260,
      "user": "bjlmt",
      "uid": 3132250,
      "tags": {
        "name": "Pine Springs Ranch - Christian Camp & Conference Center",
        "tourism": "camp_site"
      }
    },
    {
      "type": "node",
      "id": 4845021420,
      "lat": 33.6213858,
      "lon": -116.6666459,
      "timestamp": "2017-05-10T05:15:25Z",
      "version": 1,
      "changeset": 48550624,
      "user": "bjlmt",
      "uid": 3132250,
      "tags": {
        "name": "Magee Spring",
        "natural": "spring",
        "source": "USGS Topo"
      }
    },
    {
      "type": "node",
      "id": 4960728833,
      "lat": 33.6565646,
      "lon": -116.668877,
      "timestamp": "2022-04-08T00:40:31Z",
      "version": 3,
      "changeset": 119447675,
      "user": "Kai Johnson",
      "uid": 1906004,
      "tags": {
        "name": "Thomas Mountain Yellow Post 1",
        "tourism": "camp_site"
      }
    },
    {
      "type": "node",
      "id": 4960750423,
      "lat": 33.6299634,
      "lon": -116.697738,
      "timestamp": "2017-07-10T00:04:55Z",
      "version": 1,
      "changeset": 50163715,
      "user": "Keith Helbley",
      "uid": 1178887,
      "tags": {
        "name": "Yellow Post 2",
        "tourism": "camp_site"
      }
    },
    {
      "type": "node",
      "id": 4960751117,
      "lat": 33.6197172,
      "lon": -116.681402,
      "timestamp": "2022-04-08T00:40:31Z",
      "version": 2,
      "changeset": 119447675,
      "user": "Kai Johnson",
      "uid": 1906004,
      "tags": {
        "name": "Thomas Mountain Yellow Post 3",
        "tourism": "camp_site"
      }
    },
    {
      "type": "node",
      "id": 4960751127,
      "lat": 33.6206096,
      "lon": -116.682071,
      "timestamp": "2022-04-08T00:40:31Z",
      "version": 2,
      "changeset": 119447675,
      "user": "Kai Johnson",
      "uid": 1906004,
      "tags": {
        "name": "Thomas Mountain Yellow Post 4",
        "tourism": "camp_site"
      }
    },
    {
      "type": "node",
      "id": 4960751130,
      "lat": 33.6213392,
      "lon": -116.682686,
      "timestamp": "2022-04-08T00:40:31Z",
      "version": 2,
      "changeset": 119447675,
      "user": "Kai Johnson",
      "uid": 1906004,
      "tags": {
        "name": "Thomas Mountain Yellow Post 5",
        "tourism": "camp_site"
      }
    },
    {
      "type": "node",
      "id": 4960763015,
      "lat": 33.623003,
      "lon": -116.68106,
      "timestamp": "2022-04-08T00:40:31Z",
      "version": 2,
      "changeset": 119447675,
      "user": "Kai Johnson",
      "uid": 1906004,
      "tags": {
        "name": "Thomas Mountain Yellow Post 6",
        "tourism": "camp_site"
      }
    },
    {
      "type": "node",
      "id": 4960763020,
      "lat": 33.6226902,
      "lon": -116.680591,
      "timestamp": "2022-04-08T00:40:31Z",
      "version": 2,
      "changeset": 119447675,
      "user": "Kai Johnson",
      "uid": 1906004,
      "tags": {
        "name": "Thomas Mountain Yellow Post 7",
        "tourism": "camp_site"
      }
    },
    {
      "type": "node",
      "id": 4960764119,
      "lat": 33.616062,
      "lon": -116.660591,
      "timestamp": "2022-04-08T00:40:31Z",
      "version": 2,
      "changeset": 119447675,
      "user": "Kai Johnson",
      "uid": 1906004,
      "tags": {
        "name": "Thomas Mountain Yellow Post 10",
        "tourism": "camp_site"
      }
    },
    {
      "type": "node",
      "id": 4960764120,
      "lat": 33.6163187,
      "lon": -116.661746,
      "timestamp": "2022-04-08T00:40:31Z",
      "version": 2,
      "changeset": 119447675,
      "user": "Kai Johnson",
      "uid": 1906004,
      "tags": {
        "name": "Thomas Mountain Yellow Post 9",
        "tourism": "camp_site"
      }
    },
    {
      "type": "node",
      "id": 4960764125,
      "lat": 33.6219464,
      "lon": -116.675233,
      "timestamp": "2022-04-08T00:40:31Z",
      "version": 2,
      "changeset": 119447675,
      "user": "Kai Johnson",
      "uid": 1906004,
      "tags": {
        "name": "Thomas Mountain Yellow Post 8",
        "tourism": "camp_site"
      }
    },
    {
      "type": "node",
      "id": 4960794592,
      "lat": 33.6555326,
      "lon": -116.7105099,
      "timestamp": "2017-07-10T01:06:45Z",
      "version": 1,
      "changeset": 50164158,
      "user": "Keith Helbley",
      "uid": 1178887,
      "tags": {
        "name": "Pine Tree Spring",
        "natural": "spring"
      }
    },
    {
      "type": "node",
      "id": 4960794612,
      "lat": 33.6461046,
      "lon": -116.7159159,
      "timestamp": "2017-07-10T01:06:46Z",
      "version": 1,
      "changeset": 50164158,
      "user": "Keith Helbley",
      "uid": 1178887,
      "tags": {
        "name": "Spring",
        "natural": "spring"
      }
    },
    {
      "type": "node",
      "id": 5274436510,
      "lat": 33.6975959,
      "lon": -116.1974437,
      "timestamp": "2017-12-10T00:36:06Z",
      "version": 1,
      "changeset": 54499748,
      "user": "JaggedMind",
      "uid": 587790,
      "tags": {
        "amenity": "drinking_water",
        "bottle": "yes"
      }
    },
    {
      "type": "node",
      "id": 5274436511,
      "lat": 33.6976951,
      "lon": -116.1963296,
      "timestamp": "2017-12-10T00:36:06Z",
      "version": 1,
      "changeset": 54499748,
      "user": "JaggedMind",
      "uid": 587790,
      "tags": {
        "amenity": "drinking_water"
      }
    },
    {
      "type": "node",
      "id": 5274436512,
      "lat": 33.6975761,
      "lon": -116.1956215,
      "timestamp": "2017-12-10T00:36:06Z",
      "version": 1,
      "changeset": 54499748,
      "user": "JaggedMind",
      "uid": 587790,
      "tags": {
        "amenity": "drinking_water",
        "bottle": "yes"
      }
    },
    {
      "type": "node",
      "id": 5333830322,
      "lat": 33.7124967,
      "lon": -116.2934782,
      "timestamp": "2021-06-20T23:32:11Z",
      "version": 3,
      "changeset": 106683558,
      "user": "Mundilfari",
      "uid": 349543,
      "tags": {
        "addr:city": "La Quinta",
        "addr:country": "US",
        "addr:county": "Riverside, CA",
        "addr:housenumber": "78601",
        "addr:postcode": "92253-2068",
        "addr:state": "CA",
        "addr:street": "Highway 111",
        "brand": "ALDI",
        "brand:wikidata": "Q41171672",
        "brand:wikipedia": "en:Aldi",
        "delivery": "yes",
        "drink:beer": "bottled",
        "drink:wine": "bottled",
        "name": "ALDI",
        "opening_hours": "Mo-Su 09:00-21:00",
        "payment:american_express": "yes",
        "payment:apple_pay": "yes",
        "payment:cheque": "no",
        "payment:coins": "yes",
        "payment:debit_cards": "yes",
        "payment:discover_card": "yes",
        "payment:ebt": "yes",
        "payment:google_pay": "yes",
        "payment:mastercard": "yes",
        "payment:notes": "yes",
        "payment:snap": "yes",
        "payment:visa": "yes",
        "payment:wic": "no",
        "phone": "+1 760 618 1964",
        "shop": "supermarket",
        "website": "https://www.aldi.us/"
      }
    },
    {
      "type": "node",
      "id": 6226702681,
      "lat": 33.4213678,
      "lon": -116.5204087,
      "timestamp": "2019-01-22T08:40:04Z",
      "version": 1,
      "changeset": 66529937,
      "user": "Adam Schneider",
      "uid": 5403394,
      "tags": {
        "name": "Mangalar Spring",
        "natural": "spring"
      }
    },
    {
      "type": "node",
      "id": 6226705393,
      "lat": 33.3730749,
      "lon": -116.4411521,
      "timestamp": "2019-01-23T06:40:23Z",
      "version": 2,
      "changeset": 66559411,
      "user": "Adam Schneider",
      "uid": 5403394,
      "tags": {
        "name": "Santa Catarina Spring",
        "natural": "spring"
      }
    },
    {
      "type": "node",
      "id": 6226705806,
      "lat": 33.2705658,
      "lon": -116.4181012,
      "timestamp": "2019-01-22T08:40:46Z",
      "version": 1,
      "changeset": 66529937,
      "user": "Adam Schneider",
      "uid": 5403394,
      "tags": {
        "amenity": "drinking_water"
      }
    },
    {
      "type": "node",
      "id": 6228276970,
      "lat": 33.2107597,
      "lon": -116.4659652,
      "timestamp": "2019-01-22T21:51:57Z",
      "version": 1,
      "changeset": 66552202,
      "user": "Adam Schneider",
      "uid": 5403394,
      "tags": {
        "name": "La Ci√©naga",
        "natural": "spring"
      }
    },
    {
      "type": "node",
      "id": 6228276971,
      "lat": 33.2150996,
      "lon": -116.4612821,
      "timestamp": "2019-01-22T21:51:57Z",
      "version": 1,
      "changeset": 66552202,
      "user": "Adam Schneider",
      "uid": 5403394,
      "tags": {
        "name": "Lews Spring",
        "natural": "spring"
      }
    },
    {
      "type": "node",
      "id": 6228276972,
      "lat": 33.2175938,
      "lon": -116.4639214,
      "timestamp": "2019-01-22T21:51:57Z",
      "version": 1,
      "changeset": 66552202,
      "user": "Adam Schneider",
      "uid": 5403394,
      "tags": {
        "name": "Don Spring",
        "natural": "spring"
      }
    },
    {
      "type": "node",
      "id": 6228276973,
      "lat": 33.2136051,
      "lon": -116.4620814,
      "timestamp": "2019-01-22T21:51:57Z",
      "version": 1,
      "changeset": 66552202,
      "user": "Adam Schneider",
      "uid": 5403394,
      "tags": {
        "natural": "spring"
      }
    },
    {
      "type": "node",
      "id": 6228276994,
      "lat": 33.2149123,
      "lon": -116.4633662,
      "timestamp": "2019-01-22T21:51:58Z",
      "version": 1,
      "changeset": 66552202,
      "user": "Adam Schneider",
      "uid": 5403394,
      "tags": {
        "name": "Rusty Spring",
        "natural": "spring"
      }
    },
    {
      "type": "node",
      "id": 6228276995,
      "lat": 33.2152253,
      "lon": -116.4635257,
      "timestamp": "2019-01-22T21:51:58Z",
      "version": 1,
      "changeset": 66552202,
      "user": "Adam Schneider",
      "uid": 5403394,
      "tags": {
        "name": "Johnnie Spring",
        "natural": "spring"
      }
    },
    {
      "type": "node",
      "id": 6228277014,
      "lat": 33.2122396,
      "lon": -116.4667712,
      "timestamp": "2019-01-22T21:51:58Z",
      "version": 1,
      "changeset": 66552202,
      "user": "Adam Schneider",
      "uid": 5403394,
      "tags": {
        "natural": "spring"
      }
    },
    {
      "type": "node",
      "id": 6228277015,
      "lat": 33.2081138,
      "lon": -116.4661235,
      "timestamp": "2019-01-22T21:51:58Z",
      "version": 1,
      "changeset": 66552202,
      "user": "Adam Schneider",
      "uid": 5403394,
      "tags": {
        "natural": "spring"
      }
    },
    {
      "type": "node",
      "id": 6228277016,
      "lat": 33.2136691,
      "lon": -116.4625575,
      "timestamp": "2019-01-22T21:51:58Z",
      "version": 1,
      "changeset": 66552202,
      "user": "Adam Schneider",
      "uid": 5403394,
      "tags": {
        "name": "Chimney Spring",
        "natural": "spring"
      }
    },
    {
      "type": "node",
      "id": 6228830266,
      "lat": 33.2065294,
      "lon": -116.4248738,
      "timestamp": "2019-01-23T06:39:27Z",
      "version": 1,
      "changeset": 66559411,
      "user": "Adam Schneider",
      "uid": 5403394,
      "tags": {
        "name": "Middle Spring",
        "natural": "spring"
      }
    },
    {
      "type": "node",
      "id": 6228830369,
      "lat": 33.2020095,
      "lon": -116.4344104,
      "timestamp": "2019-01-23T06:39:29Z",
      "version": 1,
      "changeset": 66559411,
      "user": "Adam Schneider",
      "uid": 5403394,
      "tags": {
        "name": "Big Spring",
        "natural": "spring"
      }
    },
    {
      "type": "node",
      "id": 6231662278,
      "lat": 33.3528874,
      "lon": -116.1901054,
      "timestamp": "2019-01-24T05:37:40Z",
      "version": 1,
      "changeset": 66590273,
      "user": "Adam Schneider",
      "uid": 5403394,
      "tags": {
        "name": "Rattlesnake Spring",
        "natural": "spring"
      }
    },
    {
      "type": "node",
      "id": 6235412870,
      "lat": 33.156293,
      "lon": -116.4852624,
      "timestamp": "2019-01-25T06:21:57Z",
      "version": 1,
      "changeset": 66622102,
      "user": "Adam Schneider",
      "uid": 5403394,
      "tags": {
        "name": "Angelina Spring",
        "natural": "spring"
      }
    },
    {
      "type": "node",
      "id": 6270958676,
      "lat": 33.2086939,
      "lon": -116.4597479,
      "timestamp": "2019-02-11T08:05:17Z",
      "version": 1,
      "changeset": 67091553,
      "user": "Adam Schneider",
      "uid": 5403394,
      "tags": {
        "drinking_water": "no",
        "fee": "no",
        "name": "Paroli Homesite Primitive Campground",
        "tents": "yes",
        "tourism": "camp_site"
      }
    },
    {
      "type": "node",
      "id": 6294300363,
      "lat": 33.1549311,
      "lon": -116.1702007,
      "timestamp": "2019-02-21T20:31:06Z",
      "version": 1,
      "changeset": 67442906,
      "user": "Adam Schneider",
      "uid": 5403394,
      "tags": {
        "amenity": "shelter",
        "shelter_type": "picnic_shelter"
      }
    },
    {
      "type": "node",
      "id": 6294300364,
      "lat": 33.1538611,
      "lon": -116.1705574,
      "timestamp": "2019-02-21T20:31:06Z",
      "version": 1,
      "changeset": 67442906,
      "user": "Adam Schneider",
      "uid": 5403394,
      "tags": {
        "amenity": "shelter",
        "shelter_type": "picnic_shelter"
      }
    },
    {
      "type": "node",
      "id": 6359672977,
      "lat": 33.2566637,
      "lon": -116.3778313,
      "timestamp": "2019-03-25T04:51:07Z",
      "version": 1,
      "changeset": 68492821,
      "user": "jmapb",
      "uid": 4400159,
      "tags": {
        "amenity": "drinking_water",
        "man_made": "drinking_fountain"
      }
    },
    {
      "type": "node",
      "id": 6468662753,
      "lat": 33.7072028,
      "lon": -116.7018623,
      "timestamp": "2019-05-12T20:44:47Z",
      "version": 1,
      "changeset": 70170668,
      "user": "bjlmt",
      "uid": 3132250,
      "tags": {
        "natural": "spring",
        "source": "USGS Topo"
      }
    },
    {
      "type": "node",
      "id": 6468694013,
      "lat": 33.7199743,
      "lon": -116.6431729,
      "timestamp": "2019-05-12T21:00:06Z",
      "version": 1,
      "changeset": 70171039,
      "user": "bjlmt",
      "uid": 3132250,
      "tags": {
        "name": "Cedar Spring",
        "natural": "spring"
      }
    },
    {
      "type": "node",
      "id": 6468699345,
      "lat": 33.7007705,
      "lon": -116.6108859,
      "timestamp": "2019-05-12T21:05:59Z",
      "version": 1,
      "changeset": 70171179,
      "user": "bjlmt",
      "uid": 3132250,
      "tags": {
        "name": "Gooseberry Spring",
        "natural": "spring"
      }
    },
    {
      "type": "node",
      "id": 6468699744,
      "lat": 33.7117997,
      "lon": -116.5924255,
      "timestamp": "2019-05-12T21:07:29Z",
      "version": 1,
      "changeset": 70171209,
      "user": "bjlmt",
      "uid": 3132250,
      "tags": {
        "name": "Agua Fuerte Spring",
        "natural": "spring"
      }
    },
    {
      "type": "node",
      "id": 6476739761,
      "lat": 33.5611465,
      "lon": -116.3961727,
      "timestamp": "2019-05-15T23:01:22Z",
      "version": 1,
      "changeset": 70296215,
      "user": "bjlmt",
      "uid": 3132250,
      "tags": {
        "natural": "spring"
      }
    },
    {
      "type": "node",
      "id": 6979196468,
      "lat": 33.6226913,
      "lon": -116.5567199,
      "timestamp": "2019-11-15T08:56:50Z",
      "version": 1,
      "changeset": 77113760,
      "user": "kylebarron",
      "uid": 8122137,
      "tags": {
        "name": "Live Oak Spring",
        "natural": "spring",
        "source": "USGS Topo"
      }
    },
    {
      "type": "node",
      "id": 6979208366,
      "lat": 33.6766475,
      "lon": -116.5765901,
      "timestamp": "2019-11-15T09:10:36Z",
      "version": 1,
      "changeset": 77114335,
      "user": "kylebarron",
      "uid": 8122137,
      "tags": {
        "intermittent": "no",
        "name": "Cedar Spring",
        "natural": "spring"
      }
    },
    {
      "type": "node",
      "id": 6991390253,
      "lat": 33.2153371,
      "lon": -116.5880506,
      "timestamp": "2019-11-20T04:10:03Z",
      "version": 1,
      "changeset": 77299726,
      "user": "kylebarron",
      "uid": 8122137,
      "tags": {
        "intermittent": "yes",
        "name": "Barrel Spring",
        "natural": "spring"
      }
    },
    {
      "type": "node",
      "id": 7124449000,
      "lat": 33.6921535,
      "lon": -116.5562571,
      "timestamp": "2020-01-11T15:05:22Z",
      "version": 1,
      "changeset": 79453524,
      "user": "kylebarron",
      "uid": 8122137,
      "tags": {
        "name": "Mad Women Spring",
        "natural": "spring"
      }
    },
    {
      "type": "node",
      "id": 7124449001,
      "lat": 33.6766553,
      "lon": -116.5780376,
      "timestamp": "2020-01-11T15:05:22Z",
      "version": 1,
      "changeset": 79453524,
      "user": "kylebarron",
      "uid": 8122137,
      "tags": {
        "natural": "spring"
      }
    },
    {
      "type": "node",
      "id": 7124451581,
      "lat": 33.629366,
      "lon": -116.5301639,
      "timestamp": "2020-01-11T14:49:55Z",
      "version": 1,
      "changeset": 79453133,
      "user": "kylebarron",
      "uid": 8122137,
      "tags": {
        "natural": "spring"
      }
    },
    {
      "type": "node",
      "id": 7124451767,
      "lat": 33.6641434,
      "lon": -116.5163383,
      "timestamp": "2020-01-11T14:49:55Z",
      "version": 1,
      "changeset": 79453133,
      "user": "kylebarron",
      "uid": 8122137,
      "tags": {
        "name": "Agua Bonita Spring",
        "natural": "spring"
      }
    },
    {
      "type": "node",
      "id": 7124451789,
      "lat": 33.6671902,
      "lon": -116.5170827,
      "timestamp": "2020-01-11T14:49:55Z",
      "version": 1,
      "changeset": 79453133,
      "user": "kylebarron",
      "uid": 8122137,
      "tags": {
        "natural": "spring"
      }
    },
    {
      "type": "node",
      "id": 7124451991,
      "lat": 33.6702194,
      "lon": -116.5694117,
      "timestamp": "2020-01-11T14:49:55Z",
      "version": 1,
      "changeset": 79453133,
      "user": "kylebarron",
      "uid": 8122137,
      "tags": {
        "name": "Root Spring",
        "natural": "spring"
      }
    },
    {
      "type": "node",
      "id": 7124475394,
      "lat": 33.6761744,
      "lon": -116.5812964,
      "timestamp": "2020-01-11T15:05:22Z",
      "version": 1,
      "changeset": 79453524,
      "user": "kylebarron",
      "uid": 8122137,
      "tags": {
        "intermittent": "yes",
        "name": "Lion Spring",
        "natural": "spring"
      }
    },
    {
      "type": "node",
      "id": 7124475526,
      "lat": 33.6526181,
      "lon": -116.5435738,
      "timestamp": "2020-01-11T15:05:22Z",
      "version": 1,
      "changeset": 79453524,
      "user": "kylebarron",
      "uid": 8122137,
      "tags": {
        "name": "Wild Grape Spring",
        "natural": "spring"
      }
    },
    {
      "type": "node",
      "id": 7124475689,
      "lat": 33.6345635,
      "lon": -116.5809174,
      "timestamp": "2020-01-11T15:05:22Z",
      "version": 1,
      "changeset": 79453524,
      "user": "kylebarron",
      "uid": 8122137,
      "tags": {
        "natural": "spring"
      }
    },
    {
      "type": "node",
      "id": 7124475814,
      "lat": 33.6586963,
      "lon": -116.597354,
      "timestamp": "2020-01-11T15:05:22Z",
      "version": 1,
      "changeset": 79453524,
      "user": "kylebarron",
      "uid": 8122137,
      "tags": {
        "natural": "spring"
      }
    },
    {
      "type": "node",
      "id": 7124475823,
      "lat": 33.6694862,
      "lon": -116.581383,
      "timestamp": "2020-01-11T15:05:22Z",
      "version": 1,
      "changeset": 79453524,
      "user": "kylebarron",
      "uid": 8122137,
      "tags": {
        "name": "Eagle Spring",
        "natural": "spring"
      }
    },
    {
      "type": "node",
      "id": 7124498589,
      "lat": 33.6911746,
      "lon": -116.5990182,
      "timestamp": "2020-01-11T15:24:19Z",
      "version": 1,
      "changeset": 79454010,
      "user": "kylebarron",
      "uid": 8122137,
      "tags": {
        "name": "Landslide Spring",
        "natural": "spring"
      }
    },
    {
      "type": "node",
      "id": 7124498709,
      "lat": 33.7206638,
      "lon": -116.5586778,
      "timestamp": "2020-01-11T15:24:19Z",
      "version": 1,
      "changeset": 79454010,
      "user": "kylebarron",
      "uid": 8122137,
      "tags": {
        "name": "Dos Palmas Spring",
        "natural": "spring"
      }
    },
    {
      "type": "node",
      "id": 7124498710,
      "lat": 33.7214134,
      "lon": -116.5550514,
      "timestamp": "2020-01-11T15:24:19Z",
      "version": 1,
      "changeset": 79454010,
      "user": "kylebarron",
      "uid": 8122137,
      "tags": {
        "name": "Indian Spring",
        "natural": "spring"
      }
    },
    {
      "type": "node",
      "id": 7124498735,
      "lat": 33.6705646,
      "lon": -116.6065978,
      "timestamp": "2020-01-11T15:24:19Z",
      "version": 1,
      "changeset": 79454010,
      "user": "kylebarron",
      "uid": 8122137,
      "tags": {
        "name": "Duchess Spring",
        "natural": "spring"
      }
    },
    {
      "type": "node",
      "id": 7124498851,
      "lat": 33.661907,
      "lon": -116.6232528,
      "timestamp": "2020-01-11T15:24:19Z",
      "version": 1,
      "changeset": 79454010,
      "user": "kylebarron",
      "uid": 8122137,
      "tags": {
        "name": "Fobes Spring",
        "natural": "spring"
      }
    },
    {
      "type": "node",
      "id": 7149373576,
      "lat": 33.2005219,
      "lon": -116.2076742,
      "timestamp": "2020-01-21T17:33:26Z",
      "version": 1,
      "changeset": 79869139,
      "user": "Rob Malouf",
      "uid": 362406,
      "tags": {
        "natural": "cave_entrance"
      }
    },
    {
      "type": "node",
      "id": 7692731585,
      "lat": 33.5182804,
      "lon": -116.5901352,
      "timestamp": "2020-07-07T18:55:35Z",
      "version": 1,
      "changeset": 87670372,
      "user": "Tomasz11",
      "uid": 2682458,
      "tags": {
        "tourism": "camp_site"
      }
    },
    {
      "type": "node",
      "id": 7692731685,
      "lat": 33.5450666,
      "lon": -116.5783753,
      "timestamp": "2020-07-07T18:55:36Z",
      "version": 1,
      "changeset": 87670372,
      "user": "Tomasz11",
      "uid": 2682458,
      "tags": {
        "tourism": "camp_site"
      }
    },
    {
      "type": "node",
      "id": 7692731686,
      "lat": 33.6119329,
      "lon": -116.5643987,
      "timestamp": "2020-07-07T18:55:37Z",
      "version": 1,
      "changeset": 87670372,
      "user": "Tomasz11",
      "uid": 2682458,
      "tags": {
        "tourism": "camp_site"
      }
    },
    {
      "type": "node",
      "id": 7692731687,
      "lat": 33.633597,
      "lon": -116.5664666,
      "timestamp": "2020-07-07T18:55:38Z",
      "version": 1,
      "changeset": 87670372,
      "user": "Tomasz11",
      "uid": 2682458,
      "tags": {
        "tourism": "camp_site"
      }
    },
    {
      "type": "node",
      "id": 7693367085,
      "lat": 33.337367,
      "lon": -116.6372876,
      "timestamp": "2020-07-08T01:48:36Z",
      "version": 1,
      "changeset": 87679024,
      "user": "Tomasz11",
      "uid": 2682458,
      "tags": {
        "tourism": "camp_site"
      }
    },
    {
      "type": "node",
      "id": 7693368085,
      "lat": 33.342996,
      "lon": -116.6389204,
      "timestamp": "2020-07-08T01:48:37Z",
      "version": 1,
      "changeset": 87679024,
      "user": "Tomasz11",
      "uid": 2682458,
      "tags": {
        "tourism": "camp_site"
      }
    },
    {
      "type": "node",
      "id": 7693368086,
      "lat": 33.3465753,
      "lon": -116.6136855,
      "timestamp": "2020-07-08T01:48:38Z",
      "version": 1,
      "changeset": 87679024,
      "user": "Tomasz11",
      "uid": 2682458,
      "tags": {
        "tourism": "camp_site"
      }
    },
    {
      "type": "node",
      "id": 7693368087,
      "lat": 33.3529629,
      "lon": -116.6093034,
      "timestamp": "2020-07-08T01:48:40Z",
      "version": 1,
      "changeset": 87679024,
      "user": "Tomasz11",
      "uid": 2682458,
      "tags": {
        "tourism": "camp_site"
      }
    },
    {
      "type": "node",
      "id": 7693368088,
      "lat": 33.6366138,
      "lon": -116.5690771,
      "timestamp": "2020-07-08T01:48:47Z",
      "version": 1,
      "changeset": 87679024,
      "user": "Tomasz11",
      "uid": 2682458,
      "tags": {
        "tourism": "camp_site"
      }
    },
    {
      "type": "node",
      "id": 7693368089,
      "lat": 33.6482728,
      "lon": -116.5669964,
      "timestamp": "2020-07-08T01:48:48Z",
      "version": 1,
      "changeset": 87679024,
      "user": "Tomasz11",
      "uid": 2682458,
      "tags": {
        "tourism": "camp_site"
      }
    },
    {
      "type": "node",
      "id": 7693368185,
      "lat": 33.3486241,
      "lon": -116.6080201,
      "timestamp": "2020-07-08T01:48:39Z",
      "version": 1,
      "changeset": 87679024,
      "user": "Tomasz11",
      "uid": 2682458,
      "tags": {
        "tourism": "camp_site"
      }
    },
    {
      "type": "node",
      "id": 7693368186,
      "lat": 33.3532175,
      "lon": -116.6084518,
      "timestamp": "2020-07-08T01:48:41Z",
      "version": 1,
      "changeset": 87679024,
      "user": "Tomasz11",
      "uid": 2682458,
      "tags": {
        "tourism": "camp_site"
      }
    },
    {
      "type": "node",
      "id": 7693368187,
      "lat": 33.4150705,
      "lon": -116.6074033,
      "timestamp": "2020-07-08T01:48:42Z",
      "version": 1,
      "changeset": 87679024,
      "user": "Tomasz11",
      "uid": 2682458,
      "tags": {
        "tourism": "camp_site"
      }
    },
    {
      "type": "node",
      "id": 7693368188,
      "lat": 33.6358883,
      "lon": -116.5685876,
      "timestamp": "2020-07-08T01:48:44Z",
      "version": 1,
      "changeset": 87679024,
      "user": "Tomasz11",
      "uid": 2682458,
      "tags": {
        "tourism": "camp_site"
      }
    },
    {
      "type": "node",
      "id": 7693368189,
      "lat": 33.6376187,
      "lon": -116.5692145,
      "timestamp": "2020-07-08T01:48:47Z",
      "version": 1,
      "changeset": 87679024,
      "user": "Tomasz11",
      "uid": 2682458,
      "tags": {
        "tourism": "camp_site"
      }
    },
    {
      "type": "node",
      "id": 7693368285,
      "lat": 33.442534,
      "lon": -116.6059606,
      "timestamp": "2020-07-08T01:48:43Z",
      "version": 1,
      "changeset": 87679024,
      "user": "Tomasz11",
      "uid": 2682458,
      "tags": {
        "tourism": "camp_site"
      }
    },
    {
      "type": "node",
      "id": 7693368286,
      "lat": 33.4426597,
      "lon": -116.6082677,
      "timestamp": "2020-07-08T01:48:44Z",
      "version": 1,
      "changeset": 87679024,
      "user": "Tomasz11",
      "uid": 2682458,
      "tags": {
        "tourism": "camp_site"
      }
    },
    {
      "type": "node",
      "id": 7700639985,
      "lat": 33.6899544,
      "lon": -116.6094617,
      "timestamp": "2020-07-09T21:46:04Z",
      "version": 1,
      "changeset": 87785322,
      "user": "Tomasz11",
      "uid": 2682458,
      "tags": {
        "tourism": "camp_site"
      }
    },
    {
      "type": "node",
      "id": 7700640086,
      "lat": 33.3264178,
      "lon": -116.6297105,
      "timestamp": "2020-07-09T21:46:36Z",
      "version": 1,
      "changeset": 87785332,
      "user": "Tomasz11",
      "uid": 2682458,
      "tags": {
        "tourism": "camp_site"
      }
    },
    {
      "type": "node",
      "id": 7700640385,
      "lat": 33.6811305,
      "lon": -116.6004986,
      "timestamp": "2020-07-09T21:46:37Z",
      "version": 1,
      "changeset": 87785332,
      "user": "Tomasz11",
      "uid": 2682458,
      "tags": {
        "tourism": "camp_site"
      }
    },
    {
      "type": "node",
      "id": 8343582781,
      "lat": 33.5390777,
      "lon": -116.4836433,
      "timestamp": "2021-01-20T23:49:32Z",
      "version": 1,
      "changeset": 97864807,
      "user": "bjlmt",
      "uid": 3132250,
      "tags": {
        "name": "Mountain Home Spring",
        "natural": "spring",
        "source": "USGS Topo"
      }
    },
    {
      "type": "node",
      "id": 8343584984,
      "lat": 33.5666734,
      "lon": -116.5095234,
      "timestamp": "2021-01-21T00:03:31Z",
      "version": 1,
      "changeset": 97865042,
      "user": "bjlmt",
      "uid": 3132250,
      "tags": {
        "name": "Rarick Spring",
        "natural": "spring",
        "source": "USGS Topo"
      }
    },
    {
      "type": "node",
      "id": 8404028465,
      "lat": 33.5391197,
      "lon": -116.4496393,
      "timestamp": "2021-02-08T07:30:14Z",
      "version": 1,
      "changeset": 98888578,
      "user": "bjlmt",
      "uid": 3132250,
      "tags": {
        "name": "Stump Spring",
        "natural": "spring"
      }
    },
    {
      "type": "node",
      "id": 8555715841,
      "lat": 33.2903369,
      "lon": -116.6511052,
      "timestamp": "2021-03-24T04:08:56Z",
      "version": 1,
      "changeset": 101608872,
      "user": "Natfoot",
      "uid": 567792,
      "tags": {
        "natural": "spring"
      }
    },
    {
      "type": "node",
      "id": 8595831478,
      "lat": 33.6487958,
      "lon": -116.3098586,
      "timestamp": "2021-04-05T16:22:20Z",
      "version": 1,
      "changeset": 102346691,
      "user": "Bryce C Nesbitt",
      "uid": 355242,
      "tags": {
        "amenity": "drinking_water",
        "dog": "yes"
      }
    },