{
  "osm3s": {
    "timestamp_osm_date": "2022-05-26T23:59:59Z",
    "timestamp_osm_base": "2022-05-27T05:58:54Z",
    "copyright": "The data included in this document is from www.openstreetmap.org. The data is made available under ODbL."
  },
  "elements": [
    {
      "type": "node",
      "id": 67253682,
      "lat": 37.4899412,
      "lon": 14.0631618,
      "timestamp": "2021-10-24T20:04:35Z",
      "version": 28,
      "changeset": 112920104,
      "user": "fayor",
      "uid": 743479,
      "tags": {
        "alt_name:ar": "كالتانيسيتا",
        "alt_name:scn": "Cartanisetta",
        "capital": "6",
        "name": "Caltanissetta",
        "name:ar": "قلعة النساء",
        "name:el": "Καλτανισέττα",
        "name:en": "Caltanissetta",
        "name:ru": "Кальтаниссетта",
        "name:scn": "Nissa",
        "name:zh": "卡爾塔尼塞塔",
        "name:zh-Hans": "卡尔塔尼塞塔",
        "place": "city",
        "population": "59425",
        "source": "Istat gennaio 2021"
      }
    },
    {
      "type": "node",
      "id": 67254043,
      "lat": 37.1903541,
      "lon": 14.1834889,
      "timestamp": "2021-10-24T20:04:35Z",
      "version": 10,
      "changeset": 112920104,
      "user": "fayor",
      "uid": 743479,
      "tags": {
        "name": "Butera",
        "name:scn": "Vutera",
        "place": "village",
        "population": "4284",
        "source": "Istat gennaio 2021"
      }
    },
    {
      "type": "node",
      "id": 67254156,
      "lat": 37.3050236,
      "lon": 14.2140779,
      "timestamp": "2021-10-24T20:04:35Z",
      "version": 9,
      "changeset": 112920104,
      "user": "fayor",
      "uid": 743479,
      "tags": {
        "name": "Mazzarino",
        "name:scn": "Mazzarinu",
        "place": "town",
        "population": "11186",
        "source": "Istat gennaio 2021"
      }
    },
    {
      "type": "node",
      "id": 67254193,
      "lat": 37.2819611,
      "lon": 14.0824138,
      "timestamp": "2021-10-24T20:04:35Z",
      "version": 12,
      "changeset": 112920104,
      "user": "fayor",
      "uid": 743479,
      "tags": {
        "name": "Riesi",
        "place": "town",
        "population": "10854",
        "source": "Istat gennaio 2021"
      }
    },
    {
      "type": "node",
      "id": 67254394,
      "lat": 37.2648752,
      "lon": 14.6908487,
      "timestamp": "2021-10-24T18:31:21Z",
      "version": 13,
      "changeset": 112917215,
      "user": "fayor",
      "uid": 743479,
      "tags": {
        "name": "Mineo",
        "name:scn": "Minìu",
        "place": "village",
        "population": "4623",
        "source": "Istat gennaio 2021"
      }
    },
    {
      "type": "node",
      "id": 67254462,
      "lat": 37.388048,
      "lon": 14.692681,
      "timestamp": "2021-10-24T18:31:21Z",
      "version": 10,
      "changeset": 112917215,
      "user": "fayor",
      "uid": 743479,
      "tags": {
        "name": "Ramacca",
        "place": "town",
        "population": "10398",
        "source": "Istat gennaio 2021"
      }
    },
    {
      "type": "node",
      "id": 67254475,
      "lat": 37.2795627,
      "lon": 14.4260202,
      "timestamp": "2021-10-24T18:31:21Z",
      "version": 13,
      "changeset": 112917215,
      "user": "fayor",
      "uid": 743479,
      "tags": {
        "name": "San Michele di Ganzaria",
        "name:scn": "San Micheli di Ganzarìa",
        "place": "village",
        "population": "3062",
        "source": "Istat gennaio 2021"
      }
    },
    {
      "type": "node",
      "id": 67254558,
      "lat": 37.2146821,
      "lon": 14.6365417,
      "timestamp": "2021-10-24T18:31:21Z",
      "version": 15,
      "changeset": 112917215,
      "user": "fayor",
      "uid": 743479,
      "tags": {
        "name": "Grammichele",
        "name:scn": "Grammicheli",
        "place": "town",
        "population": "12773",
        "source": "Istat gennaio 2021"
      }
    },
    {
      "type": "node",
      "id": 67254572,
      "lat": 37.494173,
      "lon": 14.6497153,
      "timestamp": "2021-10-24T18:31:21Z",
      "version": 15,
      "changeset": 112917215,
      "user": "fayor",
      "uid": 743479,
      "tags": {
        "alt_name": "Castel di Judica",
        "alt_name:scn": "Castel di Jùdica",
        "name": "Castel di Iudica",
        "name:scn": "Jardineddi",
        "old_name": "Giardinelli",
        "place": "village",
        "population": "4373",
        "source": "Istat gennaio 2021"
      }
    },
    {
      "type": "node",
      "id": 67254633,
      "lat": 37.2372009,
      "lon": 14.5132023,
      "timestamp": "2021-10-24T18:31:21Z",
      "version": 15,
      "changeset": 112917215,
      "user": "fayor",
      "uid": 743479,
      "tags": {
        "heritage": "1",
        "heritage:operator": "whc",
        "name": "Caltagirone",
        "name:scn": "Cartaggiruni",
        "place": "town",
        "population": "35758",
        "source": "Istat gennaio 2021"
      }
    },
    {
      "type": "node",
      "id": 67254642,
      "lat": 37.4725561,
      "lon": 14.5325204,
      "timestamp": "2021-10-24T18:31:21Z",
      "version": 12,
      "changeset": 112917215,
      "user": "fayor",
      "uid": 743479,
      "tags": {
        "name": "Raddusa",
        "place": "village",
        "population": "2911",
        "source": "Istat gennaio 2021"
      }
    },
    {
      "type": "node",
      "id": 67254673,
      "lat": 37.3273551,
      "lon": 14.7453315,
      "timestamp": "2021-10-24T18:31:21Z",
      "version": 13,
      "changeset": 112917215,
      "user": "fayor",
      "uid": 743479,
      "tags": {
        "alt_name:scn": "Palaunia",
        "name": "Palagonia",
        "name:scn": "Palagùnia",
        "place": "town",
        "population": "16081",
        "source": "Istat gennaio 2021"
      }
    },
    {
      "type": "node",
      "id": 67254696,
      "lat": 37.324221,
      "lon": 14.4463939,
      "timestamp": "2021-10-24T18:31:21Z",
      "version": 16,
      "changeset": 112917215,
      "user": "fayor",
      "uid": 743479,
      "tags": {
        "alt_name": "Mirabbedda",
        "name": "Mirabella Imbaccari",
        "name:scn": "Mirabbeɖɖa",
        "old_name": "Imachara",
        "place": "village",
        "population": "4286",
        "source": "Istat gennaio 2021"
      }
    },
    {
      "type": "node",
      "id": 67254722,
      "lat": 37.1610157,
      "lon": 14.7484682,
      "timestamp": "2021-10-24T18:31:21Z",
      "version": 14,
      "changeset": 112917215,
      "user": "fayor",
      "uid": 743479,
      "tags": {
        "name": "Vizzini",
        "place": "village",
        "population": "5804",
        "source": "Istat gennaio 2021"
      }
    },
    {
      "type": "node",
      "id": 67254796,
      "lat": 37.2901188,
      "lon": 14.3659918,
      "timestamp": "2021-10-24T18:31:21Z",
      "version": 13,
      "changeset": 112917215,
      "user": "fayor",
      "uid": 743479,
      "tags": {
        "name": "San Cono",
        "name:scn": "Santu Conu",
        "place": "village",
        "population": "2526",
        "source": "Istat gennaio 2021"
      }
    },
    {
      "type": "node",
      "id": 67254819,
      "lat": 37.656151,
      "lon": 14.521575,
      "timestamp": "2021-10-24T20:04:35Z",
      "version": 10,
      "changeset": 112920104,
      "user": "fayor",
      "uid": 743479,
      "tags": {
        "name": "Agira",
        "name:scn": "Aggira",
        "place": "village",
        "population": "7799",
        "source": "Istat gennaio 2021"
      }
    },
    {
      "type": "node",
      "id": 67254822,
      "lat": 37.4954203,
      "lon": 14.390791,
      "timestamp": "2021-10-24T20:04:35Z",
      "version": 9,
      "changeset": 112920104,
      "user": "fayor",
      "uid": 743479,
      "tags": {
        "name": "Valguarnera Caropepe",
        "name:scn": "Carrapipi",
        "place": "village",
        "population": "7161",
        "source": "Istat gennaio 2021"
      }
    },
    {
      "type": "node",
      "id": 67254828,
      "lat": 37.5679714,
      "lon": 14.6918187,
      "timestamp": "2021-10-24T20:04:35Z",
      "version": 13,
      "changeset": 112920104,
      "user": "fayor",
      "uid": 743479,
      "tags": {
        "name": "Catenanuova",
        "name:scn": "Catinanova",
        "old_name": "Catena la Nuova",
        "place": "village",
        "population": "4578",
        "source": "Istat gennaio 2021"
      }
    },
    {
      "type": "node",
      "id": 67254835,
      "lat": 37.6279049,
      "lon": 14.4238862,
      "timestamp": "2021-10-24T20:04:35Z",
      "version": 11,
      "changeset": 112920104,
      "user": "fayor",
      "uid": 743479,
      "tags": {
        "alt_name:la": "Asaru",
        "name": "Assoro",
        "name:scn": "Assoru",
        "place": "village",
        "population": "4906",
        "source": "Istat gennaio 2021"
      }
    },
    {
      "type": "node",
      "id": 67254842,
      "lat": 37.7103507,
      "lon": 14.5356897,
      "timestamp": "2021-10-24T20:04:35Z",
      "version": 10,
      "changeset": 112920104,
      "user": "fayor",
      "uid": 743479,
      "tags": {
        "name": "Gagliano Castelferrato",
        "name:scn": "Agghianu",
        "place": "village",
        "population": "3413",
        "source": "Istat gennaio 2021"
      }
    },
    {
      "type": "node",
      "id": 67254861,
      "lat": 37.6392121,
      "lon": 14.3924267,
      "timestamp": "2021-10-24T20:04:35Z",
      "version": 11,
      "changeset": 112920104,
      "user": "fayor",
      "uid": 743479,
      "tags": {
        "name": "Leonforte",
        "name:scn": "Liunforti",
        "place": "town",
        "population": "12679",
        "source": "Istat gennaio 2021"
      }
    },
    {
      "type": "node",
      "id": 67254867,
      "lat": 37.4154209,
      "lon": 14.445276,
      "timestamp": "2021-10-24T20:04:35Z",
      "version": 10,
      "changeset": 112920104,
      "user": "fayor",
      "uid": 743479,
      "tags": {
        "alt_name:scn": "Aidò",
        "name": "Aidone",
        "name:scn": "Aidungh",
        "old_name": "Aidungh, Dadungh",
        "place": "village",
        "population": "4487",
        "source": "Istat gennaio 2021"
      }
    },
    {
      "type": "node",
      "id": 67254878,
      "lat": 37.5901914,
      "lon": 14.2719716,
      "timestamp": "2021-10-24T20:04:35Z",
      "version": 12,
      "changeset": 112920104,
      "user": "fayor",
      "uid": 743479,
      "tags": {
        "name": "Calascibetta",
        "name:it": "Calascibetta",
        "name:scn": "Calatascibetta",
        "place": "village",
        "population": "4158",
        "source": "Istat gennaio 2021"
      }
    },
    {
      "type": "node",
      "id": 67254886,
      "lat": 37.3728434,
      "lon": 14.2033133,
      "timestamp": "2021-10-24T20:04:35Z",
      "version": 8,
      "changeset": 112920104,
      "user": "fayor",
      "uid": 743479,
      "tags": {
        "name": "Barrafranca",
        "place": "town",
        "population": "11947",
        "source": "Istat gennaio 2021"
      }
    },
    {
      "type": "node",
      "id": 67254893,
      "lat": 37.6552774,
      "lon": 14.4494678,
      "timestamp": "2021-10-24T20:04:35Z",
      "version": 10,
      "changeset": 112920104,
      "user": "fayor",
      "uid": 743479,
      "tags": {
        "name": "Nissoria",
        "name:scn": "Nissurìa",
        "place": "village",
        "population": "2884",
        "source": "Istat gennaio 2021"
      }
    },
    {
      "type": "node",
      "id": 67254900,
      "lat": 37.622952,
      "lon": 14.739079,
      "timestamp": "2021-11-30T09:51:50Z",
      "version": 12,
      "changeset": 114395145,
      "user": "Sergey Kozyr",
      "uid": 195702,
      "tags": {
        "name": "Centuripe",
        "name:en": "Centuripe",
        "name:ru": "Чентурипе",
        "name:scn": "Centorbi",
        "name:uk": "Чентурипе",
        "old_name": "Kentoripa",
        "place": "village",
        "population": "5183",
        "source": "Istat gennaio 2021"
      }
    },
    {
      "type": "node",
      "id": 67254910,
      "lat": 37.385946,
      "lon": 14.367174,
      "timestamp": "2021-10-24T20:04:35Z",
      "version": 9,
      "changeset": 112920104,
      "user": "fayor",
      "uid": 743479,
      "tags": {
        "alt_name:scn": "Ciazza",
        "name": "Piazza Armerina",
        "name:scn": "Piazza",
        "place": "town",
        "population": "20842",
        "source": "Istat gennaio 2021"
      }
    },
    {
      "type": "node",
      "id": 67254991,
      "lat": 37.4215639,
      "lon": 14.1370261,
      "timestamp": "2021-10-24T20:04:35Z",
      "version": 11,
      "changeset": 112920104,
      "user": "fayor",
      "uid": 743479,
      "tags": {
        "name": "Pietraperzia",
        "name:ar": "بيترابيرزيا",
        "name:scn": "Petrapirzia",
        "place": "village",
        "population": "6472",
        "source": "Istat gennaio 2021"
      }
    },
    {
      "type": "node",
      "id": 67255016,
      "lat": 37.587017,
      "lon": 14.1735887,
      "timestamp": "2021-10-24T20:04:35Z",
      "version": 8,
      "changeset": 112920104,
      "user": "fayor",
      "uid": 743479,
      "tags": {
        "name": "Villarosa",
        "place": "village",
        "population": "4448",
        "source": "Istat gennaio 2021"
      }
    },
    {
      "type": "node",
      "id": 67256716,
      "lat": 37.6934756,
      "lon": 14.114651,
      "timestamp": "2021-10-24T20:38:27Z",
      "version": 9,
      "changeset": 112921198,
      "user": "fayor",
      "uid": 743479,
      "tags": {
        "name": "Alimena",
        "place": "village",
        "population": "1871",
        "source": "Istat gennaio 2021"
      }
    },
    {
      "type": "node",
      "id": 302860362,
      "lat": 37.3401399,
      "lon": 14.388863,
      "timestamp": "2008-10-12T09:57:04Z",
      "version": 3,
      "changeset": 284285,
      "user": "MegaTen",
      "uid": 29371,
      "tags": {
        "created_by": "Potlatch 0.10d",
        "name": "Agriturisma Casale",
        "tourism": "camp_site"
      }
    },
    {
      "type": "node",
      "id": 1177652438,
      "lat": 37.5615707,
      "lon": 14.4236106,
      "timestamp": "2021-08-08T10:19:48Z",
      "version": 4,
      "changeset": 109339235,
      "user": "aldoct",
      "uid": 923271,
      "tags": {
        "ele": "332.5",
        "mountain_pass": "yes",
        "name": "Portella Catania",
        "natural": "saddle"
      }
    },
    {
      "type": "node",
      "id": 1397448120,
      "lat": 37.229301,
      "lon": 14.5260514,
      "timestamp": "2022-02-13T19:40:52Z",
      "version": 4,
      "changeset": 117367016,
      "user": "fayor",
      "uid": 743479,
      "tags": {
        "name": "Mercatino Alimentare",
        "shop": "supermarket"
      }
    },
    {
      "type": "node",
      "id": 1397448551,
      "lat": 37.2302578,
      "lon": 14.5274783,
      "timestamp": "2022-02-13T19:40:52Z",
      "version": 4,
      "changeset": 117367016,
      "user": "fayor",
      "uid": 743479,
      "tags": {
        "name": "Sidis",
        "shop": "supermarket"
      }
    },
    {
      "type": "node",
      "id": 1422999093,
      "lat": 37.1617705,
      "lon": 14.7487635,
      "timestamp": "2011-09-04T13:13:55Z",
      "version": 1,
      "changeset": 9208777,
      "user": "Arlas",
      "uid": 354343,
      "tags": {
        "amenity": "drinking_water"
      }
    },
    {
      "type": "node",
      "id": 1422999305,
      "lat": 37.1625384,
      "lon": 14.7501549,
      "timestamp": "2016-07-01T00:48:31Z",
      "version": 2,
      "changeset": 40406500,
      "user": "fayor",
      "uid": 743479,
      "tags": {
        "amenity": "drinking_water"
      }
    },
    {
      "type": "node",
      "id": 1644924199,
      "lat": 37.4988749,
      "lon": 14.0904894,
      "timestamp": "2018-02-24T19:18:42Z",
      "version": 6,
      "changeset": 56643626,
      "user": "fayor",
      "uid": 743479,
      "tags": {
        "alt_name": "Terrapelata",
        "name": "Villaggio Santa Barbara",
        "place": "village",
        "population": "1958",
        "wikidata": "Q2615133",
        "wikipedia": "it:Villaggio Santa Barbara"
      }
    },
    {
      "type": "node",
      "id": 1725436470,
      "lat": 37.3680417,
      "lon": 14.4843627,
      "timestamp": "2019-10-25T20:32:20Z",
      "version": 7,
      "changeset": 76227931,
      "user": "aldoct",
      "uid": 923271,
      "tags": {
        "name": "Borgo Baccarato",
        "place": "hamlet",
        "wikidata": "Q3642483",
        "wikipedia": "it:Borgo Baccarato"
      }
    },
    {
      "type": "node",
      "id": 1752770970,
      "lat": 37.5069225,
      "lon": 14.0880989,
      "timestamp": "2017-05-07T12:39:10Z",
      "version": 4,
      "changeset": 48473744,
      "user": "aldoct",
      "uid": 923271,
      "tags": {
        "ele": "552",
        "name": "Portella San Michele",
        "natural": "saddle"
      }
    },
    {
      "type": "node",
      "id": 1770569427,
      "lat": 37.3890013,
      "lon": 14.3710935,
      "timestamp": "2022-02-13T19:40:52Z",
      "version": 3,
      "changeset": 117367016,
      "user": "fayor",
      "uid": 743479,
      "tags": {
        "name": "Conrad City",
        "shop": "supermarket"
      }
    },
    {
      "type": "node",
      "id": 1770569448,
      "lat": 37.3872685,
      "lon": 14.369747,
      "timestamp": "2022-02-13T19:40:52Z",
      "version": 4,
      "changeset": 117367016,
      "user": "fayor",
      "uid": 743479,
      "tags": {
        "addr:city": "Piazza Armerina",
        "addr:postcode": "94015",
        "brand": "Sisa",
        "brand:wikidata": "Q3943661",
        "brand:wikipedia": "it:SISA (azienda)",
        "name": "Sisa",
        "phone": "+39 0935 685482",
        "shop": "supermarket"
      }
    },
    {
      "type": "node",
      "id": 1819446719,
      "lat": 37.5853289,
      "lon": 14.1790062,
      "timestamp": "2021-09-28T12:05:30Z",
      "version": 2,
      "changeset": 111815893,
      "user": "pigreco",
      "uid": 236130,
      "tags": {
        "access": "yes",
        "amenity": "drinking_water",
        "wheelchair": "limited"
      }
    },
    {
      "type": "node",
      "id": 1819817420,
      "lat": 37.5796579,
      "lon": 14.1851371,
      "timestamp": "2021-09-28T12:20:03Z",
      "version": 2,
      "changeset": 111816636,
      "user": "pigreco",
      "uid": 236130,
      "tags": {
        "access": "yes",
        "amenity": "drinking_water",
        "wheelchair": "limited"
      }
    },
    {
      "type": "node",
      "id": 1889684405,
      "lat": 37.5671943,
      "lon": 14.2872826,
      "timestamp": "2019-11-25T15:10:57Z",
      "version": 2,
      "changeset": 77531361,
      "user": "Dieix",
      "uid": 10496551,
      "tags": {
        "amenity": "drinking_water",
        "wheelchair": "yes"
      }
    },
    {
      "type": "node",
      "id": 1889684437,
      "lat": 37.5668669,
      "lon": 14.2873577,
      "timestamp": "2012-08-30T11:28:42Z",
      "version": 1,
      "changeset": 12916272,
      "user": "sbirsato",
      "uid": 804652,
      "tags": {
        "amenity": "drinking_water"
      }
    },
    {
      "type": "node",
      "id": 1896174207,
      "lat": 37.4968247,
      "lon": 14.2003116,
      "timestamp": "2018-01-01T22:54:01Z",
      "version": 2,
      "changeset": 55088217,
      "user": "fayor",
      "uid": 743479,
      "tags": {
        "name": "Borgo Cascino",
        "place": "hamlet",
        "population": "73"
      }
    },
    {
      "type": "node",
      "id": 1902172819,
      "lat": 37.4635043,
      "lon": 14.3976743,
      "timestamp": "2017-05-06T15:25:54Z",
      "version": 4,
      "changeset": 48455004,
      "user": "aldoct",
      "uid": 923271,
      "tags": {
        "ele": "889",
        "name": "Monte Rossomanno",
        "natural": "peak",
        "wikidata": "Q3861925",
        "wikipedia": "it:Monte Rossomanno"
      }
    },
    {
      "type": "node",
      "id": 1971893438,
      "lat": 37.6825583,
      "lon": 14.2329904,
      "timestamp": "2019-09-16T00:14:45Z",
      "version": 3,
      "changeset": 74508368,
      "user": "fayor",
      "uid": 743479,
      "tags": {
        "name": "Cacchiamo",
        "place": "hamlet",
        "population": "152"
      }
    },
    {
      "type": "node",
      "id": 1972316269,
      "lat": 37.6917729,
      "lon": 14.2518791,
      "timestamp": "2018-02-24T19:18:43Z",
      "version": 3,
      "changeset": 56643626,
      "user": "fayor",
      "uid": 743479,
      "tags": {
        "alt_name": "Borgo Milletarì",
        "name": "Milletarì",
        "place": "hamlet",
        "population": "18"
      }
    },
    {
      "type": "node",
      "id": 1972316271,
      "lat": 37.692026,
      "lon": 14.2610326,
      "timestamp": "2018-01-01T22:54:01Z",
      "version": 5,
      "changeset": 55088217,
      "user": "fayor",
      "uid": 743479,
      "tags": {
        "name": "Villadoro",
        "old_name": "Passarello",
        "place": "village",
        "population": "609",
        "wikidata": "Q2535246",
        "wikipedia": "it:Villadoro"
      }
    },
    {
      "type": "node",
      "id": 1975253989,
      "lat": 37.629427,
      "lon": 14.1930463,
      "timestamp": "2021-01-15T08:11:17Z",
      "version": 10,
      "changeset": 97542183,
      "user": "dgitto",
      "uid": 554973,
      "tags": {
        "name": "Villapriolo",
        "place": "village",
        "population": "580",
        "wikidata": "Q2188209",
        "wikipedia": "it:Villapriolo"
      }
    },
    {
      "type": "node",
      "id": 2000886341,
      "lat": 37.5293446,
      "lon": 14.5761054,
      "timestamp": "2017-03-13T23:26:54Z",
      "version": 7,
      "changeset": 46826567,
      "user": "fayor",
      "uid": 743479,
      "tags": {
        "name": "Libertinia",
        "place": "hamlet",
        "population": "124",
        "wikidata": "Q2369628",
        "wikipedia": "it:Libertinia"
      }
    },
    {
      "type": "node",
      "id": 2008044919,
      "lat": 37.5036588,
      "lon": 14.6691516,
      "timestamp": "2012-11-11T10:18:59Z",
      "version": 1,
      "changeset": 13830525,
      "user": "aldoct",
      "uid": 923271,
      "tags": {
        "amenity": "drinking_water"
      }
    },
    {
      "type": "node",
      "id": 2008140961,
      "lat": 37.5045178,
      "lon": 14.6384585,
      "timestamp": "2017-03-11T12:57:37Z",
      "version": 5,
      "changeset": 46761867,
      "user": "sbiribizio",
      "uid": 354284,
      "tags": {
        "ele": "765",
        "name": "Monte Iudica",
        "natural": "peak",
        "wikidata": "Q3861645",
        "wikipedia": "it:Monte Iudica"
      }
    },
    {
      "type": "node",
      "id": 2048496049,
      "lat": 37.6220191,
      "lon": 14.7337356,
      "timestamp": "2015-10-20T08:53:48Z",
      "version": 2,
      "changeset": 34750281,
      "user": "aldoct",
      "uid": 923271,
      "tags": {
        "amenity": "drinking_water"
      }
    },
    {
      "type": "node",
      "id": 2152853728,
      "lat": 37.5552849,
      "lon": 14.1673389,
      "timestamp": "2013-02-13T06:43:28Z",
      "version": 1,
      "changeset": 15014433,
      "user": "aldoct",
      "uid": 923271,
      "tags": {
        "amenity": "drinking_water"
      }
    },
    {
      "type": "node",
      "id": 2194180039,
      "lat": 37.511947,
      "lon": 14.2728464,
      "timestamp": "2013-03-10T12:48:03Z",
      "version": 1,
      "changeset": 15314389,
      "user": "bebbi",
      "uid": 565471,
      "tags": {
        "name": "Contrada Risicalla",
        "place": "hamlet"
      }
    },
    {
      "type": "node",
      "id": 2209950022,
      "lat": 37.6535467,
      "lon": 14.639636,
      "timestamp": "2021-10-24T20:04:35Z",
      "version": 10,
      "changeset": 112920104,
      "user": "fayor",
      "uid": 743479,
      "tags": {
        "name": "Regalbuto",
        "name:scn": "Regarbutu",
        "old_name": "Rahal Abbud",
        "place": "village",
        "population": "6814",
        "source": "Istat gennaio 2021"
      }
    },
    {
      "type": "node",
      "id": 2229004888,
      "lat": 37.5230681,
      "lon": 14.3055664,
      "timestamp": "2018-01-01T22:54:02Z",
      "version": 5,
      "changeset": 55088217,
      "user": "fayor",
      "uid": 743479,
      "tags": {
        "name": "Pergusa",
        "place": "village",
        "population": "953",
        "wikidata": "Q2701329",
        "wikipedia": "it:Villaggio Pergusa"
      }
    },
    {
      "type": "node",
      "id": 2233869458,
      "lat": 37.1609654,
      "lon": 14.7109316,
      "timestamp": "2013-03-29T08:36:55Z",
      "version": 1,
      "changeset": 15535060,
      "user": "eljusto",
      "uid": 965298,
      "tags": {
        "amenity": "drinking_water"
      }
    },
    {
      "type": "node",
      "id": 2242181797,
      "lat": 37.4826305,
      "lon": 14.6430279,
      "timestamp": "2017-03-13T23:26:54Z",
      "version": 2,
      "changeset": 46826567,
      "user": "fayor",
      "uid": 743479,
      "tags": {
        "name": "Serro Calderaro",
        "place": "hamlet",
        "population": "45"
      }
    },
    {
      "type": "node",
      "id": 2242181800,
      "lat": 37.476528,
      "lon": 14.6520167,
      "timestamp": "2017-03-13T23:26:54Z",
      "version": 3,
      "changeset": 46826567,
      "user": "fayor",
      "uid": 743479,
      "tags": {
        "name": "Giumarra",
        "place": "village",
        "population": "971"
      }
    },
    {
      "type": "node",
      "id": 2242181801,
      "lat": 37.467202,
      "lon": 14.6448733,
      "timestamp": "2017-03-13T23:26:54Z",
      "version": 2,
      "changeset": 46826567,
      "user": "fayor",
      "uid": 743479,
      "tags": {
        "name": "San Giuseppe",
        "place": "hamlet",
        "population": "70"
      }
    },
    {
      "type": "node",
      "id": 2242181806,
      "lat": 37.4735883,
      "lon": 14.6707834,
      "timestamp": "2017-03-13T23:26:55Z",
      "version": 2,
      "changeset": 46826567,
      "user": "fayor",
      "uid": 743479,
      "tags": {
        "name": "Cinquegrana",
        "place": "village",
        "population": "676"
      }
    },
    {
      "type": "node",
      "id": 2242181809,
      "lat": 37.4958086,
      "lon": 14.6338869,
      "timestamp": "2017-04-13T12:11:58Z",
      "version": 5,
      "changeset": 47740594,
      "user": "fayor",
      "uid": 743479,
      "tags": {
        "alt_name": "Carrubo",
        "name": "Carrubbo",
        "place": "village",
        "population": "688",
        "wikidata": "Q3660787",
        "wikipedia": "it:Carrubbo"
      }
    },
    {
      "type": "node",
      "id": 2242181814,
      "lat": 37.4881578,
      "lon": 14.7106867,
      "timestamp": "2018-04-15T07:43:42Z",
      "version": 4,
      "changeset": 58104305,
      "user": "aldoct",
      "uid": 923271,
      "tags": {
        "name": "Borgo Franchetto",
        "place": "hamlet",
        "population": "67"
      }
    },
    {
      "type": "node",
      "id": 2242181817,
      "lat": 37.5002859,
      "lon": 14.6266128,
      "timestamp": "2017-03-13T23:26:55Z",
      "version": 2,
      "changeset": 46826567,
      "user": "fayor",
      "uid": 743479,
      "tags": {
        "name": "Cavalera",
        "place": "hamlet",
        "population": "140"
      }
    },
    {
      "type": "node",
      "id": 2319379061,
      "lat": 37.215946,
      "lon": 14.5179477,
      "timestamp": "2022-02-13T19:40:53Z",
      "version": 4,
      "changeset": 117367016,
      "user": "fayor",
      "uid": 743479,
      "tags": {
        "name": "AVH",
        "shop": "supermarket"
      }
    },
    {
      "type": "node",
      "id": 2339352365,
      "lat": 37.2230892,
      "lon": 14.5262595,
      "timestamp": "2022-02-13T19:40:53Z",
      "version": 4,
      "changeset": 117367016,
      "user": "fayor",
      "uid": 743479,
      "tags": {
        "name": "Sigma",
        "shop": "supermarket"
      }
    },
    {
      "type": "node",
      "id": 2339352366,
      "lat": 37.2174903,
      "lon": 14.5285438,
      "timestamp": "2022-02-13T19:40:53Z",
      "version": 4,
      "changeset": 117367016,
      "user": "fayor",
      "uid": 743479,
      "tags": {
        "name": "Decò",
        "shop": "supermarket"
      }
    },
    {
      "type": "node",
      "id": 2351356117,
      "lat": 37.3687443,
      "lon": 14.4493807,
      "timestamp": "2014-11-13T09:39:08Z",
      "version": 3,
      "changeset": 26752192,
      "user": "FrViPofm",
      "uid": 107257,
      "tags": {
        "amenity": "drinking_water",
        "source": "gps"
      }
    },
    {
      "type": "node",
      "id": 2351361425,
      "lat": 37.3819147,
      "lon": 14.4571082,
      "timestamp": "2014-11-13T09:39:08Z",
      "version": 3,
      "changeset": 26752192,
      "user": "FrViPofm",
      "uid": 107257,
      "tags": {
        "amenity": "drinking_water",
        "source": "gps"
      }
    },
    {
      "type": "node",
      "id": 2353266126,
      "lat": 37.2237049,
      "lon": 14.5169252,
      "timestamp": "2013-06-20T09:56:37Z",
      "version": 1,
      "changeset": 16627610,
      "user": "lince95",
      "uid": 1506180,
      "tags": {
        "amenity": "drinking_water"
      }
    },
    {
      "type": "node",
      "id": 2353266128,
      "lat": 37.2190658,
      "lon": 14.5263129,
      "timestamp": "2013-06-20T09:56:37Z",
      "version": 1,
      "changeset": 16627610,
      "user": "lince95",
      "uid": 1506180,
      "tags": {
        "amenity": "drinking_water"
      }
    },
    {
      "type": "node",
      "id": 2469901901,
      "lat": 37.1996684,
      "lon": 14.6322453,
      "timestamp": "2017-02-03T23:32:46Z",
      "version": 4,
      "changeset": 45793510,
      "user": "fayor",
      "uid": 743479,
      "tags": {
        "name": "Favarella",
        "place": "hamlet"
      }
    },
    {
      "type": "node",
      "id": 2474210896,
      "lat": 37.3415994,
      "lon": 14.6261359,
      "timestamp": "2017-03-13T23:26:55Z",
      "version": 5,
      "changeset": 46826567,
      "user": "fayor",
      "uid": 743479,
      "tags": {
        "name": "Borgo Pietro Lupo",
        "place": "hamlet",
        "population": "18",
        "wikidata": "Q2694971",
        "wikipedia": "it:Borgo Pietro Lupo"
      }
    },
    {
      "type": "node",
      "id": 2497411912,
      "lat": 37.356661,
      "lon": 14.0990589,
      "timestamp": "2013-10-15T14:26:43Z",
      "version": 1,
      "changeset": 18369800,
      "user": "aldoct",
      "uid": 923271,
      "tags": {
        "name": "Borgo Manda Tonda",
        "place": "hamlet"
      }
    },
    {
      "type": "node",
      "id": 2497535170,
      "lat": 37.3397275,
      "lon": 14.1238704,
      "timestamp": "2014-04-06T17:33:05Z",
      "version": 2,
      "changeset": 21536846,
      "user": "aldoct",
      "uid": 923271,
      "tags": {
        "name": "Borgo Braemi",
        "place": "hamlet"
      }
    },
    {
      "type": "node",
      "id": 2546169899,
      "lat": 37.7184452,
      "lon": 14.1087462,
      "timestamp": "2018-03-25T21:46:09Z",
      "version": 2,
      "changeset": 57518667,
      "user": "aldoct",
      "uid": 923271,
      "tags": {
        "name": "Vaccarizzo",
        "place": "hamlet"
      }
    },
    {
      "type": "node",
      "id": 2546935070,
      "lat": 37.166984,
      "lon": 14.281635,
      "timestamp": "2021-09-04T13:42:44Z",
      "version": 4,
      "changeset": 110717248,
      "user": "procuste",
      "uid": 1211315,
      "tags": {
        "alt_name": "Borgo Emanuele Guttadauro",
        "name": "Borgo Guttadauro",
        "place": "hamlet"
      }
    },
    {
      "type": "node",
      "id": 2551144989,
      "lat": 37.4671291,
      "lon": 14.6317003,
      "timestamp": "2017-03-13T23:26:55Z",
      "version": 2,
      "changeset": 46826567,
      "user": "fayor",
      "uid": 743479,
      "tags": {
        "name": "Borgo Ficuzza",
        "place": "hamlet"
      }
    },
    {
      "type": "node",
      "id": 2588845663,
      "lat": 37.2966063,
      "lon": 14.4415502,
      "timestamp": "2013-12-21T10:36:00Z",
      "version": 1,
      "changeset": 19563833,
      "user": "aldoct",
      "uid": 923271,
      "tags": {
        "amenity": "drinking_water"
      }
    },
    {
      "type": "node",
      "id": 2590098945,
      "lat": 37.4725303,
      "lon": 14.3424742,
      "timestamp": "2013-12-22T10:40:29Z",
      "version": 1,
      "changeset": 19579154,
      "user": "aldoct",
      "uid": 923271,
      "tags": {
        "amenity": "drinking_water"
      }
    },
    {
      "type": "node",
      "id": 2649875838,
      "lat": 37.5065752,
      "lon": 14.5902004,
      "timestamp": "2014-02-02T15:12:30Z",
      "version": 1,
      "changeset": 20335701,
      "user": "aldoct",
      "uid": 923271,
      "tags": {
        "name": "Borgo E.S.A.",
        "place": "hamlet"
      }
    },
    {
      "type": "node",
      "id": 2651976535,
      "lat": 37.6206239,
      "lon": 14.7412325,
      "timestamp": "2014-02-03T15:08:42Z",
      "version": 1,
      "changeset": 20353995,
      "user": "Arlas",
      "uid": 354343,
      "tags": {
        "amenity": "drinking_water"
      }
    },
    {
      "type": "node",
      "id": 2652541502,
      "lat": 37.6184501,
      "lon": 14.7405222,
      "timestamp": "2014-02-03T20:53:44Z",
      "version": 1,
      "changeset": 20360697,
      "user": "Arlas",
      "uid": 354343,
      "tags": {
        "amenity": "drinking_water"
      }
    },
    {
      "type": "node",
      "id": 2670034473,
      "lat": 37.4969324,
      "lon": 14.7500204,
      "timestamp": "2017-03-11T12:57:46Z",
      "version": 4,
      "changeset": 46761867,
      "user": "sbiribizio",
      "uid": 354284,
      "tags": {
        "ele": "301.9",
        "name": "Monte Turcisi",
        "natural": "peak",
        "wikidata": "Q3862096",
        "wikipedia": "it:Monte Turcisi"
      }
    },
    {
      "type": "node",
      "id": 2670034477,
      "lat": 37.5080461,
      "lon": 14.7095927,
      "timestamp": "2018-04-15T05:40:34Z",
      "version": 3,
      "changeset": 58102742,
      "user": "aldoct",
      "uid": 923271,
      "tags": {
        "name": "San Giovanni Bellone",
        "place": "hamlet"
      }
    },
    {
      "type": "node",
      "id": 2739574365,
      "lat": 37.2775488,
      "lon": 14.0952444,
      "timestamp": "2014-04-20T11:10:57Z",
      "version": 2,
      "changeset": 21813991,
      "user": "aldoct",
      "uid": 923271,
      "tags": {
        "amenity": "drinking_water"
      }
    },
    {
      "type": "node",
      "id": 2795065795,
      "lat": 37.4689651,
      "lon": 14.3496091,
      "timestamp": "2019-11-28T07:39:55Z",
      "version": 3,
      "changeset": 77666813,
      "user": "aldoct",
      "uid": 923271,
      "tags": {
        "ele": "745",
        "mountain_pass": "yes",
        "name": "Portella Grottacalda",
        "natural": "saddle"
      }
    },
    {
      "type": "node",
      "id": 2811247007,
      "lat": 37.4696861,
      "lon": 14.3209219,
      "timestamp": "2019-11-28T09:00:09Z",
      "version": 2,
      "changeset": 77671336,
      "user": "aldoct",
      "uid": 923271,
      "tags": {
        "ele": "746",
        "mountain_pass": "yes",
        "name": "Portella Farina",
        "natural": "saddle"
      }
    },
    {
      "type": "node",
      "id": 2815572150,
      "lat": 37.3302633,
      "lon": 14.6976167,
      "timestamp": "2014-04-25T12:55:40Z",
      "version": 1,
      "changeset": 21930592,
      "user": "gmarzio",
      "uid": 107284,
      "tags": {
        "natural": "cave_entrance"
      }
    },
    {
      "type": "node",
      "id": 3098884054,
      "lat": 37.6588942,
      "lon": 14.5166657,
      "timestamp": "2022-02-13T19:40:54Z",
      "version": 3,
      "changeset": 117367016,
      "user": "fayor",
      "uid": 743479,
      "tags": {
        "name": "Deco",
        "shop": "supermarket"
      }
    },
    {
      "type": "node",
      "id": 3179055922,
      "lat": 37.1649532,
      "lon": 14.7512198,
      "timestamp": "2019-07-05T15:48:36Z",
      "version": 4,
      "changeset": 71937441,
      "user": "aldoct",
      "uid": 923271,
      "tags": {
        "name": "Cunzirìa",
        "place": "hamlet",
        "wikidata": "Q13195946",
        "wikipedia": "it:Cunziria"
      }
    },
    {
      "type": "node",
      "id": 3519997556,
      "lat": 37.2216871,
      "lon": 14.6383372,
      "timestamp": "2021-01-27T04:09:25Z",
      "version": 2,
      "changeset": 98194303,
      "user": "fayor",
      "uid": 743479,
      "tags": {
        "amenity": "drinking_water"
      }
    },
    {
      "type": "node",
      "id": 3878541066,
      "lat": 37.640351,
      "lon": 14.4685021,
      "timestamp": "2018-01-01T22:54:02Z",
      "version": 2,
      "changeset": 55088217,
      "user": "fayor",
      "uid": 743479,
      "tags": {
        "name": "San Giorgio",
        "place": "village",
        "population": "836"
      }
    },
    {
      "type": "node",
      "id": 3882320405,
      "lat": 37.6011787,
      "lon": 14.4262261,
      "timestamp": "2015-12-07T19:18:22Z",
      "version": 1,
      "changeset": 35813390,
      "user": "aldoct",
      "uid": 923271,
      "tags": {
        "amenity": "drinking_water"
      }
    },
    {
      "type": "node",
      "id": 3882320407,
      "lat": 37.6067023,
      "lon": 14.4215156,
      "timestamp": "2020-05-15T09:55:13Z",
      "version": 3,
      "changeset": 85252297,
      "user": "aldoct",
      "uid": 923271,
      "tags": {
        "amenity": "drinking_water"
      }
    },
    {
      "type": "node",
      "id": 3882418481,
      "lat": 37.5974945,
      "lon": 14.4260242,
      "timestamp": "2020-05-15T09:55:13Z",
      "version": 3,
      "changeset": 85252297,
      "user": "aldoct",
      "uid": 923271,
      "tags": {
        "amenity": "drinking_water"
      }
    },
    {
      "type": "node",
      "id": 3914498833,
      "lat": 37.2670092,
      "lon": 14.4419952,
      "timestamp": "2020-07-27T14:47:37Z",
      "version": 3,
      "changeset": 88571954,
      "user": "aldoct",
      "uid": 923271,
      "tags": {
        "ele": "761.7",
        "name": "Monte della Ganzaria",
        "natural": "peak",
        "wikidata": "Q3861071",
        "wikipedia": "it:Monte della Ganzaria"
      }
    },
    {
      "type": "node",
      "id": 3988482439,
      "lat": 37.3411864,
      "lon": 14.6273197,
      "timestamp": "2016-02-04T18:06:22Z",
      "version": 1,
      "changeset": 37003889,
      "user": "aldoct",
      "uid": 923271,
      "tags": {
        "amenity": "drinking_water"
      }
    },
    {
      "type": "node",
      "id": 4090950496,
      "lat": 37.5790647,
      "lon": 14.284019,
      "timestamp": "2022-02-13T19:40:55Z",
      "version": 4,
      "changeset": 117367016,
      "user": "fayor",
      "uid": 743479,
      "tags": {
        "name": "EURO Spin",
        "shop": "supermarket"
      }
    },
    {
      "type": "node",
      "id": 4169366162,
      "lat": 37.2787229,
      "lon": 14.7059508,
      "timestamp": "2017-03-11T12:57:59Z",
      "version": 3,
      "changeset": 46761867,
      "user": "sbiribizio",
      "uid": 354284,
      "tags": {
        "name": "Grotta di Sant'Agrippina",
        "natural": "cave_entrance",
        "wikidata": "Q3777095",
        "wikipedia": "it:Grotta di Sant'Agrippina"
      }
    },
    {
      "type": "node",
      "id": 4512355562,
      "lat": 37.4562174,
      "lon": 14.3477595,
      "timestamp": "2016-11-20T16:57:36Z",
      "version": 1,
      "changeset": 43826485,
      "user": "aldoct",
      "uid": 923271,
      "tags": {
        "name": "Sorgente Furma la Cara",
        "natural": "spring"
      }
    },
    {
      "type": "node",
      "id": 4548313284,
      "lat": 37.1888332,
      "lon": 14.162759,
      "timestamp": "2016-12-10T18:32:20Z",
      "version": 1,
      "changeset": 44309175,
      "user": "aldoct",
      "uid": 923271,
      "tags": {
        "amenity": "drinking_water"
      }
    },
    {
      "type": "node",
      "id": 4733060066,
      "lat": 37.1810712,
      "lon": 14.7301437,
      "timestamp": "2017-03-13T23:26:46Z",
      "version": 1,
      "changeset": 46826567,
      "user": "fayor",
      "uid": 743479,
      "tags": {
        "name": "Vizzini Scalo",
        "place": "hamlet",
        "population": "22"
      }
    },
    {
      "type": "node",
      "id": 4746050750,
      "lat": 37.6191323,
      "lon": 14.4188473,
      "timestamp": "2018-07-30T16:43:47Z",
      "version": 3,
      "changeset": 61201514,
      "user": "aldoct",
      "uid": 923271,
      "tags": {
        "amenity": "drinking_water"
      }
    },
    {
      "type": "node",
      "id": 4752648659,
      "lat": 37.2984279,
      "lon": 14.3063299,
      "timestamp": "2017-03-24T11:31:14Z",
      "version": 1,
      "changeset": 47122175,
      "user": "aldoct",
      "uid": 923271,
      "tags": {
        "name": "Sorgente Italia",
        "natural": "spring"
      }
    },
    {
      "type": "node",
      "id": 4753012461,
      "lat": 37.271979,
      "lon": 14.2652244,
      "timestamp": "2019-02-22T18:26:53Z",
      "version": 3,
      "changeset": 67475823,
      "user": "Edward",
      "uid": 364,
      "tags": {
        "ele": "638.0",
        "name": "Monte Formaggio",
        "natural": "peak",
        "wikidata": "Q3861550"
      }
    },
    {
      "type": "node",
      "id": 4774070140,
      "lat": 37.3873708,
      "lon": 14.2115365,
      "timestamp": "2022-02-13T19:40:55Z",
      "version": 3,
      "changeset": 117367016,
      "user": "fayor",
      "uid": 743479,
      "tags": {
        "name": "Eurospin",
        "shop": "supermarket"
      }
    },
    {
      "type": "node",
      "id": 4777062963,
      "lat": 37.5183097,
      "lon": 14.5984267,
      "timestamp": "2017-04-05T15:31:38Z",
      "version": 1,
      "changeset": 47480085,
      "user": "aldoct",
      "uid": 923271,
      "tags": {
        "name": "Mandre Bianche",
        "place": "hamlet"
      }
    },
    {
      "type": "node",
      "id": 4876158635,
      "lat": 37.3201772,
      "lon": 14.4417536,
      "timestamp": "2021-06-22T14:00:51Z",
      "version": 2,
      "changeset": 106781464,
      "user": "dgitto",
      "uid": 554973,
      "tags": {
        "name": "Gatta",
        "place": "hamlet"
      }
    },
    {
      "type": "node",
      "id": 4961155304,
      "lat": 37.522999,
      "lon": 14.3040582,
      "timestamp": "2022-02-13T19:40:56Z",
      "version": 3,
      "changeset": 117367016,
      "user": "fayor",
      "uid": 743479,
      "tags": {
        "addr:city": "Pergusa",
        "addr:street": "Via Autodromo",
        "name": "Putiamo",
        "shop": "supermarket"
      }
    },
    {
      "type": "node",
      "id": 5061439582,
      "lat": 37.5667573,
      "lon": 14.2807473,
      "timestamp": "2021-10-24T20:04:35Z",
      "version": 5,
      "changeset": 112920104,
      "user": "fayor",
      "uid": 743479,
      "tags": {
        "capital": "6",
        "name": "Enna",
        "name:it": "Enna",
        "name:ru": "Энна",
        "name:scn": "Castrugiuvanni",
        "name:zh": "恩纳",
        "place": "town",
        "population": "26030",
        "source": "Istat gennaio 2021"
      }
    },
    {
      "type": "node",
      "id": 5088193832,
      "lat": 37.7113962,
      "lon": 14.5356709,
      "timestamp": "2022-02-13T19:40:56Z",
      "version": 3,
      "changeset": 117367016,
      "user": "fayor",
      "uid": 743479,
      "tags": {
        "addr:housenumber": "1",
        "addr:street": "Via G. Ferreri",
        "name": "Alimentari",
        "shop": "convenience"
      }
    },
    {
      "type": "node",
      "id": 5228533607,
      "lat": 37.6118029,
      "lon": 14.1699144,
      "timestamp": "2017-11-14T16:38:28Z",
      "version": 1,
      "changeset": 53776460,
      "user": "aldoct",
      "uid": 923271,
      "tags": {
        "name": "San Giovannello",
        "place": "hamlet"
      }
    },
    {
      "type": "node",
      "id": 5236747229,
      "lat": 37.6730943,
      "lon": 14.2990478,
      "timestamp": "2017-11-18T17:08:16Z",
      "version": 1,
      "changeset": 53906306,
      "user": "MaPeTh",
      "uid": 197691,
      "tags": {
        "amenity": "shelter"
      }
    },
    {
      "type": "node",
      "id": 5236747424,
      "lat": 37.6718401,
      "lon": 14.3037672,
      "timestamp": "2017-11-18T17:08:16Z",
      "version": 1,
      "changeset": 53906306,
      "user": "MaPeTh",
      "uid": 197691,
      "tags": {
        "amenity": "shelter"
      }
    },
    {
      "type": "node",
      "id": 5237733996,
      "lat": 37.4192753,
      "lon": 14.4543573,
      "timestamp": "2017-11-19T12:07:09Z",
      "version": 1,
      "changeset": 53921410,
      "user": "aldoct",
      "uid": 923271,
      "tags": {
        "amenity": "drinking_water"
      }
    },
    {
      "type": "node",
      "id": 5262261841,
      "lat": 37.707718,
      "lon": 14.2086053,
      "timestamp": "2017-12-05T10:13:35Z",
      "version": 2,
      "changeset": 54359288,
      "user": "aldoct",
      "uid": 923271,
      "tags": {
        "name": "Bordonaro Soprano",
        "place": "hamlet"
      }
    },
    {
      "type": "node",
      "id": 5276450117,
      "lat": 37.7139861,
      "lon": 14.2530334,
      "timestamp": "2019-01-13T23:26:48Z",
      "version": 2,
      "changeset": 66286847,
      "user": "aldoct",
      "uid": 923271,
      "tags": {
        "ele": "1140.2",
        "name": "Portella Argento",
        "natural": "saddle"
      }
    },
    {
      "type": "node",
      "id": 5288966882,
      "lat": 37.4279853,
      "lon": 14.2404458,
      "timestamp": "2017-12-17T03:48:06Z",
      "version": 1,
      "changeset": 54694914,
      "user": "aldoct",
      "uid": 923271,
      "tags": {
        "name": "Friddani",
        "place": "hamlet"
      }
    },
    {
      "type": "node",
      "id": 5289216239,
      "lat": 37.3856824,
      "lon": 14.2458451,
      "timestamp": "2020-11-17T13:28:37Z",
      "version": 2,
      "changeset": 94281011,
      "user": "Edward",
      "uid": 364,
      "tags": {
        "ele": "643",
        "name": "Monte Torre",
        "natural": "peak",
        "wikidata": "Q3862080"
      }
    },
    {
      "type": "node",
      "id": 5299939904,
      "lat": 37.4251289,
      "lon": 14.2083371,
      "timestamp": "2017-12-22T21:52:08Z",
      "version": 1,
      "changeset": 54851284,
      "user": "aldoct",
      "uid": 923271,
      "tags": {
        "name": "Camitrici",
        "place": "hamlet"
      }
    },
    {
      "type": "node",
      "id": 5315497311,
      "lat": 37.4892634,
      "lon": 14.4003296,
      "timestamp": "2018-01-01T22:53:58Z",
      "version": 1,
      "changeset": 55088217,
      "user": "fayor",
      "uid": 743479,
      "tags": {
        "name": "Buglio",
        "place": "hamlet",
        "population": "141"
      }
    },
    {
      "type": "node",
      "id": 5430026143,
      "lat": 37.545092,
      "lon": 14.5171505,
      "timestamp": "2018-02-22T21:43:57Z",
      "version": 1,
      "changeset": 56592857,
      "user": "fayor",
      "uid": 743479,
      "tags": {
        "name": "Cuticchi",
        "place": "hamlet",
        "population": "18"
      }
    },
    {
      "type": "node",
      "id": 5434009314,
      "lat": 37.5665128,
      "lon": 14.6811247,
      "timestamp": "2018-02-24T19:18:17Z",
      "version": 1,
      "changeset": 56643626,
      "user": "fayor",
      "uid": 743479,
      "tags": {
        "name": "Isola di Niente",
        "place": "hamlet",
        "population": "98"
      }
    },
    {
      "type": "node",
      "id": 5434010563,
      "lat": 37.6836675,
      "lon": 14.3359566,
      "timestamp": "2018-02-24T19:18:20Z",
      "version": 1,
      "changeset": 56643626,
      "user": "fayor",
      "uid": 743479,
      "tags": {
        "name": "Casuto",
        "place": "hamlet",
        "population": "32"
      }
    },
    {
      "type": "node",
      "id": 5434010573,
      "lat": 37.6312184,
      "lon": 14.4166213,
      "timestamp": "2018-02-24T19:18:20Z",
      "version": 1,
      "changeset": 56643626,
      "user": "fayor",
      "uid": 743479,
      "tags": {
        "name": "San Vincenzo Paglialunga",
        "place": "hamlet",
        "population": "60"
      }
    },
    {
      "type": "node",
      "id": 5630315132,
      "lat": 37.2721076,
      "lon": 14.7642197,
      "timestamp": "2018-05-20T11:24:48Z",
      "version": 1,
      "changeset": 59120810,
      "user": "Marco8288",
      "uid": 7833721,
      "tags": {
        "fee": "no",
        "natural": "cave_entrance"
      }
    },
    {
      "type": "node",
      "id": 5630315133,
      "lat": 37.276471,
      "lon": 14.7640295,
      "timestamp": "2018-05-20T11:24:48Z",
      "version": 1,
      "changeset": 59120810,
      "user": "Marco8288",
      "uid": 7833721,
      "tags": {
        "natural": "cave_entrance"
      }
    },
    {
      "type": "node",
      "id": 5645759114,
      "lat": 37.3279674,
      "lon": 14.7620194,
      "timestamp": "2018-05-27T12:23:41Z",
      "version": 1,
      "changeset": 59312488,
      "user": "Marco8288",
      "uid": 7833721,
      "tags": {
        "fee": "no",
        "name": "Grotta",
        "natural": "cave_entrance"
      }
    },
    {
      "type": "node",
      "id": 5645759115,
      "lat": 37.3280935,
      "lon": 14.7524778,
      "timestamp": "2018-05-27T12:23:41Z",
      "version": 1,
      "changeset": 59312488,
      "user": "Marco8288",
      "uid": 7833721,
      "tags": {
        "access": "private",
        "fee": "no",
        "name": "Grotte Rupestri",
        "natural": "cave_entrance"
      }
    },
    {
      "type": "node",
      "id": 5645759116,
      "lat": 37.3141978,
      "lon": 14.762578,
      "timestamp": "2018-05-27T12:23:41Z",
      "version": 1,
      "changeset": 59312488,
      "user": "Marco8288",
      "uid": 7833721,
      "tags": {
        "fee": "no",
        "name": "Grotta",
        "natural": "cave_entrance"
      }
    },
    {
      "type": "node",
      "id": 5660970779,
      "lat": 37.2296012,
      "lon": 14.7533464,
      "timestamp": "2019-04-28T08:46:51Z",
      "version": 2,
      "changeset": 69657834,
      "user": "aldoct",
      "uid": 923271,
      "tags": {
        "amenity": "drinking_water"
      }
    },
    {
      "type": "node",
      "id": 5660970784,
      "lat": 37.2322412,
      "lon": 14.7506984,
      "timestamp": "2019-04-28T13:15:58Z",
      "version": 2,
      "changeset": 69663522,
      "user": "aldoct",
      "uid": 923271,
      "tags": {
        "natural": "cave_entrance"
      }
    },
    {
      "type": "node",
      "id": 6027522005,
      "lat": 37.28148,
      "lon": 14.312734,
      "timestamp": "2018-10-31T14:31:40Z",
      "version": 1,
      "changeset": 64048615,
      "user": "aldoct",
      "uid": 923271,
      "tags": {
        "name": "Case Coloniche Alberti",
        "place": "hamlet"
      }
    },
    {
      "type": "node",
      "id": 6027523999,
      "lat": 37.2841519,
      "lon": 14.3018684,
      "timestamp": "2018-10-31T14:31:43Z",
      "version": 1,
      "changeset": 64048615,
      "user": "aldoct",
      "uid": 923271,
      "tags": {
        "amenity": "drinking_water"
      }
    },
    {
      "type": "node",
      "id": 6333716039,
      "lat": 37.4573912,
      "lon": 14.4442734,
      "timestamp": "2020-06-04T16:32:48Z",
      "version": 2,
      "changeset": 86199351,
      "user": "aldoct",
      "uid": 923271,
      "tags": {
        "amenity": "drinking_water",
        "name": "Abbeveratorio San Bartolo"
      }
    },
    {
      "type": "node",
      "id": 6354687378,
      "lat": 37.3259553,
      "lon": 14.4422802,
      "timestamp": "2022-02-13T19:40:57Z",
      "version": 6,
      "changeset": 117367016,
      "user": "fayor",
      "uid": 743479,
      "tags": {
        "addr:city": "Mirabella Imbaccari",
        "addr:housenumber": "1",
        "addr:postcode": "95040",
        "addr:street": "Piazza Aldo Moro",
        "brand": "Spar",
        "brand:wikidata": "Q610492",
        "brand:wikipedia": "en:SPAR (retailer)",
        "name": "Despar",
        "shop": "supermarket"
      }
    },
    {
      "type": "node",
      "id": 6774780806,
      "lat": 37.2457245,
      "lon": 14.2295265,
      "timestamp": "2019-09-05T14:04:27Z",
      "version": 1,
      "changeset": 74136735,
      "user": "aldoct",
      "uid": 923271,
      "tags": {
        "name": "Sorgente Sulfurea",
        "natural": "spring"
      }
    },
    {
      "type": "node",
      "id": 6774780807,
      "lat": 37.2458654,
      "lon": 14.2296016,
      "timestamp": "2019-09-05T14:04:27Z",
      "version": 1,
      "changeset": 74136735,
      "user": "aldoct",
      "uid": 923271,
      "tags": {
        "name": "Sorgente Sulfurea",
        "natural": "spring"
      }
    },
    {
      "type": "node",
      "id": 6790241787,
      "lat": 37.3277957,
      "lon": 14.4467692,
      "timestamp": "2021-09-22T08:07:12Z",
      "version": 2,
      "changeset": 111529373,
      "user": "Edisonweb",
      "uid": 13284150,
      "tags": {
        "amenity": "shelter",
        "bench": "yes",
        "shelter_type": "public_transport"
      }
    },
    {
      "type": "node",
      "id": 6790241803,
      "lat": 37.3259303,
      "lon": 14.4428045,
      "timestamp": "2021-06-11T11:10:35Z",
      "version": 3,
      "changeset": 106210018,
      "user": "dgitto",
      "uid": 554973,
      "tags": {
        "amenity": "shelter",
        "shelter_type": "public_transport"
      }
    },
    {
      "type": "node",
      "id": 6797687746,
      "lat": 37.5905736,
      "lon": 14.2721321,
      "timestamp": "2019-09-16T00:14:36Z",
      "version": 1,
      "changeset": 74508366,
      "user": "fayor",
      "uid": 743479,
      "tags": {
        "amenity": "drinking_water"
      }
    },
    {
      "type": "node",
      "id": 6833038858,
      "lat": 37.1640786,
      "lon": 14.7474021,
      "timestamp": "2019-09-28T17:01:13Z",
      "version": 2,
      "changeset": 75044812,
      "user": "aldoct",
      "uid": 923271,
      "tags": {
        "amenity": "drinking_water",
        "name": "Masera"
      }
    },
    {
      "type": "node",
      "id": 6833047852,
      "lat": 37.1615815,
      "lon": 14.7445817,
      "timestamp": "2019-09-28T17:01:13Z",
      "version": 1,
      "changeset": 75044812,
      "user": "aldoct",
      "uid": 923271,
      "tags": {
        "amenity": "drinking_water"
      }
    },
    {
      "type": "node",
      "id": 6836637310,
      "lat": 37.1690117,
      "lon": 14.7436577,
      "timestamp": "2019-09-30T07:01:00Z",
      "version": 1,
      "changeset": 75081244,
      "user": "aldoct",
      "uid": 923271,
      "tags": {
        "natural": "spring"
      }
    },
    {
      "type": "node",
      "id": 6888047125,
      "lat": 37.7102219,
      "lon": 14.566876,
      "timestamp": "2019-10-17T07:11:12Z",
      "version": 1,
      "changeset": 75815764,
      "user": "aldoct",
      "uid": 923271,
      "tags": {
        "name": "Villaggio Santa Margherita",
        "place": "hamlet"
      }
    },
    {
      "type": "node",
      "id": 6888604145,
      "lat": 37.7114775,
      "lon": 14.5357778,
      "timestamp": "2019-10-17T10:01:16Z",
      "version": 1,
      "changeset": 75825293,
      "user": "aldoct",
      "uid": 923271,
      "tags": {
        "amenity": "drinking_water"
      }
    },
    {
      "type": "node",
      "id": 6896951692,
      "lat": 37.3745194,
      "lon": 14.362315,
      "timestamp": "2022-02-13T19:40:57Z",
      "version": 3,
      "changeset": 117367016,
      "user": "fayor",
      "uid": 743479,
      "tags": {
        "name": "Decò",
        "shop": "supermarket"
      }
    },
    {
      "type": "node",
      "id": 6916166177,
      "lat": 37.3891402,
      "lon": 14.460104,
      "timestamp": "2019-10-25T15:31:17Z",
      "version": 1,
      "changeset": 76217754,
      "user": "aldoct",
      "uid": 923271,
      "tags": {
        "amenity": "drinking_water"
      }
    },
    {
      "type": "node",
      "id": 6917486663,
      "lat": 37.3906149,
      "lon": 14.4539858,
      "timestamp": "2019-10-26T07:19:36Z",
      "version": 1,
      "changeset": 76235788,
      "user": "aldoct",
      "uid": 923271,
      "tags": {
        "amenity": "drinking_water"
      }
    },
    {
      "type": "node",
      "id": 7005974443,
      "lat": 37.4890655,
      "lon": 14.3996362,
      "timestamp": "2019-11-24T11:55:01Z",
      "version": 1,
      "changeset": 77480138,
      "user": "aldoct",
      "uid": 923271,
      "tags": {
        "amenity": "drinking_water"
      }
    },
    {
      "type": "node",
      "id": 7008667264,
      "lat": 37.5687486,
      "lon": 14.2756616,
      "timestamp": "2019-11-25T15:32:41Z",
      "version": 1,
      "changeset": 77532538,
      "user": "pino_scavuzzo",
      "uid": 10496583,
      "tags": {
        "amenity": "drinking_water",
        "wheelchair": "limited"
      }
    },
    {
      "type": "node",
      "id": 7711503041,
      "lat": 37.2395558,
      "lon": 14.5115239,
      "timestamp": "2020-07-13T18:37:18Z",
      "version": 1,
      "changeset": 87938293,
      "user": "Mareczek86",
      "uid": 10317051,
      "tags": {
        "amenity": "drinking_water"
      }
    },
    {
      "type": "node",
      "id": 7776055627,
      "lat": 37.3193559,
      "lon": 14.2825404,
      "timestamp": "2020-08-01T18:23:53Z",
      "version": 1,
      "changeset": 88821963,
      "user": "aldoct",
      "uid": 923271,
      "tags": {
        "amenity": "drinking_water"
      }
    },
    {
      "type": "node",
      "id": 8170353331,
      "lat": 37.6338755,
      "lon": 14.3873192,
      "timestamp": "2020-11-27T11:33:33Z",
      "version": 1,
      "changeset": 94893777,
      "user": "aldoct",
      "uid": 923271,
      "tags": {
        "amenity": "drinking_water"
      }
    },
    {
      "type": "node",
      "id": 8228364406,
      "lat": 37.5340942,
      "lon": 14.2288989,
      "timestamp": "2020-12-14T17:35:11Z",
      "version": 1,
      "changeset": 95820315,
      "user": "aldoct",
      "uid": 923271,
      "tags": {
        "amenity": "drinking_water"
      }
    },
    {
      "type": "node",
      "id": 8300571531,
      "lat": 37.3142876,
      "lon": 14.1420972,
      "timestamp": "2021-01-07T16:40:35Z",
      "version": 1,
      "changeset": 97121327,
      "user": "aldoct",
      "uid": 923271,
      "tags": {
        "name": "Borgo Ratumemi",
        "place": "hamlet"
      }
    },
    {
      "type": "node",
      "id": 8561320546,
      "lat": 37.2301646,
      "lon": 14.5234452,
      "timestamp": "2022-02-13T19:41:00Z",
      "version": 6,
      "changeset": 117367020,
      "user": "fayor",
      "uid": 743479,
      "tags": {
        "name": "La Botteguccia da Mara",
        "shop": "convenience"
      }
    },
    {
      "type": "node",
      "id": 8574720475,
      "lat": 37.2303537,
      "lon": 14.5230509,
      "timestamp": "2022-02-13T19:41:00Z",
      "version": 4,
      "changeset": 117367020,
      "user": "fayor",
      "uid": 743479,
      "tags": {
        "name": "Natur House",
        "organic": "only",
        "shop": "supermarket"
      }
    },
    {
      "type": "node",
      "id": 9051403314,
      "lat": 37.7066474,
      "lon": 14.534723,
      "timestamp": "2021-08-31T17:04:05Z",
      "version": 1,
      "changeset": 110524473,
      "user": "aldoct",
      "uid": 923271,
      "tags": {
        "amenity": "drinking_water"
      }
    },
    {
      "type": "node",
      "id": 9299690860,
      "lat": 37.6625564,
      "lon": 14.2886638,
      "timestamp": "2021-12-01T12:03:13Z",
      "version": 2,
      "changeset": 114441312,
      "user": "aldoct",
      "uid": 923271,
      "tags": {
        "ele": "1041.0",
        "name": "Monte Altesinella",
        "natural": "peak",
        "wikidata": "Q12954324",
        "wikipedia": "it:Monte Altesina"
      }
    },
    {
      "type": "node",
      "id": 9459283491,
      "lat": 37.2391927,
      "lon": 14.5141116,
      "timestamp": "2022-02-13T20:45:58Z",
      "version": 4,
      "changeset": 117368851,
      "user": "fayor",
      "uid": 743479,
      "tags": {
        "brand:wikidata": "Q1129774",
        "brand:wikipedia": "it:Coop Italia",
        "name": "In Coop",
        "shop": "supermarket"
      }
    },
    {
      "type": "node",
      "id": 9459283492,
      "lat": 37.2226697,
      "lon": 14.5237997,
      "timestamp": "2022-02-13T20:45:58Z",
      "version": 4,
      "changeset": 117368851,
      "user": "fayor",
      "uid": 743479,
      "tags": {
        "brand:wikidata": "Q1129774",
        "brand:wikipedia": "it:Coop Italia",
        "name": "In Coop",
        "shop": "supermarket"
      }
    },
    {
      "type": "node",
      "id": 9459283493,
      "lat": 37.2086724,
      "lon": 14.6369299,
      "timestamp": "2022-02-13T20:45:58Z",
      "version": 4,
      "changeset": 117368851,
      "user": "fayor",
      "uid": 743479,
      "tags": {
        "brand:wikidata": "Q1129774",
        "brand:wikipedia": "it:Coop Italia",
        "name": "In Coop",
        "shop": "convenience"
      }
    },
    {
      "type": "node",
      "id": 9459283500,
      "lat": 37.1643287,
      "lon": 14.7626021,
      "timestamp": "2022-02-13T20:45:58Z",
      "version": 4,
      "changeset": 117368851,
      "user": "fayor",
      "uid": 743479,
      "tags": {
        "brand:wikidata": "Q1129774",
        "brand:wikipedia": "it:Coop Italia",
        "name": "In Coop",
        "shop": "supermarket"
      }
    },
    {
      "type": "node",
      "id": 9459306736,
      "lat": 37.2820968,
      "lon": 14.425773,
      "timestamp": "2022-02-13T20:45:58Z",
      "version": 4,
      "changeset": 117368851,
      "user": "fayor",
      "uid": 743479,
      "tags": {
        "brand:wikidata": "Q1129774",
        "brand:wikipedia": "it:Coop Italia",
        "name": "In Coop",
        "shop": "convenience"
      }
    },
    {
      "type": "node",
      "id": 9459306737,
      "lat": 37.4770868,
      "lon": 14.5337775,
      "timestamp": "2022-02-13T20:45:58Z",
      "version": 4,
      "changeset": 117368851,
      "user": "fayor",
      "uid": 743479,
      "tags": {
        "brand:wikidata": "Q1129774",
        "brand:wikipedia": "it:Coop Italia",
        "name": "In Coop",
        "shop": "convenience"
      }
    },
    {
      "type": "node",
      "id": 9459306738,
      "lat": 37.4751455,
      "lon": 14.5348746,
      "timestamp": "2022-02-13T20:45:58Z",
      "version": 4,
      "changeset": 117368851,
      "user": "fayor",
      "uid": 743479,
      "tags": {
        "brand:wikidata": "Q1129774",
        "brand:wikipedia": "it:Coop Italia",
        "name": "In Coop",
        "shop": "convenience"
      }
    },
    {
      "type": "node",
      "id": 9459306794,
      "lat": 37.3884135,
      "lon": 14.6963033,
      "timestamp": "2022-02-13T20:45:58Z",
      "version": 4,
      "changeset": 117368851,
      "user": "fayor",
      "uid": 743479,
      "tags": {
        "brand:wikidata": "Q1129774",
        "brand:wikipedia": "it:Coop Italia",
        "name": "In Coop",
        "shop": "supermarket"
      }
    },
    {
      "type": "node",
      "id": 9459306862,
      "lat": 37.2121992,
      "lon": 14.64926,
      "timestamp": "2022-02-13T19:41:00Z",
      "version": 3,
      "changeset": 117367020,
      "user": "fayor",
      "uid": 743479,
      "tags": {
        "brand:wikidata": "Q1129774",
        "brand:wikipedia": "it:Coop Italia",
        "name": "Coop",
        "shop": "supermarket"
      }
    },
    {
      "type": "node",
      "id": 9726384414,
      "lat": 37.428571,
      "lon": 14.4750251,
      "timestamp": "2022-05-09T09:37:09Z",
      "version": 1,
      "changeset": 120738579,
      "user": "ross-map",
      "uid": 8215303,
      "tags": {
        "amenity": "drinking_water"
      }
    },
    {
      "type": "way",
      "id": 59150230,
      "timestamp": "2022-01-06T12:53:05Z",
      "version": 2,
      "changeset": 115836144,
      "user": "Oliveri",
      "uid": 4191480,
      "center": {
        "lat": 37.6705996,
        "lon": 14.3066848
      },
      "nodes": [],
      "tags": {
        "building": "yes",
        "fee": "no",
        "name": "Rifugio forestale di Monte Altesina",
        "tourism": "alpine_hut"
      }
    },
    {
      "type": "way",
      "id": 207984274,
      "timestamp": "2019-11-25T16:06:11Z",
      "version": 2,
      "changeset": 77533724,
      "user": "lorenzo verde",
      "uid": 10496556,
      "center": {
        "lat": 37.5614241,
        "lon": 14.2733465
      },
      "nodes": [],
      "tags": {
        "building": "yes",
        "name": "sisa",
        "shop": "supermarket",
        "source": "Geoportale Regione Siciliana, http://www.sitr.regione.sicilia.it"
      }
    },
    {
      "type": "way",
      "id": 218564145,
      "timestamp": "2016-12-20T18:55:04Z",
      "version": 2,
      "changeset": 44548493,
      "user": "AlessandroAM",
      "uid": 371991,
      "center": {
        "lat": 37.5077877,
        "lon": 14.079941
      },
      "nodes": [],
      "tags": {
        "building": "yes",
        "name": "Kylie",
        "shop": "convenience"
      }
    },
    {
      "type": "way",
      "id": 279460275,
      "timestamp": "2014-05-04T21:02:27Z",
      "version": 1,
      "changeset": 22135027,
      "user": "David Paleino",
      "uid": 71261,
      "center": {
        "lat": 37.5741092,
        "lon": 14.4772571
      },
      "nodes": [],
      "tags": {
        "amenity": "shelter",
        "generator:method": "photovoltaic",
        "generator:source": "solar",
        "generator:type": "solar_photovoltaic_panel",
        "layer": "1",
        "power": "generator"
      }
    },
    {
      "type": "way",
      "id": 422705416,
      "timestamp": "2022-02-19T15:50:39Z",
      "version": 2,
      "changeset": 117609547,
      "user": "fayor",
      "uid": 743479,
      "center": {
        "lat": 37.2135955,
        "lon": 14.5215673
      },
      "nodes": [],
      "tags": {
        "brand:wikidata": "Q151954",
        "brand:wikipedia": "it:Lidl",
        "name": "Lidl",
        "shop": "supermarket",
        "wheelchair": "yes"
      }
    },
    {
      "type": "way",
      "id": 598315714,
      "timestamp": "2022-02-13T19:41:00Z",
      "version": 3,
      "changeset": 117367020,
      "user": "fayor",
      "uid": 743479,
      "center": {
        "lat": 37.3463735,
        "lon": 14.7309155
      },
      "nodes": [],
      "tags": {
        "building": "yes",
        "name": "EuroSpin",
        "shop": "supermarket"
      }
    },
    {
      "type": "way",
      "id": 598315715,
      "timestamp": "2022-02-13T19:41:00Z",
      "version": 3,
      "changeset": 117367020,
      "user": "fayor",
      "uid": 743479,
      "center": {
        "lat": 37.3410681,
        "lon": 14.7358798
      },
      "nodes": [],
      "tags": {
        "building": "yes",
        "name": "PaghiPoco",
        "shop": "supermarket"
      }
    },
    {
      "type": "way",
      "id": 692643547,
      "timestamp": "2019-05-26T21:25:54Z",
      "version": 1,
      "changeset": 70641945,
      "user": "Tomi",
      "uid": 30255,
      "center": {
        "lat": 37.2206354,
        "lon": 14.5533157
      },
      "nodes": [],
      "tags": {
        "amenity": "shelter",
        "building": "yes",
        "shelter_type": "lean_to"
      }
    },
    {
      "type": "way",
      "id": 724010320,
      "timestamp": "2022-02-13T19:41:00Z",
      "version": 5,
      "changeset": 117367020,
      "user": "fayor",
      "uid": 743479,
      "center": {
        "lat": 37.3290777,
        "lon": 14.450183
      },
      "nodes": [],
      "tags": {
        "addr:city": "Mirabella Imbaccari",
        "addr:postcode": "95040",
        "addr:street": "Corso Sicilia",
        "branch": "S p A",
        "brand": "MD",
        "brand:wikidata": "Q3841263",
        "brand:wikipedia": "en:MD Discount",
        "building": "yes",
        "name": "MD",
        "shop": "supermarket"
      }
    },
    {
      "type": "way",
      "id": 749507321,
      "timestamp": "2020-03-27T20:01:54Z",
      "version": 2,
      "changeset": 82731658,
      "user": "mcheck",
      "uid": 478872,
      "center": {
        "lat": 37.5688956,
        "lon": 14.2701375
      },
      "nodes": [],
      "tags": {
        "addr:housenumber": "31",
        "addr:street": "Via Alessandro Manzoni",
        "building": "yes",
        "name": "Centesimo",
        "shop": "supermarket"
      }
    },
    {
      "type": "way",
      "id": 749507348,
      "timestamp": "2022-02-13T19:40:50Z",
      "version": 3,
      "changeset": 117367016,
      "user": "fayor",
      "uid": 743479,
      "center": {
        "lat": 37.5609433,
        "lon": 14.2732503
      },
      "nodes": [],
      "tags": {
        "addr:city": "Enna",
        "addr:postcode": "94100",
        "addr:street": "piazza europa",
        "building": "yes",
        "name": "crai caruso",
        "shop": "supermarket"
      }
    },
    {
      "type": "way",
      "id": 749510798,
      "timestamp": "2019-11-25T16:15:17Z",
      "version": 1,
      "changeset": 77534060,
      "user": "lorenzo verde",
      "uid": 10496556,
      "center": {
        "lat": 37.5663807,
        "lon": 14.2752627
      },
      "nodes": [],
      "tags": {
        "addr:city": "Enna",
        "addr:housenumber": "200",
        "addr:postcode": "94100",
        "addr:street": "Via Roma",
        "building": "yes",
        "name": "sapori del mondo",
        "shop": "supermarket"
      }
    },
    {
      "type": "way",
      "id": 749512812,
      "timestamp": "2019-11-25T16:21:46Z",
      "version": 1,
      "changeset": 77534310,
      "user": "lorenzo verde",
      "uid": 10496556,
      "center": {
        "lat": 37.5663885,
        "lon": 14.2754226
      },
      "nodes": [],
      "tags": {
        "addr:city": "Enna",
        "addr:postcode": "94100",
        "addr:street": "Via Roma",
        "building": "yes",
        "name": "zio umberto",
        "shop": "supermarket"
      }
    },
    {
      "type": "way",
      "id": 749516594,
      "timestamp": "2022-02-13T19:40:50Z",
      "version": 4,
      "changeset": 117367016,
      "user": "fayor",
      "uid": 743479,
      "center": {
        "lat": 37.5668601,
        "lon": 14.2800415
      },
      "nodes": [],
      "tags": {
        "addr:city": "Enna",
        "addr:housenumber": "370",
        "addr:postcode": "94100",
        "addr:street": "Via Roma",
        "name": "crai caruso",
        "shop": "supermarket"
      }
    },
    {
      "type": "way",
      "id": 749518310,
      "timestamp": "2022-02-13T19:40:50Z",
      "version": 4,
      "changeset": 117367016,
      "user": "fayor",
      "uid": 743479,
      "center": {
        "lat": 37.5668592,
        "lon": 14.2863031
      },
      "nodes": [],
      "tags": {
        "building": "yes",
        "layer": "-1",
        "location": "surface",
        "name": "crai caruso",
        "shop": "supermarket"
      }
    },
    {
      "type": "way",
      "id": 749518510,
      "timestamp": "2022-02-13T19:40:50Z",
      "version": 4,
      "changeset": 117367016,
      "user": "fayor",
      "uid": 743479,
      "center": {
        "lat": 37.5666341,
        "lon": 14.2863406
      },
      "nodes": [],
      "tags": {
        "addr:city": "Enna",
        "addr:postcode": "94100",
        "addr:street": "Via Lombardia",
        "name": "crai caruso",
        "shop": "supermarket"
      }
    },
    {
      "type": "way",
      "id": 774742619,
      "timestamp": "2020-02-19T19:30:05Z",
      "version": 1,
      "changeset": 81237256,
      "user": "fayor",
      "uid": 743479,
      "center": {
        "lat": 37.5490075,
        "lon": 14.2873684
      },
      "nodes": [],
      "tags": {
        "brand": "Lidl",
        "brand:wikidata": "Q151954",
        "brand:wikipedia": "en:Lidl",
        "name": "Lidl",
        "opening_hours": "Mo-Su 08:00-22:00",
        "shop": "supermarket"
      }
    },
    {
      "type": "way",
      "id": 891444968,
      "timestamp": "2022-02-13T19:41:00Z",
      "version": 4,
      "changeset": 117367020,
      "user": "fayor",
      "uid": 743479,
      "center": {
        "lat": 37.626972,
        "lon": 14.3977627
      },
      "nodes": [],
      "tags": {
        "brand": "MD",
        "brand:wikidata": "Q3841263",
        "brand:wikipedia": "en:MD Discount",
        "building": "yes",
        "name": "MD",
        "shop": "supermarket"
      }
    },
    {
      "type": "way",
      "id": 928894413,
      "timestamp": "2021-04-10T15:22:17Z",
      "version": 1,
      "changeset": 102703636,
      "user": "dgitto",
      "uid": 554973,
      "center": {
        "lat": 37.6580137,
        "lon": 14.5183624
      },
      "nodes": [],
      "tags": {
        "amenity": "shelter",
        "building": "roof"
      }
    },
    {
      "type": "way",
      "id": 1025981122,
      "timestamp": "2022-01-30T01:03:38Z",
      "version": 1,
      "changeset": 116764232,
      "user": "fayor",
      "uid": 743479,
      "center": {
        "lat": 37.4665213,
        "lon": 14.6459468
      },
      "nodes": [],
      "tags": {
        "brand:wikidata": "Q1129774",
        "brand:wikipedia": "it:Coop Italia",
        "name": "Coop",
        "shop": "supermarket"
      }
    }
  ]
}